{
  "code": "MV",
  "name": "Mecklenburg-Vorpommern",
  "fullName": "Mecklenburg-Vorpommern",
  "asOf": "2026-06-01T14:45:37.749Z",
  "source": "https://creativecommons.tankerkoenig.de/",
  "licence": "CC BY 4.0 — Bundeskartellamt MTS-K via tankerkoenig.de",
  "mode": "demo",
  "stationCount": 351,
  "fuels": {
    "gazole": {
      "count": 351,
      "mean": 1.009,
      "median": 1.009,
      "min": 1.009,
      "max": 1.009
    },
    "sp95": {
      "count": 351,
      "mean": 1.009,
      "median": 1.009,
      "min": 1.009,
      "max": 1.009
    },
    "e10": {
      "count": 351,
      "mean": 1.009,
      "median": 1.009,
      "min": 1.009,
      "max": 1.009
    }
  },
  "stations": [
    {
      "id": "e1a15081-24c4-9107-e040-0b0a3dfe563c",
      "cp": "18211",
      "ville": "Admannshagen-Bargeshagen",
      "adresse": "Rabenhorster Damm 1",
      "brand": "Hem",
      "lat": 54.1111355,
      "lng": 11.97241,
      "fuels": {
        "gazole": 1.009,
        "sp95": 1.009,
        "e10": 1.009
      }
    },
    {
      "id": "5e8b3f76-34e9-4de5-822e-8ebc086751a1",
      "cp": "17419",
      "ville": "Ahlbeck",
      "adresse": "Ferdinand-Egelinski-Str. 3",
      "brand": "Totalenergies",
      "lat": 53.934109,
      "lng": 14.19451,
      "fuels": {
        "gazole": 1.009,
        "sp95": 1.009,
        "e10": 1.009
      }
    },
    {
      "id": "023c4d55-1bef-4413-b969-549b3f7e98d9",
      "cp": "18320",
      "ville": "Ahrenshagen",
      "adresse": "Hauptstr. 4",
      "brand": "Adap Tankstelle",
      "lat": 54.22948074341,
      "lng": 12.57772731781,
      "fuels": {
        "gazole": 1.009,
        "sp95": 1.009,
        "e10": 1.009
      }
    },
    {
      "id": "2719a867-1768-4125-965f-4620a881f98d",
      "cp": "18556",
      "ville": "Altenkirchen",
      "adresse": "Umgehungsstr. 1",
      "brand": "Totalenergies",
      "lat": 54.631785,
      "lng": 13.347598,
      "fuels": {
        "gazole": 1.009,
        "sp95": 1.009,
        "e10": 1.009
      }
    },
    {
      "id": "72b25af4-8ad9-4944-9fb6-80fc6d383b55",
      "cp": "17087",
      "ville": "Altentreptow",
      "adresse": "Fritz Reuter Str. 1-3",
      "brand": "Shell",
      "lat": 53.69233,
      "lng": 13.25631,
      "fuels": {
        "gazole": 1.009,
        "sp95": 1.009,
        "e10": 1.009
      }
    },
    {
      "id": "2be64701-0501-480e-a3ae-688598941e03",
      "cp": "17087",
      "ville": "Altentreptow",
      "adresse": "Gewerbehof 1",
      "brand": "oil!",
      "lat": 53.6859,
      "lng": 13.2637,
      "fuels": {
        "gazole": 1.009,
        "sp95": 1.009,
        "e10": 1.009
      }
    },
    {
      "id": "230be3f6-cb0d-4ae8-aefc-f82b3f8c47e6",
      "cp": "17389",
      "ville": "Anklam",
      "adresse": "Am Flugplatz 1",
      "brand": "Freie Tankstelle",
      "lat": 53.835715,
      "lng": 13.678408,
      "fuels": {
        "gazole": 1.009,
        "sp95": 1.009,
        "e10": 1.009
      }
    },
    {
      "id": "8965dca8-0afb-46a2-99aa-31c384d66580",
      "cp": "17389",
      "ville": "Anklam",
      "adresse": "Friedländer Landstr. 21 A",
      "brand": "Aral",
      "lat": 53.843132,
      "lng": 13.684718,
      "fuels": {
        "gazole": 1.009,
        "sp95": 1.009,
        "e10": 1.009
      }
    },
    {
      "id": "e1a15081-24bd-9107-e040-0b0a3dfe563c",
      "cp": "17389",
      "ville": "Anklam",
      "adresse": "Lübecker Str. 20",
      "brand": "Hem",
      "lat": 53.844761,
      "lng": 13.685467,
      "fuels": {
        "gazole": 1.009,
        "sp95": 1.009,
        "e10": 1.009
      }
    },
    {
      "id": "389c1ac6-8e3c-4bc5-865f-14e081277f7f",
      "cp": "17389",
      "ville": "Anklam",
      "adresse": "Pasewalker Allee 95a",
      "brand": "Totalenergies",
      "lat": 53.838653,
      "lng": 13.714726,
      "fuels": {
        "gazole": 1.009,
        "sp95": 1.009,
        "e10": 1.009
      }
    },
    {
      "id": "b1eccba4-16ad-476f-9b50-08f2a35de5ee",
      "cp": "17389",
      "ville": "Anklam",
      "adresse": "Ravelinstr. 13",
      "brand": "oil!",
      "lat": 53.8582,
      "lng": 13.6919,
      "fuels": {
        "gazole": 1.009,
        "sp95": 1.009,
        "e10": 1.009
      }
    },
    {
      "id": "0f05be71-4f86-441f-83b8-a007d5ed4519",
      "cp": "18209",
      "ville": "Bad Doberan",
      "adresse": "An Der b105",
      "brand": "Shell",
      "lat": 54.106327,
      "lng": 11.928253,
      "fuels": {
        "gazole": 1.009,
        "sp95": 1.009,
        "e10": 1.009
      }
    },
    {
      "id": "51d4b561-a095-1aa0-e100-80009459e03a",
      "cp": "18209",
      "ville": "Bad Doberan",
      "adresse": "An Der Krim 1",
      "brand": "Jet",
      "lat": 54.10847,
      "lng": 11.91849,
      "fuels": {
        "gazole": 1.009,
        "sp95": 1.009,
        "e10": 1.009
      }
    },
    {
      "id": "29573346-20bb-4a8a-80da-93b25dc521da",
      "cp": "18209",
      "ville": "Bad Doberan",
      "adresse": "Buchenweg 5",
      "brand": "Avia",
      "lat": 54.100983,
      "lng": 11.932989,
      "fuels": {
        "gazole": 1.009,
        "sp95": 1.009,
        "e10": 1.009
      }
    },
    {
      "id": "d54d2a8d-741d-4575-8e33-36d239c2e9e7",
      "cp": "18334",
      "ville": "Bad Suelze",
      "adresse": "Am Alten Bahndamm 2",
      "brand": "Shell",
      "lat": 54.111016,
      "lng": 12.633034,
      "fuels": {
        "gazole": 1.009,
        "sp95": 1.009,
        "e10": 1.009
      }
    },
    {
      "id": "31831364-4bed-4fa2-9f0e-8efb4f5cffb0",
      "cp": "19336",
      "ville": "Bad Wilsnack",
      "adresse": "Legder Chaussee 3",
      "brand": "Nordoel",
      "lat": 52.951186,
      "lng": 11.948831,
      "fuels": {
        "gazole": 1.009,
        "sp95": 1.009,
        "e10": 1.009
      }
    },
    {
      "id": "b15d44a7-751a-4043-8f72-7649e9ce0fc1",
      "cp": "19230",
      "ville": "Bandenitz",
      "adresse": "Hauptstraße 41",
      "brand": "Aral",
      "lat": 53.49134,
      "lng": 11.28225,
      "fuels": {
        "gazole": 1.009,
        "sp95": 1.009,
        "e10": 1.009
      }
    },
    {
      "id": "43bb7d1b-95c7-4c2b-be35-ede8c34aba31",
      "cp": "17429",
      "ville": "Bansin",
      "adresse": "Ahlbecker Chaussee 19",
      "brand": "oil!",
      "lat": 53.9629,
      "lng": 14.1364,
      "fuels": {
        "gazole": 1.009,
        "sp95": 1.009,
        "e10": 1.009
      }
    },
    {
      "id": "73f39eb5-19de-4ee8-877f-557f2ac5f899",
      "cp": "18356",
      "ville": "Barth",
      "adresse": "Am Mastweg 25",
      "brand": "Esso",
      "lat": 54.361358,
      "lng": 12.711953,
      "fuels": {
        "gazole": 1.009,
        "sp95": 1.009,
        "e10": 1.009
      }
    },
    {
      "id": "8df9a5e4-d4e7-41d0-8f00-3488afcc11be",
      "cp": "18356",
      "ville": "Barth",
      "adresse": "Chausseestr. 79",
      "brand": "Totalenergies",
      "lat": 54.353473,
      "lng": 12.724514,
      "fuels": {
        "gazole": 1.009,
        "sp95": 1.009,
        "e10": 1.009
      }
    },
    {
      "id": "852fdfcf-5345-4e92-8f94-92424b3f9f68",
      "cp": "18230",
      "ville": "Bastorf",
      "adresse": "Kühlungsborner Straße 28",
      "brand": "Bft",
      "lat": 54.1254,
      "lng": 11.6931,
      "fuels": {
        "gazole": 1.009,
        "sp95": 1.009,
        "e10": 1.009
      }
    },
    {
      "id": "b4949ec5-2b7d-4436-9186-1bec15398dca",
      "cp": "18182",
      "ville": "Bentwisch",
      "adresse": "Hansestraße 22",
      "brand": "Team",
      "lat": 54.116109,
      "lng": 12.184257,
      "fuels": {
        "gazole": 1.009,
        "sp95": 1.009,
        "e10": 1.009
      }
    },
    {
      "id": "963df0f2-9a08-4104-91c6-60be8e0e4231",
      "cp": "18528",
      "ville": "Bergen",
      "adresse": "Nonnenseestr. 1",
      "brand": "Supermarkt-Tankstelle",
      "lat": 54.427174,
      "lng": 13.420747,
      "fuels": {
        "gazole": 1.009,
        "sp95": 1.009,
        "e10": 1.009
      }
    },
    {
      "id": "40706f79-07da-4888-9736-806ef4518536",
      "cp": "18528",
      "ville": "Bergen",
      "adresse": "Ringstr. 130",
      "brand": "Shell",
      "lat": 54.421289,
      "lng": 13.423391,
      "fuels": {
        "gazole": 1.009,
        "sp95": 1.009,
        "e10": 1.009
      }
    },
    {
      "id": "89c3007e-5120-41fb-8872-2d007a0fa544",
      "cp": "18528",
      "ville": "Bergen",
      "adresse": "Stralsunder Ch. 18",
      "brand": "Totalenergies",
      "lat": 54.407479,
      "lng": 13.418115,
      "fuels": {
        "gazole": 1.009,
        "sp95": 1.009,
        "e10": 1.009
      }
    },
    {
      "id": "2e970d36-62f4-4c0d-a5c7-4205255436fb",
      "cp": "18528",
      "ville": "Bergen",
      "adresse": "Stralsunder Chaussee 23",
      "brand": "Aral",
      "lat": 54.40752,
      "lng": 13.416135,
      "fuels": {
        "gazole": 1.009,
        "sp95": 1.009,
        "e10": 1.009
      }
    },
    {
      "id": "89ed70aa-88d9-4650-87d2-ac3c3b756a2b",
      "cp": "18528",
      "ville": "Bergen",
      "adresse": "Stralsunder Chaussee 4",
      "brand": "oil!",
      "lat": 54.4111,
      "lng": 13.4258,
      "fuels": {
        "gazole": 1.009,
        "sp95": 1.009,
        "e10": 1.009
      }
    },
    {
      "id": "cd646fd4-a432-46bc-b05b-ff439a2eaefd",
      "cp": "18609",
      "ville": "Binz",
      "adresse": "Proraer Ch.",
      "brand": "Totalenergies",
      "lat": 54.402414,
      "lng": 13.602854,
      "fuels": {
        "gazole": 1.009,
        "sp95": 1.009,
        "e10": 1.009
      }
    },
    {
      "id": "2a012b3f-96d4-4ea2-b90f-cd23807918aa",
      "cp": "19258",
      "ville": "Boizenburg",
      "adresse": "Am Keesboom 2",
      "brand": "Totalenergies",
      "lat": 53.385834,
      "lng": 10.735236,
      "fuels": {
        "gazole": 1.009,
        "sp95": 1.009,
        "e10": 1.009
      }
    },
    {
      "id": "005056ba-7cb6-1ed2-bceb-8985ecd78d30",
      "cp": "19258",
      "ville": "Boizenburg",
      "adresse": "Gülzer Straße 5",
      "brand": "Star",
      "lat": 53.380093,
      "lng": 10.769075,
      "fuels": {
        "gazole": 1.009,
        "sp95": 1.009,
        "e10": 1.009
      }
    },
    {
      "id": "c0eeba5d-fb19-47f5-b626-b2795120153e",
      "cp": "18375",
      "ville": "Born A. Darss",
      "adresse": "Baederstr. 2",
      "brand": "Shell",
      "lat": 54.39165,
      "lng": 12.541765,
      "fuels": {
        "gazole": 1.009,
        "sp95": 1.009,
        "e10": 1.009
      }
    },
    {
      "id": "e94a2aa2-7df5-4ae0-a28a-4e6738ff4780",
      "cp": "18184",
      "ville": "Broderstorf",
      "adresse": "Mecklenburger Str. 3",
      "brand": "Shell",
      "lat": 54.081005,
      "lng": 12.213424,
      "fuels": {
        "gazole": 1.009,
        "sp95": 1.009,
        "e10": 1.009
      }
    },
    {
      "id": "2dffd221-a79e-4349-ba4d-7a43767c6218",
      "cp": "19412",
      "ville": "Brueel",
      "adresse": "Am Kreuzsee 1",
      "brand": "Totalenergies",
      "lat": 53.729394,
      "lng": 11.690909,
      "fuels": {
        "gazole": 1.009,
        "sp95": 1.009,
        "e10": 1.009
      }
    },
    {
      "id": "ad6d79b2-e0b8-441b-9641-c0132c6b045a",
      "cp": "19412",
      "ville": "Brueel",
      "adresse": "Sternberger Str. /B 104 104",
      "brand": "Sb",
      "lat": 53.73368,
      "lng": 11.72036,
      "fuels": {
        "gazole": 1.009,
        "sp95": 1.009,
        "e10": 1.009
      }
    },
    {
      "id": "e1a15081-2592-9107-e040-0b0a3dfe563c",
      "cp": "17509",
      "ville": "Brünzow",
      "adresse": "Lubminer Str. 3",
      "brand": "Hem",
      "lat": 54.103829,
      "lng": 13.56554,
      "fuels": {
        "gazole": 1.009,
        "sp95": 1.009,
        "e10": 1.009
      }
    },
    {
      "id": "2801115a-5ab0-495c-9d6b-83e6dbf87537",
      "cp": "18246",
      "ville": "Buetzow",
      "adresse": "Wismarsche Str. 13b",
      "brand": "Totalenergies",
      "lat": 53.846768,
      "lng": 11.958524,
      "fuels": {
        "gazole": 1.009,
        "sp95": 1.009,
        "e10": 1.009
      }
    },
    {
      "id": "e1a15081-24d8-9107-e040-0b0a3dfe563c",
      "cp": "17094",
      "ville": "Burg Stargard",
      "adresse": "Tuchmacherstr. 1",
      "brand": "Hem",
      "lat": 53.498169,
      "lng": 13.305463,
      "fuels": {
        "gazole": 1.009,
        "sp95": 1.009,
        "e10": 1.009
      }
    },
    {
      "id": "005056ba-7cb6-1ed2-bceb-59061d028d18",
      "cp": "17089",
      "ville": "Burow",
      "adresse": "Seltzer Straße 1",
      "brand": "Star",
      "lat": 53.77351,
      "lng": 13.266153,
      "fuels": {
        "gazole": 1.009,
        "sp95": 1.009,
        "e10": 1.009
      }
    },
    {
      "id": "83c36316-ccf5-4c42-ad4a-231f57dedbb4",
      "cp": "18246",
      "ville": "Bützow",
      "adresse": "Tarnower Chaussee 1a",
      "brand": "Avia",
      "lat": 53.829848,
      "lng": 11.993848,
      "fuels": {
        "gazole": 1.009,
        "sp95": 1.009,
        "e10": 1.009
      }
    },
    {
      "id": "ee61d37f-bb8c-47ac-ba3c-f2ef11dd5059",
      "cp": "18246",
      "ville": "Bützow",
      "adresse": "Tarnower Chaussee 3",
      "brand": "Avia",
      "lat": 53.825414,
      "lng": 11.995278,
      "fuels": {
        "gazole": 1.009,
        "sp95": 1.009,
        "e10": 1.009
      }
    },
    {
      "id": "3ed81b9d-6d5a-48e7-9795-fa4d7e2da56a",
      "cp": "19089",
      "ville": "Crivitz",
      "adresse": "Brüeler Straße 27",
      "brand": "Lkt",
      "lat": 53.589009,
      "lng": 11.650919,
      "fuels": {
        "gazole": 1.009,
        "sp95": 1.009,
        "e10": 1.009
      }
    },
    {
      "id": "005056ba-7cb6-1ed2-bceb-8b1f8b6a4d33",
      "cp": "19089",
      "ville": "Crivitz",
      "adresse": "Gewerbeallee 1",
      "brand": "Star",
      "lat": 53.568018,
      "lng": 11.66166,
      "fuels": {
        "gazole": 1.009,
        "sp95": 1.009,
        "e10": 1.009
      }
    },
    {
      "id": "419a49c5-e289-48e9-b410-8300808b3362",
      "cp": "17209",
      "ville": "Dambeck",
      "adresse": "Roebeler Chaussee 3",
      "brand": "Shell",
      "lat": 53.361372,
      "lng": 12.496993,
      "fuels": {
        "gazole": 1.009,
        "sp95": 1.009,
        "e10": 1.009
      }
    },
    {
      "id": "8dfc8dc7-79cb-57a5-8ef6-06887e2af3ce",
      "cp": "17159",
      "ville": "Dargun",
      "adresse": "Demminer Str. 39",
      "brand": "Hoyer",
      "lat": 53.90386581421,
      "lng": 12.86662578583,
      "fuels": {
        "gazole": 1.009,
        "sp95": 1.009,
        "e10": 1.009
      }
    },
    {
      "id": "e1a15081-24db-9107-e040-0b0a3dfe563c",
      "cp": "17109",
      "ville": "Demmin",
      "adresse": "Drönnewitzer Str. 50",
      "brand": "Hem",
      "lat": 53.905457,
      "lng": 13.013949,
      "fuels": {
        "gazole": 1.009,
        "sp95": 1.009,
        "e10": 1.009
      }
    },
    {
      "id": "0cd10785-7b1f-4e66-bab0-59863b85e281",
      "cp": "17109",
      "ville": "Demmin",
      "adresse": "Jarmener Ch. 1a",
      "brand": "Elan",
      "lat": 53.904232,
      "lng": 13.067141,
      "fuels": {
        "gazole": 1.009,
        "sp95": 1.009,
        "e10": 1.009
      }
    },
    {
      "id": "ee0c170f-82ad-4b8c-9fef-94ab88bde28d",
      "cp": "17109",
      "ville": "Demmin",
      "adresse": "Loitzer Str. 5a",
      "brand": "Shell",
      "lat": 53.910401,
      "lng": 13.028057,
      "fuels": {
        "gazole": 1.009,
        "sp95": 1.009,
        "e10": 1.009
      }
    },
    {
      "id": "005056ba-7cb6-1ee4-81d1-6bdfdc2757df",
      "cp": "17109",
      "ville": "Demmin",
      "adresse": "Stavenhagener Straße 23a",
      "brand": "Star",
      "lat": 53.893674,
      "lng": 13.039193,
      "fuels": {
        "gazole": 1.009,
        "sp95": 1.009,
        "e10": 1.009
      }
    },
    {
      "id": "005056ba-7cb6-1ed2-bceb-a6ad590b0d41",
      "cp": "18334",
      "ville": "Dettmannsdorf",
      "adresse": "Schwarzer Weg 2",
      "brand": "Star",
      "lat": 54.111908,
      "lng": 12.531864,
      "fuels": {
        "gazole": 1.009,
        "sp95": 1.009,
        "e10": 1.009
      }
    },
    {
      "id": "1fe993e6-581e-4eaa-8877-9a4a9ea2f097",
      "cp": "17498",
      "ville": "Diedrichshagen",
      "adresse": "An Der Chaussee 5",
      "brand": "Nordoel",
      "lat": 54.053352,
      "lng": 13.478545,
      "fuels": {
        "gazole": 1.009,
        "sp95": 1.009,
        "e10": 1.009
      }
    },
    {
      "id": "00060746-0594-4444-8888-acdc00000594",
      "cp": "19303",
      "ville": "Dömitz",
      "adresse": "Leopoldsbrunnen 1",
      "brand": "Vr Plus Energie",
      "lat": 53.134944915771,
      "lng": 11.275660514832,
      "fuels": {
        "gazole": 1.009,
        "sp95": 1.009,
        "e10": 1.009
      }
    },
    {
      "id": "9570882a-bfd7-4590-8968-f1e07a17f2cb",
      "cp": "19288",
      "ville": "Dreenkrögen",
      "adresse": "Straße Des Friedens 14",
      "brand": "Shell",
      "lat": 53.4266,
      "lng": 11.49385,
      "fuels": {
        "gazole": 1.009,
        "sp95": 1.009,
        "e10": 1.009
      }
    },
    {
      "id": "98541129-0760-4d5d-91f8-55aaaf21cecb",
      "cp": "17398",
      "ville": "Ducherow",
      "adresse": "Karl-Marx-Str. 25",
      "brand": "Bft",
      "lat": 53.7553,
      "lng": 13.777,
      "fuels": {
        "gazole": 1.009,
        "sp95": 1.009,
        "e10": 1.009
      }
    },
    {
      "id": "94b208e4-9c33-4786-8546-8831af2861a7",
      "cp": "18196",
      "ville": "Dummerstorf",
      "adresse": "Hohen Tannen 4",
      "brand": "Avia",
      "lat": 54.030366,
      "lng": 12.217784,
      "fuels": {
        "gazole": 1.009,
        "sp95": 1.009,
        "e10": 1.009
      }
    },
    {
      "id": "8b15d8e3-5313-4693-a7be-2f2d2fa54428",
      "cp": "18196",
      "ville": "Dummerstorf",
      "adresse": "Manfred-Roth-Straße 3",
      "brand": "Aral",
      "lat": 54.022232,
      "lng": 12.23052,
      "fuels": {
        "gazole": 1.009,
        "sp95": 1.009,
        "e10": 1.009
      }
    },
    {
      "id": "e1a15081-24df-9107-e040-0b0a3dfe563c",
      "cp": "17367",
      "ville": "Eggesin",
      "adresse": "Friedrich Engels Str. B 1",
      "brand": "Hem",
      "lat": 53.675002,
      "lng": 14.097916,
      "fuels": {
        "gazole": 1.009,
        "sp95": 1.009,
        "e10": 1.009
      }
    },
    {
      "id": "005056ba-7cb6-1ed2-bceb-b3fede7c0d48",
      "cp": "17367",
      "ville": "Eggesin",
      "adresse": "Ueckermünder Straße 36",
      "brand": "Star",
      "lat": 53.684797,
      "lng": 14.079668,
      "fuels": {
        "gazole": 1.009,
        "sp95": 1.009,
        "e10": 1.009
      }
    },
    {
      "id": "00060741-0593-4444-8888-acdc00000593",
      "cp": "19294",
      "ville": "Eldena",
      "adresse": "Ludwigsluster Str. 22",
      "brand": "Vr Plus Energie",
      "lat": 53.234077453613,
      "lng": 11.420046806335,
      "fuels": {
        "gazole": 1.009,
        "sp95": 1.009,
        "e10": 1.009
      }
    },
    {
      "id": "c3a553c9-f367-483a-bc3e-fa47d5cce5c8",
      "cp": "17258",
      "ville": "Feldberg",
      "adresse": "Alter Landweg 1a",
      "brand": "Totalenergies",
      "lat": 53.331734,
      "lng": 13.431131,
      "fuels": {
        "gazole": 1.009,
        "sp95": 1.009,
        "e10": 1.009
      }
    },
    {
      "id": "3367546a-e0ea-4f29-93a7-5eb8fc5c9bbb",
      "cp": "17379",
      "ville": "Ferdinandshof",
      "adresse": "Anklamer Str. 10",
      "brand": "Bft",
      "lat": 53.668118,
      "lng": 13.888247,
      "fuels": {
        "gazole": 1.009,
        "sp95": 1.009,
        "e10": 1.009
      }
    },
    {
      "id": "60878c86-7d6a-4a14-b871-579611d631b5",
      "cp": "17098",
      "ville": "Friedland",
      "adresse": "Neubrandenburger Str. 10",
      "brand": "Aral",
      "lat": 53.660492,
      "lng": 13.541973,
      "fuels": {
        "gazole": 1.009,
        "sp95": 1.009,
        "e10": 1.009
      }
    },
    {
      "id": "a1c0741c-fb62-48fc-97d8-c23472d27732",
      "cp": "17098",
      "ville": "Friedland",
      "adresse": "Neubrandenburgerstr. 16 B",
      "brand": "Sb",
      "lat": 53.663202,
      "lng": 13.544045,
      "fuels": {
        "gazole": 1.009,
        "sp95": 1.009,
        "e10": 1.009
      }
    },
    {
      "id": "e1a15081-24e4-9107-e040-0b0a3dfe563c",
      "cp": "19205",
      "ville": "Gadebusch",
      "adresse": "Am Kalkbruch 2",
      "brand": "Hem",
      "lat": 53.684871,
      "lng": 11.134461,
      "fuels": {
        "gazole": 1.009,
        "sp95": 1.009,
        "e10": 1.009
      }
    },
    {
      "id": "36c42b31-eb38-491f-b2ff-b13d5e69c575",
      "cp": "19205",
      "ville": "Gadebusch",
      "adresse": "Ratzeburger Chaussee 3",
      "brand": "Aral",
      "lat": 53.697075,
      "lng": 11.102248,
      "fuels": {
        "gazole": 1.009,
        "sp95": 1.009,
        "e10": 1.009
      }
    },
    {
      "id": "e1a15081-24ee-9107-e040-0b0a3dfe563c",
      "cp": "17179",
      "ville": "Gnoien",
      "adresse": "Tessiner Str. 2",
      "brand": "Hem",
      "lat": 53.974569,
      "lng": 12.69475,
      "fuels": {
        "gazole": 1.009,
        "sp95": 1.009,
        "e10": 1.009
      }
    },
    {
      "id": "4012fbdf-1921-47f1-a24c-5685452e43c9",
      "cp": "17179",
      "ville": "Gnoien",
      "adresse": "Vor Dem Mühlentor 9",
      "brand": "Nordoel",
      "lat": 53.964342,
      "lng": 12.714404,
      "fuels": {
        "gazole": 1.009,
        "sp95": 1.009,
        "e10": 1.009
      }
    },
    {
      "id": "e1a15081-24ef-9107-e040-0b0a3dfe563c",
      "cp": "19399",
      "ville": "Goldberg",
      "adresse": "Lübzer Str. 44",
      "brand": "Hem",
      "lat": 53.582576,
      "lng": 12.084907,
      "fuels": {
        "gazole": 1.009,
        "sp95": 1.009,
        "e10": 1.009
      }
    },
    {
      "id": "17d560f4-aa6c-424d-b5c0-8ceae3d09d3f",
      "cp": "19399",
      "ville": "Goldberg",
      "adresse": "Werderstr. 55",
      "brand": "Elan",
      "lat": 53.585967,
      "lng": 12.09883,
      "fuels": {
        "gazole": 1.009,
        "sp95": 1.009,
        "e10": 1.009
      }
    },
    {
      "id": "005056ba-7cb6-1ed2-bceb-5d7cfdd88d1b",
      "cp": "18181",
      "ville": "Graal-Müritz",
      "adresse": "Ribnitzer Straße 46",
      "brand": "Star",
      "lat": 54.257783,
      "lng": 12.261082,
      "fuels": {
        "gazole": 1.009,
        "sp95": 1.009,
        "e10": 1.009
      }
    },
    {
      "id": "ebc6a94e-79c3-4946-8f30-476095b7511a",
      "cp": "19300",
      "ville": "Grabow",
      "adresse": "Lenzener Chaussee 9",
      "brand": "Shell",
      "lat": 53.271076,
      "lng": 11.565631,
      "fuels": {
        "gazole": 1.009,
        "sp95": 1.009,
        "e10": 1.009
      }
    },
    {
      "id": "0865a4e7-a40d-4c92-b500-493e6b765b1a",
      "cp": "19300",
      "ville": "Grabow",
      "adresse": "Ludwigsluster Chaussee 15a",
      "brand": "Nordoel",
      "lat": 53.28482,
      "lng": 11.55461,
      "fuels": {
        "gazole": 1.009,
        "sp95": 1.009,
        "e10": 1.009
      }
    },
    {
      "id": "092b5c9e-8b47-4a50-8473-8fe676efaf51",
      "cp": "19300",
      "ville": "Grabow",
      "adresse": "Ludwigsluster Chaussee 17",
      "brand": "Shell",
      "lat": 53.298089,
      "lng": 11.533562,
      "fuels": {
        "gazole": 1.009,
        "sp95": 1.009,
        "e10": 1.009
      }
    },
    {
      "id": "d061ab74-5788-4a99-b415-7ac268a83d1b",
      "cp": "18195",
      "ville": "Grammow",
      "adresse": "Bab a20",
      "brand": "Esso",
      "lat": 54.05436,
      "lng": 12.62966,
      "fuels": {
        "gazole": 1.009,
        "sp95": 1.009,
        "e10": 1.009
      }
    },
    {
      "id": "464c19e7-8021-4274-b985-ccd4c3597a87",
      "cp": "17491",
      "ville": "Greifswald",
      "adresse": "Am Elisenpark 6",
      "brand": "Greenline",
      "lat": 54.0806,
      "lng": 13.4302,
      "fuels": {
        "gazole": 1.009,
        "sp95": 1.009,
        "e10": 1.009
      }
    },
    {
      "id": "342fc5b8-3cd8-453c-8fcb-b97be66e51d1",
      "cp": "17489",
      "ville": "Greifswald",
      "adresse": "Am Neuen Friedhof 1",
      "brand": "oil!",
      "lat": 54.0925,
      "lng": 13.3552,
      "fuels": {
        "gazole": 1.009,
        "sp95": 1.009,
        "e10": 1.009
      }
    },
    {
      "id": "66f063b7-8883-4951-bc5c-f0754b48ce18",
      "cp": "17491",
      "ville": "Greifswald",
      "adresse": "Daniel-Teßmann-Str.1",
      "brand": "oil!",
      "lat": 54.0673,
      "lng": 13.4337,
      "fuels": {
        "gazole": 1.009,
        "sp95": 1.009,
        "e10": 1.009
      }
    },
    {
      "id": "f2fc26a3-f596-4a90-a1c2-3a0b4279f272",
      "cp": "17489",
      "ville": "Greifswald",
      "adresse": "Guetzkower Landstr. 9-10",
      "brand": "Shell",
      "lat": 54.082687,
      "lng": 13.381658,
      "fuels": {
        "gazole": 1.009,
        "sp95": 1.009,
        "e10": 1.009
      }
    },
    {
      "id": "717ba912-f653-47e1-941a-aa89b48ca021",
      "cp": "17491",
      "ville": "Greifswald",
      "adresse": "Sandfuhr 4",
      "brand": "",
      "lat": 54.075687,
      "lng": 13.405922,
      "fuels": {
        "gazole": 1.009,
        "sp95": 1.009,
        "e10": 1.009
      }
    },
    {
      "id": "e82016ed-2c6f-4caa-98f1-b4ea410e4886",
      "cp": "17489",
      "ville": "Greifswald",
      "adresse": "Schoenwalder Landstr. 28",
      "brand": "Shell",
      "lat": 54.073511,
      "lng": 13.394627,
      "fuels": {
        "gazole": 1.009,
        "sp95": 1.009,
        "e10": 1.009
      }
    },
    {
      "id": "5ec123c5-ae34-441c-93f1-7fe0da29306b",
      "cp": "17489",
      "ville": "Greifswald",
      "adresse": "Schönwalder Landstraße 1",
      "brand": "Aral",
      "lat": 54.072865,
      "lng": 13.383331,
      "fuels": {
        "gazole": 1.009,
        "sp95": 1.009,
        "e10": 1.009
      }
    },
    {
      "id": "a997e09f-2692-4eec-90bc-f6faca4c934b",
      "cp": "17489",
      "ville": "Greifswald",
      "adresse": "Stralsunder Str. 23-24",
      "brand": "Esso",
      "lat": 54.10299734,
      "lng": 13.37742751,
      "fuels": {
        "gazole": 1.009,
        "sp95": 1.009,
        "e10": 1.009
      }
    },
    {
      "id": "90c08f86-a165-4fe7-8f5d-7dd2ad731b4f",
      "cp": "17489",
      "ville": "Greifswald",
      "adresse": "Wolgaster Str. 62b",
      "brand": "Bft",
      "lat": 54.092,
      "lng": 13.4198,
      "fuels": {
        "gazole": 1.009,
        "sp95": 1.009,
        "e10": 1.009
      }
    },
    {
      "id": "df589f01-b572-4251-af41-25ff84bfa4b7",
      "cp": "17498",
      "ville": "Greifswald-Neuenkirchen",
      "adresse": "Marktflecken 17",
      "brand": "Totalenergies",
      "lat": 54.117154,
      "lng": 13.363749,
      "fuels": {
        "gazole": 1.009,
        "sp95": 1.009,
        "e10": 1.009
      }
    },
    {
      "id": "dd7fdf56-dc33-448e-b91d-94441489afa6",
      "cp": "18507",
      "ville": "Grimmen",
      "adresse": "Greifswalder Ch. 4",
      "brand": "Totalenergies",
      "lat": 54.109253,
      "lng": 13.05623,
      "fuels": {
        "gazole": 1.009,
        "sp95": 1.009,
        "e10": 1.009
      }
    },
    {
      "id": "591f702e-baab-4c5d-ab9b-dea06412a501",
      "cp": "18507",
      "ville": "Grimmen",
      "adresse": "Greifswalder Chaussee 5",
      "brand": "Shell",
      "lat": 54.107875,
      "lng": 13.058629,
      "fuels": {
        "gazole": 1.009,
        "sp95": 1.009,
        "e10": 1.009
      }
    },
    {
      "id": "7269d7ac-2acd-40cb-bb30-055b379b4c4c",
      "cp": "18507",
      "ville": "Grimmen",
      "adresse": "Stralsunder Straße 46",
      "brand": "Aral",
      "lat": 54.117767,
      "lng": 13.043636,
      "fuels": {
        "gazole": 1.009,
        "sp95": 1.009,
        "e10": 1.009
      }
    },
    {
      "id": "eeeba802-d6bd-42ac-b53c-2b92cd0d24eb",
      "cp": "18507",
      "ville": "Grimmen",
      "adresse": "Zum Rauhen Berg 40",
      "brand": "Avia",
      "lat": 54.10299,
      "lng": 13.07024,
      "fuels": {
        "gazole": 1.009,
        "sp95": 1.009,
        "e10": 1.009
      }
    },
    {
      "id": "b02a1c7f-db83-462e-829c-29a6e0648999",
      "cp": "18198",
      "ville": "Groß Schwaß",
      "adresse": "Rothbäk 5",
      "brand": "Avia",
      "lat": 54.073239,
      "lng": 12.056847,
      "fuels": {
        "gazole": 1.009,
        "sp95": 1.009,
        "e10": 1.009
      }
    },
    {
      "id": "fb8766d9-a358-40d7-ae66-bdfff306f953",
      "cp": "18273",
      "ville": "Guestrow",
      "adresse": "Plauer Ch. 2",
      "brand": "Totalenergies",
      "lat": 53.785019,
      "lng": 12.196471,
      "fuels": {
        "gazole": 1.009,
        "sp95": 1.009,
        "e10": 1.009
      }
    },
    {
      "id": "bd156c28-a185-4bba-acbc-b807beb08099",
      "cp": "19348",
      "ville": "Gülitz-Reetz",
      "adresse": "Haupstr. 27",
      "brand": "Freie Tankstelle",
      "lat": 53.178,
      "lng": 11.8803,
      "fuels": {
        "gazole": 1.009,
        "sp95": 1.009,
        "e10": 1.009
      }
    },
    {
      "id": "09dda305-8b9c-40ff-9fc7-cce553c5b187",
      "cp": "18273",
      "ville": "Güstrow",
      "adresse": "Am Augraben 11",
      "brand": "Avia",
      "lat": 53.805017,
      "lng": 12.245004,
      "fuels": {
        "gazole": 1.009,
        "sp95": 1.009,
        "e10": 1.009
      }
    },
    {
      "id": "d88a8c67-fdea-40d7-895a-dbe660bb4a24",
      "cp": "18273",
      "ville": "Güstrow",
      "adresse": "Am Eicheneck 7",
      "brand": "Aral",
      "lat": 53.809593,
      "lng": 12.189835,
      "fuels": {
        "gazole": 1.009,
        "sp95": 1.009,
        "e10": 1.009
      }
    },
    {
      "id": "ac93c651-6d7e-4b9a-a9dc-41ab6612e3b6",
      "cp": "18273",
      "ville": "Güstrow",
      "adresse": "Friedrich-Pogge-Weg 60",
      "brand": "Aral",
      "lat": 53.772873,
      "lng": 12.166508,
      "fuels": {
        "gazole": 1.009,
        "sp95": 1.009,
        "e10": 1.009
      }
    },
    {
      "id": "57cc8c2c-0a56-4396-b5b2-f10b0bbe8835",
      "cp": "18273",
      "ville": "Güstrow",
      "adresse": "Glasewitzer Chaussee 1c",
      "brand": "oil!",
      "lat": 53.7987,
      "lng": 12.226,
      "fuels": {
        "gazole": 1.009,
        "sp95": 1.009,
        "e10": 1.009
      }
    },
    {
      "id": "4c46487a-5857-4e63-82ed-8baa047aa435",
      "cp": "18273",
      "ville": "Güstrow",
      "adresse": "Parumer Weg 35",
      "brand": "Avia",
      "lat": 53.80629,
      "lng": 12.14883,
      "fuels": {
        "gazole": 1.009,
        "sp95": 1.009,
        "e10": 1.009
      }
    },
    {
      "id": "43a66cd0-6953-40f3-899b-f4f9b5107f7f",
      "cp": "18273",
      "ville": "Güstrow",
      "adresse": "Rostocker Chaussee 10",
      "brand": "Sprint",
      "lat": 53.80867,
      "lng": 12.187569,
      "fuels": {
        "gazole": 1.009,
        "sp95": 1.009,
        "e10": 1.009
      }
    },
    {
      "id": "7eddb3d2-7851-4a79-aef8-9293162e9c11",
      "cp": "18273",
      "ville": "Güstrow",
      "adresse": "Rostocker Chaussee 4",
      "brand": "Nordoel",
      "lat": 53.80677,
      "lng": 12.18491,
      "fuels": {
        "gazole": 1.009,
        "sp95": 1.009,
        "e10": 1.009
      }
    },
    {
      "id": "e1a15081-24f7-9107-e040-0b0a3dfe563c",
      "cp": "18273",
      "ville": "Güstrow",
      "adresse": "Verbindungschaussee C 8",
      "brand": "Hem",
      "lat": 53.798294,
      "lng": 12.201562,
      "fuels": {
        "gazole": 1.009,
        "sp95": 1.009,
        "e10": 1.009
      }
    },
    {
      "id": "42121b72-78e7-414b-ad5c-c4acce2ba8d0",
      "cp": "17506",
      "ville": "Gützkow",
      "adresse": "Am Kleinbahnhof 3",
      "brand": "Nordoel",
      "lat": 53.943762,
      "lng": 13.396112,
      "fuels": {
        "gazole": 1.009,
        "sp95": 1.009,
        "e10": 1.009
      }
    },
    {
      "id": "32177e29-b032-42c0-d33a-6a07d252f014",
      "cp": "19230",
      "ville": "Hagenow",
      "adresse": "Rudolf-Tarnow-Str. 69",
      "brand": "Freie Tankstelle",
      "lat": 53.428058,
      "lng": 11.20187,
      "fuels": {
        "gazole": 1.009,
        "sp95": 1.009,
        "e10": 1.009
      }
    },
    {
      "id": "87d1b43e-a344-4e2c-a0d3-c890cba6a617",
      "cp": "19230",
      "ville": "Hagenow",
      "adresse": "Soeringstr. 2 B",
      "brand": "Esso",
      "lat": 53.428328,
      "lng": 11.184973,
      "fuels": {
        "gazole": 1.009,
        "sp95": 1.009,
        "e10": 1.009
      }
    },
    {
      "id": "0f540808-dddc-47d4-ad62-84efb8c1b5a5",
      "cp": "19230",
      "ville": "Hagenow",
      "adresse": "Sudenhofer Str. 2",
      "brand": "Team",
      "lat": 53.443733,
      "lng": 11.21254,
      "fuels": {
        "gazole": 1.009,
        "sp95": 1.009,
        "e10": 1.009
      }
    },
    {
      "id": "c7a3fdba-eb72-470f-97cd-6a428ef1aec6",
      "cp": "19230",
      "ville": "Hagenow",
      "adresse": "Toddiner Ch. 5",
      "brand": "Totalenergies",
      "lat": 53.436633,
      "lng": 11.174675,
      "fuels": {
        "gazole": 1.009,
        "sp95": 1.009,
        "e10": 1.009
      }
    },
    {
      "id": "e1a15081-2506-9107-e040-0b0a3dfe563c",
      "cp": "19406",
      "ville": "Holzendorf Bei Dabel",
      "adresse": "Dorfstr. B 8",
      "brand": "Hem",
      "lat": 53.676581,
      "lng": 11.874316,
      "fuels": {
        "gazole": 1.009,
        "sp95": 1.009,
        "e10": 1.009
      }
    },
    {
      "id": "fba1affc-0657-4e5f-a178-3a06f7a0ac1d",
      "cp": "17126",
      "ville": "Jarmen",
      "adresse": "Gewerbestr. 1",
      "brand": "Greenline",
      "lat": 53.9181,
      "lng": 13.3469,
      "fuels": {
        "gazole": 1.009,
        "sp95": 1.009,
        "e10": 1.009
      }
    },
    {
      "id": "0ac68306-51f5-46f8-84ef-cc4def6a1682",
      "cp": "17126",
      "ville": "Jarmen",
      "adresse": "Klinkenberg 28",
      "brand": "Totalenergies",
      "lat": 53.921807,
      "lng": 13.347471,
      "fuels": {
        "gazole": 1.009,
        "sp95": 1.009,
        "e10": 1.009
      }
    },
    {
      "id": "00062602-0001-4444-8888-acdc00000001",
      "cp": "17495",
      "ville": "Karlsburg Ot Brüssow",
      "adresse": "Feldstraße 10",
      "brand": "",
      "lat": 54.00170135498,
      "lng": 13.610799789429,
      "fuels": {
        "gazole": 1.009,
        "sp95": 1.009,
        "e10": 1.009
      }
    },
    {
      "id": "409b7c45-f30a-44df-9161-7c32a344ecf8",
      "cp": "17449",
      "ville": "Karlshagen",
      "adresse": "Hauptstraße 2",
      "brand": "oil!",
      "lat": 54.1169,
      "lng": 13.83,
      "fuels": {
        "gazole": 1.009,
        "sp95": 1.009,
        "e10": 1.009
      }
    },
    {
      "id": "8e069fef-fb70-4116-9432-c315b678b71c",
      "cp": "19357",
      "ville": "Karstädt",
      "adresse": "Postliner Str. 18a",
      "brand": "Raiffeisen",
      "lat": 53.16648,
      "lng": 11.74568,
      "fuels": {
        "gazole": 1.009,
        "sp95": 1.009,
        "e10": 1.009
      }
    },
    {
      "id": "0dbaed82-e61e-4dc9-b961-9bcba64af950",
      "cp": "19357",
      "ville": "Karstädt",
      "adresse": "Postliner Str. 18g",
      "brand": "Raiffeisen",
      "lat": 53.167,
      "lng": 11.7455,
      "fuels": {
        "gazole": 1.009,
        "sp95": 1.009,
        "e10": 1.009
      }
    },
    {
      "id": "5bf8ac76-e733-55f2-ad57-53211f55df16",
      "cp": "18258",
      "ville": "Kassow",
      "adresse": "Hauptstr. 43",
      "brand": "Hoyer",
      "lat": 53.87757492065,
      "lng": 12.07251834869,
      "fuels": {
        "gazole": 1.009,
        "sp95": 1.009,
        "e10": 1.009
      }
    },
    {
      "id": "5ddf4658-5c4f-401e-93c2-bc9e53bf4def",
      "cp": "18196",
      "ville": "Kavelstorf",
      "adresse": "Zur Radewiese 2c",
      "brand": "Avia",
      "lat": 54.01406,
      "lng": 12.19831,
      "fuels": {
        "gazole": 1.009,
        "sp95": 1.009,
        "e10": 1.009
      }
    },
    {
      "id": "7b88f071-cf79-5c2f-80de-65f0ec258276",
      "cp": "19339",
      "ville": "Kletzke",
      "adresse": "Dorfstr. 4a",
      "brand": "Hoyer",
      "lat": 53.00120162964,
      "lng": 12.06340026855,
      "fuels": {
        "gazole": 1.009,
        "sp95": 1.009,
        "e10": 1.009
      }
    },
    {
      "id": "cbef6c69-67f2-495c-9fcb-621332273502",
      "cp": "17459",
      "ville": "Koserow",
      "adresse": "Hauptstr. 122",
      "brand": "Esso",
      "lat": 54.045462,
      "lng": 14.002907,
      "fuels": {
        "gazole": 1.009,
        "sp95": 1.009,
        "e10": 1.009
      }
    },
    {
      "id": "c5c0b1ba-8d7a-4b40-80e4-bbac7e608628",
      "cp": "18292",
      "ville": "Krakow Am See",
      "adresse": "Plauer Ch. 26",
      "brand": "Totalenergies",
      "lat": 53.647913,
      "lng": 12.265485,
      "fuels": {
        "gazole": 1.009,
        "sp95": 1.009,
        "e10": 1.009
      }
    },
    {
      "id": "355f48bc-9316-5c51-8403-9983641b7bb8",
      "cp": "17391",
      "ville": "Krien",
      "adresse": "Molkereistr. 22",
      "brand": "Hoyer",
      "lat": 53.82872009277,
      "lng": 13.44954204559,
      "fuels": {
        "gazole": 1.009,
        "sp95": 1.009,
        "e10": 1.009
      }
    },
    {
      "id": "eaabebe3-91ed-5d75-8466-a9cd5d8bd5fe",
      "cp": "18299",
      "ville": "Kritzkow",
      "adresse": "Zum Weißen Soll 3",
      "brand": "Hoyer",
      "lat": 53.88178253174,
      "lng": 12.24747085571,
      "fuels": {
        "gazole": 1.009,
        "sp95": 1.009,
        "e10": 1.009
      }
    },
    {
      "id": "e1a15081-2590-9107-e040-0b0a3dfe563c",
      "cp": "18198",
      "ville": "Kritzmow",
      "adresse": "Satower Str. A 12",
      "brand": "Hem",
      "lat": 54.059417,
      "lng": 12.056419,
      "fuels": {
        "gazole": 1.009,
        "sp95": 1.009,
        "e10": 1.009
      }
    },
    {
      "id": "485fa6fc-f737-4a4f-a166-a6157a900298",
      "cp": "18236",
      "ville": "Kröpelin",
      "adresse": "Rostocker Straße 93",
      "brand": "Avia",
      "lat": 54.072506,
      "lng": 11.809998,
      "fuels": {
        "gazole": 1.009,
        "sp95": 1.009,
        "e10": 1.009
      }
    },
    {
      "id": "6875d242-e891-45a0-bcbf-e8aa8e2c6ace",
      "cp": "18236",
      "ville": "Kröpelin",
      "adresse": "Wismarsche Str. 51",
      "brand": "Nordoel",
      "lat": 54.067976,
      "lng": 11.781931,
      "fuels": {
        "gazole": 1.009,
        "sp95": 1.009,
        "e10": 1.009
      }
    },
    {
      "id": "4302a33c-e37a-4414-bd28-1c7008492c70",
      "cp": "18225",
      "ville": "Kuehlungsborn",
      "adresse": "Neue Reihe 94c",
      "brand": "Totalenergies",
      "lat": 54.144871,
      "lng": 11.735626,
      "fuels": {
        "gazole": 1.009,
        "sp95": 1.009,
        "e10": 1.009
      }
    },
    {
      "id": "1a01191e-e79b-4d9a-b887-b4da4be62625",
      "cp": "18225",
      "ville": "Kühlungsborn",
      "adresse": "Doberaner Straße/Gewerbegebiet",
      "brand": "Aral",
      "lat": 54.144394,
      "lng": 11.768801,
      "fuels": {
        "gazole": 1.009,
        "sp95": 1.009,
        "e10": 1.009
      }
    },
    {
      "id": "0511428e-6252-43e5-85bc-ee392b57c52e",
      "cp": "18225",
      "ville": "Kühlungsborn",
      "adresse": "Schloßstraße 26",
      "brand": "oil!",
      "lat": 54.1309,
      "lng": 11.7518,
      "fuels": {
        "gazole": 1.009,
        "sp95": 1.009,
        "e10": 1.009
      }
    },
    {
      "id": "e1a15081-250c-9107-e040-0b0a3dfe563c",
      "cp": "18299",
      "ville": "Laage",
      "adresse": "Daimler-Benz-Allee 3",
      "brand": "Hem",
      "lat": 53.931332,
      "lng": 12.309719,
      "fuels": {
        "gazole": 1.009,
        "sp95": 1.009,
        "e10": 1.009
      }
    },
    {
      "id": "6b8dcbdc-68ac-489f-8c84-1c6f8f3e1c7e",
      "cp": "18299",
      "ville": "Laage",
      "adresse": "Gewerbestraße 15",
      "brand": "Avia",
      "lat": 53.8912,
      "lng": 12.24949,
      "fuels": {
        "gazole": 1.009,
        "sp95": 1.009,
        "e10": 1.009
      }
    },
    {
      "id": "0755506d-2ba2-4645-bb64-6c5911026738",
      "cp": "18299",
      "ville": "Laage Kronskamp",
      "adresse": "An Der B 103",
      "brand": "oil!",
      "lat": 53.92994,
      "lng": 12.30948,
      "fuels": {
        "gazole": 1.009,
        "sp95": 1.009,
        "e10": 1.009
      }
    },
    {
      "id": "be23ddf6-6249-4351-8c17-9996961f4ff0",
      "cp": "18279",
      "ville": "Lalendorf",
      "adresse": "Zu Den Wiesen 1",
      "brand": "Avia",
      "lat": 53.758742,
      "lng": 12.378014,
      "fuels": {
        "gazole": 1.009,
        "sp95": 1.009,
        "e10": 1.009
      }
    },
    {
      "id": "51d4b698-a095-1aa0-e100-80009459e03a",
      "cp": "18069",
      "ville": "Lambrechtshagen",
      "adresse": "Ostsee-Park-Str. 3",
      "brand": "Supermarkt-Tankstelle",
      "lat": 54.10596,
      "lng": 12.03745,
      "fuels": {
        "gazole": 1.009,
        "sp95": 1.009,
        "e10": 1.009
      }
    },
    {
      "id": "4f4d3b2d-b9b4-4e72-972b-93da1012435f",
      "cp": "18069",
      "ville": "Lambrechtshagen",
      "adresse": "Rostocker Str. 52",
      "brand": "Esso",
      "lat": 54.106213,
      "lng": 12.047859,
      "fuels": {
        "gazole": 1.009,
        "sp95": 1.009,
        "e10": 1.009
      }
    },
    {
      "id": "597533ab-bb67-4184-86d7-617f6fe2d56f",
      "cp": "19067",
      "ville": "Leezen",
      "adresse": "Goerslower Strasse 10",
      "brand": "Freie Tankstelle",
      "lat": 53.66131,
      "lng": 11.499478,
      "fuels": {
        "gazole": 1.009,
        "sp95": 1.009,
        "e10": 1.009
      }
    },
    {
      "id": "00060744-0595-4444-8888-acdc00000595",
      "cp": "19309",
      "ville": "Lenzen",
      "adresse": "Friedrich-Ludwig-Jahn-Str. 27",
      "brand": "Vr Plus Energie",
      "lat": 53.09854888916,
      "lng": 11.481271743774,
      "fuels": {
        "gazole": 1.009,
        "sp95": 1.009,
        "e10": 1.009
      }
    },
    {
      "id": "12a18f1b-3c10-4f22-8c4f-613decce5c8a",
      "cp": "17321",
      "ville": "Löcknitz",
      "adresse": "Rothenklempenower Str. 49a",
      "brand": "",
      "lat": 53.46005,
      "lng": 14.20804,
      "fuels": {
        "gazole": 1.009,
        "sp95": 1.009,
        "e10": 1.009
      }
    },
    {
      "id": "e1a15081-250f-9107-e040-0b0a3dfe563c",
      "cp": "17121",
      "ville": "Loitz",
      "adresse": "An Der Voßbäk 100",
      "brand": "Hem",
      "lat": 53.965453,
      "lng": 13.103825,
      "fuels": {
        "gazole": 1.009,
        "sp95": 1.009,
        "e10": 1.009
      }
    },
    {
      "id": "42bf66ba-774c-4dae-a980-fa25f06deb4b",
      "cp": "19077",
      "ville": "Lübesse",
      "adresse": "Schweriner Strasse 1",
      "brand": "",
      "lat": 53.490342,
      "lng": 11.461288,
      "fuels": {
        "gazole": 1.009,
        "sp95": 1.009,
        "e10": 1.009
      }
    },
    {
      "id": "2edfe4a3-bbda-499f-ba91-5f13cc959d9d",
      "cp": "19249",
      "ville": "Lübtheen",
      "adresse": "Der Heidkamp 1",
      "brand": "Shell",
      "lat": 53.311811,
      "lng": 11.078371,
      "fuels": {
        "gazole": 1.009,
        "sp95": 1.009,
        "e10": 1.009
      }
    },
    {
      "id": "10e71ffe-b7f2-4e4e-8383-f6699d6bf3ac",
      "cp": "19386",
      "ville": "Lübz",
      "adresse": "An Der Brücke 3",
      "brand": "Shell",
      "lat": 53.465249,
      "lng": 12.040487,
      "fuels": {
        "gazole": 1.009,
        "sp95": 1.009,
        "e10": 1.009
      }
    },
    {
      "id": "d9d96fac-0109-43a4-af87-4c48e4a5517f",
      "cp": "19386",
      "ville": "Lübz",
      "adresse": "Plauer Chaussee 18",
      "brand": "Aral",
      "lat": 53.46326,
      "lng": 12.046955,
      "fuels": {
        "gazole": 1.009,
        "sp95": 1.009,
        "e10": 1.009
      }
    },
    {
      "id": "5d7eba52-39cd-498c-a579-61ad96ce606a",
      "cp": "19386",
      "ville": "Lübz",
      "adresse": "Werderstraße 3-4",
      "brand": "Raiffeisen",
      "lat": 53.469994,
      "lng": 12.022558,
      "fuels": {
        "gazole": 1.009,
        "sp95": 1.009,
        "e10": 1.009
      }
    },
    {
      "id": "95276b3e-662d-4a1e-a12c-82250883eb13",
      "cp": "19288",
      "ville": "Ludwigslust",
      "adresse": "Grabower Allee 31",
      "brand": "Totalenergies",
      "lat": 53.31607,
      "lng": 11.506477,
      "fuels": {
        "gazole": 1.009,
        "sp95": 1.009,
        "e10": 1.009
      }
    },
    {
      "id": "0c8104b1-52aa-4c6b-8d78-e9d2593ebb0d",
      "cp": "19288",
      "ville": "Ludwigslust",
      "adresse": "Grosser Kamp 33",
      "brand": "Esso",
      "lat": 53.335447,
      "lng": 11.498885,
      "fuels": {
        "gazole": 1.009,
        "sp95": 1.009,
        "e10": 1.009
      }
    },
    {
      "id": "e1a15081-2511-9107-e040-0b0a3dfe563c",
      "cp": "19288",
      "ville": "Ludwigslust",
      "adresse": "Hamburger Tor C 11",
      "brand": "Hem",
      "lat": 53.319296,
      "lng": 11.474188,
      "fuels": {
        "gazole": 1.009,
        "sp95": 1.009,
        "e10": 1.009
      }
    },
    {
      "id": "65da2b0e-54d4-401f-a4d9-314bcf7f7d31",
      "cp": "19288",
      "ville": "Ludwigslust",
      "adresse": "Neustaedter Straße 67",
      "brand": "Bft",
      "lat": 53.33673,
      "lng": 11.50831,
      "fuels": {
        "gazole": 1.009,
        "sp95": 1.009,
        "e10": 1.009
      }
    },
    {
      "id": "ed48040a-d274-5740-8c16-4a0ef263bf83",
      "cp": "19288",
      "ville": "Ludwigslust",
      "adresse": "Wöbbeliner Str.",
      "brand": "Hoyer",
      "lat": 53.33560562134,
      "lng": 11.50036239624,
      "fuels": {
        "gazole": 1.009,
        "sp95": 1.009,
        "e10": 1.009
      }
    },
    {
      "id": "649045e2-fa1d-4fa1-ab50-1e97fabf438a",
      "cp": "19209",
      "ville": "Lützow",
      "adresse": "Schweriner Str. 29",
      "brand": "Nordoel",
      "lat": 53.65605,
      "lng": 11.18419,
      "fuels": {
        "gazole": 1.009,
        "sp95": 1.009,
        "e10": 1.009
      }
    },
    {
      "id": "e1a15081-2512-9107-e040-0b0a3dfe563c",
      "cp": "17279",
      "ville": "Lychen",
      "adresse": "Fontanestr. 7",
      "brand": "Hem",
      "lat": 53.212268,
      "lng": 13.288318,
      "fuels": {
        "gazole": 1.009,
        "sp95": 1.009,
        "e10": 1.009
      }
    },
    {
      "id": "6e5d9767-1f2e-4cfe-b364-d0ecbd14b14f",
      "cp": "17139",
      "ville": "Malchin",
      "adresse": "Poststrasse 21",
      "brand": "Aral",
      "lat": 53.74163,
      "lng": 12.766596,
      "fuels": {
        "gazole": 1.009,
        "sp95": 1.009,
        "e10": 1.009
      }
    },
    {
      "id": "275c3f7f-47a1-4029-83a7-6de786e6b6f7",
      "cp": "17139",
      "ville": "Malchin",
      "adresse": "Stavenhagener Str. 40a",
      "brand": "Sprint",
      "lat": 53.737106,
      "lng": 12.778927,
      "fuels": {
        "gazole": 1.009,
        "sp95": 1.009,
        "e10": 1.009
      }
    },
    {
      "id": "453a124c-7172-44e5-bf5c-4780d6b95d4f",
      "cp": "17213",
      "ville": "Malchow",
      "adresse": "Rostocker Str. 42",
      "brand": "Totalenergies",
      "lat": 53.480994,
      "lng": 12.421106,
      "fuels": {
        "gazole": 1.009,
        "sp95": 1.009,
        "e10": 1.009
      }
    },
    {
      "id": "16878a3c-de8c-464a-b5b3-5e15b1c7172f",
      "cp": "17213",
      "ville": "Malchow",
      "adresse": "Rostocker Straße 15",
      "brand": "Aral",
      "lat": 53.481403,
      "lng": 12.421478,
      "fuels": {
        "gazole": 1.009,
        "sp95": 1.009,
        "e10": 1.009
      }
    },
    {
      "id": "c0d93ba4-1c8a-49d6-b075-3e91f9e3229e",
      "cp": "17213",
      "ville": "Malchow",
      "adresse": "Stämmenberg 1",
      "brand": "Sprint",
      "lat": 53.471153,
      "lng": 12.441744,
      "fuels": {
        "gazole": 1.009,
        "sp95": 1.009,
        "e10": 1.009
      }
    },
    {
      "id": "2c5c28cb-5707-40a7-b950-172c70c06eb9",
      "cp": "19294",
      "ville": "Malliß",
      "adresse": "Ludwigsluster Str. 79",
      "brand": "Nordoel",
      "lat": 53.21652,
      "lng": 11.34954,
      "fuels": {
        "gazole": 1.009,
        "sp95": 1.009,
        "e10": 1.009
      }
    },
    {
      "id": "b445d007-67ed-452b-80da-cacdb4b33943",
      "cp": "17252",
      "ville": "Mirow",
      "adresse": "Wesenberger Chaussee 8",
      "brand": "oil!",
      "lat": 53.2732,
      "lng": 12.8246,
      "fuels": {
        "gazole": 1.009,
        "sp95": 1.009,
        "e10": 1.009
      }
    },
    {
      "id": "debec5cb-60fc-4e1d-807d-371b47856bb4",
      "cp": "18182",
      "ville": "Moenchhagen",
      "adresse": "Transitstr. 13a",
      "brand": "Shell",
      "lat": 54.152426,
      "lng": 12.230442,
      "fuels": {
        "gazole": 1.009,
        "sp95": 1.009,
        "e10": 1.009
      }
    },
    {
      "id": "ab4f9ef6-43ad-5956-810f-a67579eb4b23",
      "cp": "17219",
      "ville": "Möllenhagen",
      "adresse": "Industriegelände 23",
      "brand": "Hoyer",
      "lat": 53.5225944519,
      "lng": 12.92407989502,
      "fuels": {
        "gazole": 1.009,
        "sp95": 1.009,
        "e10": 1.009
      }
    },
    {
      "id": "6132dbe7-a7f4-422e-b514-c0243bed8eb8",
      "cp": "18182",
      "ville": "Mönchhagen",
      "adresse": "An Der b105 16",
      "brand": "Avia",
      "lat": 54.156865,
      "lng": 12.233313,
      "fuels": {
        "gazole": 1.009,
        "sp95": 1.009,
        "e10": 1.009
      }
    },
    {
      "id": "c429f134-799f-40b6-9ea6-bc1a0e396451",
      "cp": "18276",
      "ville": "Mühlengeez",
      "adresse": "Tarnowerweg 4",
      "brand": "oil!",
      "lat": 53.7641,
      "lng": 12.0489,
      "fuels": {
        "gazole": 1.009,
        "sp95": 1.009,
        "e10": 1.009
      }
    },
    {
      "id": "9dcf05f1-4573-425a-a3b6-003a8ee46232",
      "cp": "17034",
      "ville": "Neubrandenburg",
      "adresse": "Adolph-Kolping Str. 3",
      "brand": "Agip Eni",
      "lat": 53.582086,
      "lng": 13.285024,
      "fuels": {
        "gazole": 1.009,
        "sp95": 1.009,
        "e10": 1.009
      }
    },
    {
      "id": "9d2b1d16-92d0-4cfa-9e04-251bfdcc7d67",
      "cp": "17034",
      "ville": "Neubrandenburg",
      "adresse": "Demminer Str.",
      "brand": "Sb",
      "lat": 53.583013,
      "lng": 13.271715,
      "fuels": {
        "gazole": 1.009,
        "sp95": 1.009,
        "e10": 1.009
      }
    },
    {
      "id": "e1a15081-2621-9107-e040-0b0a3dfe563c",
      "cp": "17034",
      "ville": "Neubrandenburg",
      "adresse": "Demminer Str. 80",
      "brand": "Hem",
      "lat": 53.585519,
      "lng": 13.271152,
      "fuels": {
        "gazole": 1.009,
        "sp95": 1.009,
        "e10": 1.009
      }
    },
    {
      "id": "b2bb33e2-14a2-438d-a63a-2f47672a45d9",
      "cp": "17034",
      "ville": "Neubrandenburg",
      "adresse": "Ihlenfelder Str. 138",
      "brand": "Team",
      "lat": 53.576254,
      "lng": 13.298628,
      "fuels": {
        "gazole": 1.009,
        "sp95": 1.009,
        "e10": 1.009
      }
    },
    {
      "id": "e1a15081-25be-9107-e040-0b0a3dfe563c",
      "cp": "17033",
      "ville": "Neubrandenburg",
      "adresse": "Neustrelitzer Str. 125",
      "brand": "Hem",
      "lat": 53.525992,
      "lng": 13.262386,
      "fuels": {
        "gazole": 1.009,
        "sp95": 1.009,
        "e10": 1.009
      }
    },
    {
      "id": "0ed51a32-edbf-44d0-9e8e-670648482c70",
      "cp": "17033",
      "ville": "Neubrandenburg",
      "adresse": "Neustrelitzer Straße 118",
      "brand": "Aral",
      "lat": 53.530212,
      "lng": 13.261818,
      "fuels": {
        "gazole": 1.009,
        "sp95": 1.009,
        "e10": 1.009
      }
    },
    {
      "id": "6598f9ab-f1d7-4909-9c88-6b0aa3f1975e",
      "cp": "17033",
      "ville": "Neubrandenburg",
      "adresse": "Neustrelitzerstr. 126",
      "brand": "Sb",
      "lat": 53.52392,
      "lng": 13.26041,
      "fuels": {
        "gazole": 1.009,
        "sp95": 1.009,
        "e10": 1.009
      }
    },
    {
      "id": "fa70725d-a439-4538-91ec-70cbeeea2ca0",
      "cp": "17036",
      "ville": "Neubrandenburg",
      "adresse": "Quarzstraße 1",
      "brand": "oil!",
      "lat": 53.5432,
      "lng": 13.3137,
      "fuels": {
        "gazole": 1.009,
        "sp95": 1.009,
        "e10": 1.009
      }
    },
    {
      "id": "35ef25b6-1ad3-476f-a6fc-f4fafdb7f6a8",
      "cp": "17034",
      "ville": "Neubrandenburg",
      "adresse": "Sponholzerstr. 30",
      "brand": "Shell",
      "lat": 53.566869,
      "lng": 13.283202,
      "fuels": {
        "gazole": 1.009,
        "sp95": 1.009,
        "e10": 1.009
      }
    },
    {
      "id": "9db5a5e2-2672-44c7-a29e-7afd5f5d1fa8",
      "cp": "17033",
      "ville": "Neubrandenburg",
      "adresse": "Stavenhagener Straße 3",
      "brand": "Citti",
      "lat": 53.567512,
      "lng": 13.207644,
      "fuels": {
        "gazole": 1.009,
        "sp95": 1.009,
        "e10": 1.009
      }
    },
    {
      "id": "c804d3fb-a1a4-4176-a736-912b2c1b2acc",
      "cp": "17033",
      "ville": "Neubrandenburg",
      "adresse": "Werner-Von-Siemens-Straße 9",
      "brand": "Avia",
      "lat": 53.575154,
      "lng": 13.212606,
      "fuels": {
        "gazole": 1.009,
        "sp95": 1.009,
        "e10": 1.009
      }
    },
    {
      "id": "9d19f641-0f6a-40e4-9b7c-4b9a3c674e50",
      "cp": "17036",
      "ville": "Neubrandenburg",
      "adresse": "Woldegker Str. 40",
      "brand": "Totalenergies",
      "lat": 53.556247,
      "lng": 13.312756,
      "fuels": {
        "gazole": 1.009,
        "sp95": 1.009,
        "e10": 1.009
      }
    },
    {
      "id": "93410194-4f4c-4948-8fa0-fd6bb1acf16d",
      "cp": "17036",
      "ville": "Neubrandenburg",
      "adresse": "Woldegker Straße 39",
      "brand": "Aral",
      "lat": 53.557102,
      "lng": 13.310935,
      "fuels": {
        "gazole": 1.009,
        "sp95": 1.009,
        "e10": 1.009
      }
    },
    {
      "id": "32cffb2c-caf3-4194-9b4a-cf88f2362b43",
      "cp": "17033",
      "ville": "Neubrandenburg-Weitin",
      "adresse": "Stavenhagener Str. 33",
      "brand": "oil!",
      "lat": 53.5682,
      "lng": 13.1974,
      "fuels": {
        "gazole": 1.009,
        "sp95": 1.009,
        "e10": 1.009
      }
    },
    {
      "id": "405c89bf-394d-4112-933c-da503d1f242a",
      "cp": "18233",
      "ville": "Neubukow",
      "adresse": "Gewerbestraße 1",
      "brand": "Aral",
      "lat": 54.03904,
      "lng": 11.691152,
      "fuels": {
        "gazole": 1.009,
        "sp95": 1.009,
        "e10": 1.009
      }
    },
    {
      "id": "e2102ba0-bbc8-45a2-bd22-dbf4a2d0a40f",
      "cp": "18233",
      "ville": "Neubukow",
      "adresse": "Wismarsche Str. 56",
      "brand": "Esso",
      "lat": 54.024077,
      "lng": 11.662212,
      "fuels": {
        "gazole": 1.009,
        "sp95": 1.009,
        "e10": 1.009
      }
    },
    {
      "id": "0397fd51-ae99-49b6-abd1-dd8d9d58d5fc",
      "cp": "19273",
      "ville": "Neuhaus",
      "adresse": "Bahnhofstr. 23",
      "brand": "Totalenergies",
      "lat": 53.286863,
      "lng": 10.936809,
      "fuels": {
        "gazole": 1.009,
        "sp95": 1.009,
        "e10": 1.009
      }
    },
    {
      "id": "6a74b2a2-3e15-5703-898e-ccd03f2cd8fb",
      "cp": "17154",
      "ville": "Neukalen",
      "adresse": "Gewerbegebiet Nord 5",
      "brand": "Hoyer",
      "lat": 53.83008956909,
      "lng": 12.79204845428,
      "fuels": {
        "gazole": 1.009,
        "sp95": 1.009,
        "e10": 1.009
      }
    },
    {
      "id": "da0ac545-d792-5b16-9272-5ad890f4c607",
      "cp": "19306",
      "ville": "Neustadt-Glewe",
      "adresse": "An Der Autobahn 49-52",
      "brand": "Hoyer",
      "lat": 53.38087081909,
      "lng": 11.62772655487,
      "fuels": {
        "gazole": 1.009,
        "sp95": 1.009,
        "e10": 1.009
      }
    },
    {
      "id": "7c8c0a4f-f59c-509e-8ec0-f5c140376928",
      "cp": "19306",
      "ville": "Neustadt-Glewe",
      "adresse": "An Der Autobahn 7",
      "brand": "Hoyer",
      "lat": 53.38021087646,
      "lng": 11.62738990784,
      "fuels": {
        "gazole": 1.009,
        "sp95": 1.009,
        "e10": 1.009
      }
    },
    {
      "id": "7dde5648-4cb5-4729-8dae-c96860266cdb",
      "cp": "19306",
      "ville": "Neustadt-Glewe",
      "adresse": "An Der Bahn 1",
      "brand": "",
      "lat": 53.372785,
      "lng": 11.588187,
      "fuels": {
        "gazole": 1.009,
        "sp95": 1.009,
        "e10": 1.009
      }
    },
    {
      "id": "e1a15081-2519-9107-e040-0b0a3dfe563c",
      "cp": "19306",
      "ville": "Neustadt-Glewe",
      "adresse": "Ludwigsluster Str. 31",
      "brand": "Hem",
      "lat": 53.381457,
      "lng": 11.576532,
      "fuels": {
        "gazole": 1.009,
        "sp95": 1.009,
        "e10": 1.009
      }
    },
    {
      "id": "473c5d57-e08a-42be-b0b2-2b65d8472f86",
      "cp": "17235",
      "ville": "Neustrelitz",
      "adresse": "Bürgerseeweg 23",
      "brand": "Avia",
      "lat": 53.335422,
      "lng": 13.060508,
      "fuels": {
        "gazole": 1.009,
        "sp95": 1.009,
        "e10": 1.009
      }
    },
    {
      "id": "f5782e5e-8c05-4010-b423-1c86a8bcd31f",
      "cp": "17235",
      "ville": "Neustrelitz",
      "adresse": "Hohenzieritzer Straße 34",
      "brand": "Aral",
      "lat": 53.372414,
      "lng": 13.074242,
      "fuels": {
        "gazole": 1.009,
        "sp95": 1.009,
        "e10": 1.009
      }
    },
    {
      "id": "cd8b8686-796e-1ed5-a0ce-ca49a34f492d",
      "cp": "17235",
      "ville": "Neustrelitz",
      "adresse": "Strelitzer Chaussee 234",
      "brand": "Jet",
      "lat": 53.34562,
      "lng": 13.08284,
      "fuels": {
        "gazole": 1.009,
        "sp95": 1.009,
        "e10": 1.009
      }
    },
    {
      "id": "8319a2be-b27c-4ddf-8398-77f2c6bfd978",
      "cp": "17235",
      "ville": "Neustrelitz",
      "adresse": "Strelitzer Chaussee 239",
      "brand": "Shell",
      "lat": 53.346369,
      "lng": 13.081336,
      "fuels": {
        "gazole": 1.009,
        "sp95": 1.009,
        "e10": 1.009
      }
    },
    {
      "id": "e1a15081-2564-9107-e040-0b0a3dfe563c",
      "cp": "17235",
      "ville": "Neustrelitz",
      "adresse": "Woldegker Chaussee 4",
      "brand": "Hem",
      "lat": 53.344512,
      "lng": 13.092077,
      "fuels": {
        "gazole": 1.009,
        "sp95": 1.009,
        "e10": 1.009
      }
    },
    {
      "id": "84eadf32-ed64-4fb4-83bc-0b1023a90fe5",
      "cp": "18442",
      "ville": "Niepars",
      "adresse": "Am Isinger Berg 3",
      "brand": "Toptank",
      "lat": 54.299417,
      "lng": 12.931955,
      "fuels": {
        "gazole": 1.009,
        "sp95": 1.009,
        "e10": 1.009
      }
    },
    {
      "id": "ac3f2e9d-f6e4-405b-b07c-f3326e321d3d",
      "cp": "19075",
      "ville": "Pampow",
      "adresse": "Bahnhofstraße 12",
      "brand": "",
      "lat": 53.566949,
      "lng": 11.361365,
      "fuels": {
        "gazole": 1.009,
        "sp95": 1.009,
        "e10": 1.009
      }
    },
    {
      "id": "7b3b6ea3-a3bd-456b-a5cc-8e160da93d19",
      "cp": "19370",
      "ville": "Parchim",
      "adresse": "Bleichertannenweg 23",
      "brand": "Team",
      "lat": 53.4466,
      "lng": 11.8351,
      "fuels": {
        "gazole": 1.009,
        "sp95": 1.009,
        "e10": 1.009
      }
    },
    {
      "id": "e1a15081-2522-9107-e040-0b0a3dfe563c",
      "cp": "19370",
      "ville": "Parchim",
      "adresse": "Lübzer Chaussee A 6",
      "brand": "Hem",
      "lat": 53.434965,
      "lng": 11.870636,
      "fuels": {
        "gazole": 1.009,
        "sp95": 1.009,
        "e10": 1.009
      }
    },
    {
      "id": "ef99297e-3b32-4ea3-80ee-2a0167eca17d",
      "cp": "19370",
      "ville": "Parchim",
      "adresse": "Ludwigsluster Chaussee 24",
      "brand": "Aral",
      "lat": 53.426445,
      "lng": 11.81927,
      "fuels": {
        "gazole": 1.009,
        "sp95": 1.009,
        "e10": 1.009
      }
    },
    {
      "id": "8e449390-e981-44f2-8e89-46ed33cb9877",
      "cp": "19370",
      "ville": "Parchim",
      "adresse": "Schweriner Ch. 45",
      "brand": "Totalenergies",
      "lat": 53.439546,
      "lng": 11.845423,
      "fuels": {
        "gazole": 1.009,
        "sp95": 1.009,
        "e10": 1.009
      }
    },
    {
      "id": "8bb0cf4e-738e-49b1-bc23-82a8103783aa",
      "cp": "19370",
      "ville": "Parchim",
      "adresse": "Westring 40",
      "brand": "Access",
      "lat": 53.427507,
      "lng": 11.827283,
      "fuels": {
        "gazole": 1.009,
        "sp95": 1.009,
        "e10": 1.009
      }
    },
    {
      "id": "72174240-1d9a-4b2e-8b17-5296f215258d",
      "cp": "19370",
      "ville": "Parchim",
      "adresse": "Westring/Ecke Ziegendorfer Chaussee",
      "brand": "Shell",
      "lat": 53.423129,
      "lng": 11.829169,
      "fuels": {
        "gazole": 1.009,
        "sp95": 1.009,
        "e10": 1.009
      }
    },
    {
      "id": "e9746bdd-bb75-4063-abba-ff7747109d90",
      "cp": "17309",
      "ville": "Pasewalk",
      "adresse": "Am Gnädigspark 1",
      "brand": "oil!",
      "lat": 53.5147,
      "lng": 14.0107,
      "fuels": {
        "gazole": 1.009,
        "sp95": 1.009,
        "e10": 1.009
      }
    },
    {
      "id": "392efc06-887f-4139-a5af-9f1159f84aa0",
      "cp": "17309",
      "ville": "Pasewalk",
      "adresse": "Anklamer Str. 47",
      "brand": "Shell",
      "lat": 53.515591,
      "lng": 13.978679,
      "fuels": {
        "gazole": 1.009,
        "sp95": 1.009,
        "e10": 1.009
      }
    },
    {
      "id": "aaae92fa-e22b-4572-ae33-25b664d4d9e4",
      "cp": "17309",
      "ville": "Pasewalk",
      "adresse": "Stettiner Chaussee 20",
      "brand": "Agip Eni",
      "lat": 53.502877251659,
      "lng": 14.003239935102,
      "fuels": {
        "gazole": 1.009,
        "sp95": 1.009,
        "e10": 1.009
      }
    },
    {
      "id": "5f26cd36-6d71-4e70-b9c7-d5e79461aa06",
      "cp": "17309",
      "ville": "Pasewalk",
      "adresse": "Stettiner Chaussee 5",
      "brand": "Gasolin",
      "lat": 53.50334,
      "lng": 14.000396,
      "fuels": {
        "gazole": 1.009,
        "sp95": 1.009,
        "e10": 1.009
      }
    },
    {
      "id": "e1a15081-2524-9107-e040-0b0a3dfe563c",
      "cp": "17217",
      "ville": "Penzlin",
      "adresse": "Warener Chaussee A 33",
      "brand": "Hem",
      "lat": 53.499381,
      "lng": 13.06931,
      "fuels": {
        "gazole": 1.009,
        "sp95": 1.009,
        "e10": 1.009
      }
    },
    {
      "id": "86a4e9bf-ff69-43bd-ac69-a3c53882a137",
      "cp": "19348",
      "ville": "Perleberg",
      "adresse": "Berliner Str. 31",
      "brand": "Totalenergies",
      "lat": 53.070305,
      "lng": 11.876505,
      "fuels": {
        "gazole": 1.009,
        "sp95": 1.009,
        "e10": 1.009
      }
    },
    {
      "id": "b9ea2fda-7a9c-48dd-9483-8c52a6735f05",
      "cp": "19348",
      "ville": "Perleberg",
      "adresse": "Hamburger Str. 18",
      "brand": "Totalenergies",
      "lat": 53.082701,
      "lng": 11.858818,
      "fuels": {
        "gazole": 1.009,
        "sp95": 1.009,
        "e10": 1.009
      }
    },
    {
      "id": "005056ba-7cb6-1ed2-bceb-b9b4647fcd4b",
      "cp": "19348",
      "ville": "Perleberg",
      "adresse": "Schwarzer Weg 11",
      "brand": "Famila",
      "lat": 53.06341,
      "lng": 11.83893,
      "fuels": {
        "gazole": 1.009,
        "sp95": 1.009,
        "e10": 1.009
      }
    },
    {
      "id": "40edf151-dc4a-41e6-872b-3c5b292e01b9",
      "cp": "19086",
      "ville": "Plate",
      "adresse": "Banzkower Straße 68",
      "brand": "oil! (automatenstation)",
      "lat": 53.5416,
      "lng": 11.4974,
      "fuels": {
        "gazole": 1.009,
        "sp95": 1.009,
        "e10": 1.009
      }
    },
    {
      "id": "02bbc095-ca5e-4ace-a39d-9ee3f92de933",
      "cp": "19395",
      "ville": "Plau",
      "adresse": "Plauerhägerstraße 28",
      "brand": "Raiffeisen",
      "lat": 53.46293,
      "lng": 12.259346,
      "fuels": {
        "gazole": 1.009,
        "sp95": 1.009,
        "e10": 1.009
      }
    },
    {
      "id": "1c44cc2c-b51e-4ad4-a24e-74c0330639d1",
      "cp": "19395",
      "ville": "Plau Am See",
      "adresse": "Meyenburger Chaussee",
      "brand": "Sprint",
      "lat": 53.418903,
      "lng": 12.258481,
      "fuels": {
        "gazole": 1.009,
        "sp95": 1.009,
        "e10": 1.009
      }
    },
    {
      "id": "268b598b-55e0-4898-809d-9cc94716ee91",
      "cp": "19395",
      "ville": "Plau Am See",
      "adresse": "Rostocker Chaussee 1",
      "brand": "Totalenergies",
      "lat": 53.470368,
      "lng": 12.264311,
      "fuels": {
        "gazole": 1.009,
        "sp95": 1.009,
        "e10": 1.009
      }
    },
    {
      "id": "6d8418c5-4359-44fe-b611-ac2fb3308364",
      "cp": "17291",
      "ville": "Prenzlau",
      "adresse": "Berliner Str. 2/ b109",
      "brand": "Sb",
      "lat": 53.3069,
      "lng": 13.8309,
      "fuels": {
        "gazole": 1.009,
        "sp95": 1.009,
        "e10": 1.009
      }
    },
    {
      "id": "22fe79dc-09ad-4ce7-aa40-45c1fedf6961",
      "cp": "17291",
      "ville": "Prenzlau",
      "adresse": "Berliner Strasse 8 A",
      "brand": "Sprint",
      "lat": 53.30443,
      "lng": 13.823873,
      "fuels": {
        "gazole": 1.009,
        "sp95": 1.009,
        "e10": 1.009
      }
    },
    {
      "id": "2a143208-d03f-44ec-9c41-d377266d8f11",
      "cp": "17291",
      "ville": "Prenzlau",
      "adresse": "Seelübber Weg 3",
      "brand": "Marktkauf",
      "lat": 53.305104,
      "lng": 13.87756,
      "fuels": {
        "gazole": 1.009,
        "sp95": 1.009,
        "e10": 1.009
      }
    },
    {
      "id": "cac83506-16b1-41a0-939f-b0857b6c6b44",
      "cp": "17291",
      "ville": "Prenzlau",
      "adresse": "Stettiner Str. 100",
      "brand": "Totalenergies",
      "lat": 53.330291,
      "lng": 13.867537,
      "fuels": {
        "gazole": 1.009,
        "sp95": 1.009,
        "e10": 1.009
      }
    },
    {
      "id": "1bb29b3f-eca4-c494-f9a2-e99935154fbd",
      "cp": "18581",
      "ville": "Putbus",
      "adresse": "Bahnhofstr. 15a",
      "brand": "Freie Tankstelle Putbus",
      "lat": 54.35525,
      "lng": 13.48033,
      "fuels": {
        "gazole": 1.009,
        "sp95": 1.009,
        "e10": 1.009
      }
    },
    {
      "id": "f2012025-8252-4ebb-b163-6f326b5a661a",
      "cp": "19067",
      "ville": "Rampe",
      "adresse": "Cambser Str. 25",
      "brand": "Shell",
      "lat": 53.687138,
      "lng": 11.488339,
      "fuels": {
        "gazole": 1.009,
        "sp95": 1.009,
        "e10": 1.009
      }
    },
    {
      "id": "7f8f48fb-e213-4b5d-8e5b-f0288c6e2c4b",
      "cp": "19288",
      "ville": "Rastow",
      "adresse": "Ahornstraße 1",
      "brand": "Aral",
      "lat": 53.43897,
      "lng": 11.489584,
      "fuels": {
        "gazole": 1.009,
        "sp95": 1.009,
        "e10": 1.009
      }
    },
    {
      "id": "5f46e240-a8b6-439c-b10b-511ab9b0f46a",
      "cp": "18276",
      "ville": "Recknitz",
      "adresse": "Bab A 19 - Ost",
      "brand": "Aral",
      "lat": 53.839943,
      "lng": 12.287809,
      "fuels": {
        "gazole": 1.009,
        "sp95": 1.009,
        "e10": 1.009
      }
    },
    {
      "id": "f15f51a6-61ea-4f9c-9006-9a26b374ed5d",
      "cp": "18276",
      "ville": "Recknitz",
      "adresse": "Bab A 19 - West",
      "brand": "Aral",
      "lat": 53.84004,
      "lng": 12.291249,
      "fuels": {
        "gazole": 1.009,
        "sp95": 1.009,
        "e10": 1.009
      }
    },
    {
      "id": "3fd0d16c-761b-4b03-a445-a601a5d83018",
      "cp": "19217",
      "ville": "Rehna",
      "adresse": "Gletzower Str. 62b",
      "brand": "Totalenergies",
      "lat": 53.785438,
      "lng": 11.04411,
      "fuels": {
        "gazole": 1.009,
        "sp95": 1.009,
        "e10": 1.009
      }
    },
    {
      "id": "e1a15081-2528-9107-e040-0b0a3dfe563c",
      "cp": "17153",
      "ville": "Reuterstadt Stavenhagen",
      "adresse": "Werdohler Str. 2",
      "brand": "Hem",
      "lat": 53.688562,
      "lng": 12.919021,
      "fuels": {
        "gazole": 1.009,
        "sp95": 1.009,
        "e10": 1.009
      }
    },
    {
      "id": "218e10a5-ad16-4bcb-acfd-a3024eb3043e",
      "cp": "18311",
      "ville": "Ribnitz-Damgarten",
      "adresse": "Alte Klockenhaeger Landstr. 2",
      "brand": "Tankcenter",
      "lat": 54.239933,
      "lng": 12.405308,
      "fuels": {
        "gazole": 1.009,
        "sp95": 1.009,
        "e10": 1.009
      }
    },
    {
      "id": "22da8782-e7f2-467f-b515-b9e30aa3dcbe",
      "cp": "18311",
      "ville": "Ribnitz-Damgarten",
      "adresse": "Alte Klockenhäger Landstraße 1",
      "brand": "Aral",
      "lat": 54.239376,
      "lng": 12.407908,
      "fuels": {
        "gazole": 1.009,
        "sp95": 1.009,
        "e10": 1.009
      }
    },
    {
      "id": "e1a15081-2529-9107-e040-0b0a3dfe563c",
      "cp": "18311",
      "ville": "Ribnitz-Damgarten",
      "adresse": "An Der Mühle 1",
      "brand": "Hem",
      "lat": 54.254658,
      "lng": 12.491396,
      "fuels": {
        "gazole": 1.009,
        "sp95": 1.009,
        "e10": 1.009
      }
    },
    {
      "id": "d471e1cd-750e-4fbb-bba0-f1937b3856a2",
      "cp": "18311",
      "ville": "Ribnitz-Damgarten",
      "adresse": "Damgartener Chaussee 61 B",
      "brand": "Sb",
      "lat": 54.24315,
      "lng": 12.45424,
      "fuels": {
        "gazole": 1.009,
        "sp95": 1.009,
        "e10": 1.009
      }
    },
    {
      "id": "b33bbf4d-9a8f-11ef-8aa0-005056a27fa7",
      "cp": "18311",
      "ville": "Ribnitz-Damgarten",
      "adresse": "Sanitzer Straße 3",
      "brand": "Famila",
      "lat": 54.23815,
      "lng": 12.43792,
      "fuels": {
        "gazole": 1.009,
        "sp95": 1.009,
        "e10": 1.009
      }
    },
    {
      "id": "9766d42b-d4f6-4911-a9f8-e4d9bddbf381",
      "cp": "18461",
      "ville": "Richtenberg",
      "adresse": "Stralsunder Str.",
      "brand": "Shell",
      "lat": 54.204858,
      "lng": 12.90346,
      "fuels": {
        "gazole": 1.009,
        "sp95": 1.009,
        "e10": 1.009
      }
    },
    {
      "id": "7c09ca1f-a8d7-466b-bb59-b25e5db915e9",
      "cp": "17207",
      "ville": "Röbel",
      "adresse": "Mirower Straße 21",
      "brand": "Bft",
      "lat": 53.369368,
      "lng": 12.615533,
      "fuels": {
        "gazole": 1.009,
        "sp95": 1.009,
        "e10": 1.009
      }
    },
    {
      "id": "1f5cd22c-2a1a-4442-870e-56442058b487",
      "cp": "17207",
      "ville": "Roebel",
      "adresse": "Warener Chaussee 7",
      "brand": "Shell",
      "lat": 53.385788,
      "lng": 12.602307,
      "fuels": {
        "gazole": 1.009,
        "sp95": 1.009,
        "e10": 1.009
      }
    },
    {
      "id": "a2568fd3-e83f-40fc-8ca8-8e708736758d",
      "cp": "18184",
      "ville": "Roggentin",
      "adresse": "Ahornring 1b",
      "brand": "Avia",
      "lat": 54.078287,
      "lng": 12.214042,
      "fuels": {
        "gazole": 1.009,
        "sp95": 1.009,
        "e10": 1.009
      }
    },
    {
      "id": "28cfd56d-a6cf-4482-be10-56e444d9ef3d",
      "cp": "18184",
      "ville": "Roggentin",
      "adresse": "Globusring 1",
      "brand": "Globus Sb Warenhaus",
      "lat": 54.07492,
      "lng": 12.20115,
      "fuels": {
        "gazole": 1.009,
        "sp95": 1.009,
        "e10": 1.009
      }
    },
    {
      "id": "51d4b664-a095-1aa0-e100-80009459e03a",
      "cp": "18184",
      "ville": "Roggentin",
      "adresse": "Koesterbecker Str. 1",
      "brand": "Jet",
      "lat": 54.07998,
      "lng": 12.21351,
      "fuels": {
        "gazole": 1.009,
        "sp95": 1.009,
        "e10": 1.009
      }
    },
    {
      "id": "d18c6e49-6a30-49d8-a8b2-53347f07185d",
      "cp": "18147",
      "ville": "Rostock",
      "adresse": "Am Liepengraben 5",
      "brand": "Avia",
      "lat": 54.12811,
      "lng": 12.15479,
      "fuels": {
        "gazole": 1.009,
        "sp95": 1.009,
        "e10": 1.009
      }
    },
    {
      "id": "cda1a80b-992d-4b02-a23c-60d46753b33f",
      "cp": "18107",
      "ville": "Rostock",
      "adresse": "An Der Stadtautobahn 38",
      "brand": "Avia",
      "lat": 54.13232,
      "lng": 12.06395,
      "fuels": {
        "gazole": 1.009,
        "sp95": 1.009,
        "e10": 1.009
      }
    },
    {
      "id": "ab32ef68-d8b4-4424-8466-4ab89198c3dc",
      "cp": "18119",
      "ville": "Rostock",
      "adresse": "An Der Stadtautobahn 60",
      "brand": "Aral",
      "lat": 54.168423,
      "lng": 12.079958,
      "fuels": {
        "gazole": 1.009,
        "sp95": 1.009,
        "e10": 1.009
      }
    },
    {
      "id": "40f0a4a9-69d0-423a-aef2-5eb229271abd",
      "cp": "18059",
      "ville": "Rostock",
      "adresse": "Erich-Schlesinger-Str. 26",
      "brand": "Totalenergies",
      "lat": 54.076621,
      "lng": 12.119421,
      "fuels": {
        "gazole": 1.009,
        "sp95": 1.009,
        "e10": 1.009
      }
    },
    {
      "id": "e34b2102-beb1-4b1f-b489-c8065964d791",
      "cp": "18069",
      "ville": "Rostock",
      "adresse": "Fischerweg 1",
      "brand": "q1",
      "lat": 54.1138,
      "lng": 12.0806,
      "fuels": {
        "gazole": 1.009,
        "sp95": 1.009,
        "e10": 1.009
      }
    },
    {
      "id": "005056ba-7cb6-1ed2-bceb-8d2e9731cd33",
      "cp": "18146",
      "ville": "Rostock",
      "adresse": "Große Rampe 1",
      "brand": "Star",
      "lat": 54.139338,
      "lng": 12.166537,
      "fuels": {
        "gazole": 1.009,
        "sp95": 1.009,
        "e10": 1.009
      }
    },
    {
      "id": "076c60ee-c912-49d8-85b0-e694a1dca2c5",
      "cp": "18069",
      "ville": "Rostock",
      "adresse": "Handwerkstraße 1",
      "brand": "Citti",
      "lat": 54.123916,
      "lng": 12.073096,
      "fuels": {
        "gazole": 1.009,
        "sp95": 1.009,
        "e10": 1.009
      }
    },
    {
      "id": "005056ba-7cb6-1ed2-bceb-a33fcd74cd3e",
      "cp": "18146",
      "ville": "Rostock",
      "adresse": "Hinrichsdorfer Straße 7e",
      "brand": "Orlen",
      "lat": 54.1104,
      "lng": 12.165367,
      "fuels": {
        "gazole": 1.009,
        "sp95": 1.009,
        "e10": 1.009
      }
    },
    {
      "id": "79e6e21d-6735-4e41-9958-543a31fb8afb",
      "cp": "18059",
      "ville": "Rostock",
      "adresse": "Lise-Meitner-Ring 1",
      "brand": "Team",
      "lat": 54.0596,
      "lng": 12.1179,
      "fuels": {
        "gazole": 1.009,
        "sp95": 1.009,
        "e10": 1.009
      }
    },
    {
      "id": "b776f487-5958-40a0-b522-e5f03ad683da",
      "cp": "18146",
      "ville": "Rostock",
      "adresse": "Lorenzstr. 75",
      "brand": "Shell",
      "lat": 54.10993,
      "lng": 12.16812,
      "fuels": {
        "gazole": 1.009,
        "sp95": 1.009,
        "e10": 1.009
      }
    },
    {
      "id": "b03229b5-f07c-4dc2-8ce8-4b8959faa334",
      "cp": "18059",
      "ville": "Rostock",
      "adresse": "Platz Der Freundschaft 16",
      "brand": "Avia",
      "lat": 54.075442,
      "lng": 12.128756,
      "fuels": {
        "gazole": 1.009,
        "sp95": 1.009,
        "e10": 1.009
      }
    },
    {
      "id": "2989da2b-b92c-4692-b3df-28262fe36840",
      "cp": "18146",
      "ville": "Rostock",
      "adresse": "Roevershaeger Ch. 3",
      "brand": "Totalenergies",
      "lat": 54.099613,
      "lng": 12.177267,
      "fuels": {
        "gazole": 1.009,
        "sp95": 1.009,
        "e10": 1.009
      }
    },
    {
      "id": "d28ee206-e08e-4c9f-be4b-8f60be4b5ebb",
      "cp": "18146",
      "ville": "Rostock",
      "adresse": "Rövershäger Chaussee 11",
      "brand": "Aral",
      "lat": 54.099552,
      "lng": 12.176054,
      "fuels": {
        "gazole": 1.009,
        "sp95": 1.009,
        "e10": 1.009
      }
    },
    {
      "id": "0de3622b-e5fc-4595-aaca-7903307791a7",
      "cp": "18107",
      "ville": "Rostock",
      "adresse": "Sankt-Petersburger Str.",
      "brand": "Shell",
      "lat": 54.130563,
      "lng": 12.058039,
      "fuels": {
        "gazole": 1.009,
        "sp95": 1.009,
        "e10": 1.009
      }
    },
    {
      "id": "51d4b4f3-a095-1aa0-e100-80009459e03a",
      "cp": "18059",
      "ville": "Rostock",
      "adresse": "Satower Str. 10 A",
      "brand": "Jet",
      "lat": 54.07558,
      "lng": 12.09403,
      "fuels": {
        "gazole": 1.009,
        "sp95": 1.009,
        "e10": 1.009
      }
    },
    {
      "id": "04cea3e5-da83-45e7-a477-b6e804325473",
      "cp": "18069",
      "ville": "Rostock",
      "adresse": "Schmarler Damm 9",
      "brand": "Agip Eni",
      "lat": 54.129272184582,
      "lng": 12.075472951061,
      "fuels": {
        "gazole": 1.009,
        "sp95": 1.009,
        "e10": 1.009
      }
    },
    {
      "id": "06760441-a71c-4a5b-a18a-5b4d60ff0ea0",
      "cp": "18055",
      "ville": "Rostock",
      "adresse": "Tessiner Str. 98",
      "brand": "Totalenergies",
      "lat": 54.080731,
      "lng": 12.189121,
      "fuels": {
        "gazole": 1.009,
        "sp95": 1.009,
        "e10": 1.009
      }
    },
    {
      "id": "1ff5e57d-5ac4-4dd1-bf34-1dcd61b37bbf",
      "cp": "18055",
      "ville": "Rostock",
      "adresse": "Tessiner Straße 68",
      "brand": "Aral",
      "lat": 54.081196,
      "lng": 12.194307,
      "fuels": {
        "gazole": 1.009,
        "sp95": 1.009,
        "e10": 1.009
      }
    },
    {
      "id": "d50b0480-a0f8-42fa-a8b2-aab7795ec54c",
      "cp": "18147",
      "ville": "Rostock",
      "adresse": "Toitenwinkler Allee 1",
      "brand": "Aral",
      "lat": 54.113537,
      "lng": 12.161486,
      "fuels": {
        "gazole": 1.009,
        "sp95": 1.009,
        "e10": 1.009
      }
    },
    {
      "id": "ce241717-dafc-1ed8-98d7-438bb1da5c48",
      "cp": "18107",
      "ville": "Rostock",
      "adresse": "Trondheimer Str. 4",
      "brand": "Jet",
      "lat": 54.13595,
      "lng": 12.05795,
      "fuels": {
        "gazole": 1.009,
        "sp95": 1.009,
        "e10": 1.009
      }
    },
    {
      "id": "e3149125-dd05-4d2a-80f2-f73345ec4b29",
      "cp": "18069",
      "ville": "Rostock",
      "adresse": "U.-Von-Hutten-Str. 7",
      "brand": "Totalenergies",
      "lat": 54.09538,
      "lng": 12.08314,
      "fuels": {
        "gazole": 1.009,
        "sp95": 1.009,
        "e10": 1.009
      }
    },
    {
      "id": "288137d4-d841-4777-b936-492bb6e07d5d",
      "cp": "18055",
      "ville": "Rostock",
      "adresse": "Verbindungsweg 1",
      "brand": "Esso",
      "lat": 54.082819,
      "lng": 12.165045,
      "fuels": {
        "gazole": 1.009,
        "sp95": 1.009,
        "e10": 1.009
      }
    },
    {
      "id": "2d21eb22-bb59-4a68-b258-45dc6f1b0d18",
      "cp": "18057",
      "ville": "Rostock",
      "adresse": "Warnowufer 53",
      "brand": "Totalenergies",
      "lat": 54.093524,
      "lng": 12.115502,
      "fuels": {
        "gazole": 1.009,
        "sp95": 1.009,
        "e10": 1.009
      }
    },
    {
      "id": "2f9554ee-211f-4efe-b53a-3007f697a685",
      "cp": "18109",
      "ville": "Rostock",
      "adresse": "Werftallee 20",
      "brand": "Esso",
      "lat": 54.157261,
      "lng": 12.078646,
      "fuels": {
        "gazole": 1.009,
        "sp95": 1.009,
        "e10": 1.009
      }
    },
    {
      "id": "51d4b58f-a095-1aa0-e100-80009459e03a",
      "cp": "18057",
      "ville": "Rostock",
      "adresse": "Werftstr. 45",
      "brand": "Jet",
      "lat": 54.09495,
      "lng": 12.10354,
      "fuels": {
        "gazole": 1.009,
        "sp95": 1.009,
        "e10": 1.009
      }
    },
    {
      "id": "e1a15081-256d-9107-e040-0b0a3dfe563c",
      "cp": "18147",
      "ville": "Rostock",
      "adresse": "Zum Südtor 6",
      "brand": "Hem",
      "lat": 54.137838,
      "lng": 12.11387,
      "fuels": {
        "gazole": 1.009,
        "sp95": 1.009,
        "e10": 1.009
      }
    },
    {
      "id": "51d4b489-a095-1aa0-e100-80009459e03a",
      "cp": "18182",
      "ville": "Rostock-Bentwisch",
      "adresse": "Hansestr. 47",
      "brand": "Jet",
      "lat": 54.11348,
      "lng": 12.19306,
      "fuels": {
        "gazole": 1.009,
        "sp95": 1.009,
        "e10": 1.009
      }
    },
    {
      "id": "aca9c6d4-5272-490a-bfd2-80b5c6fd6ff9",
      "cp": "18107",
      "ville": "Rostock-Luettenklein",
      "adresse": "An Der Stadtautobahn 70",
      "brand": "Totalenergies",
      "lat": 54.131509,
      "lng": 12.062656,
      "fuels": {
        "gazole": 1.009,
        "sp95": 1.009,
        "e10": 1.009
      }
    },
    {
      "id": "429ac5c9-0fcb-4277-92dc-29027c17a76f",
      "cp": "18551",
      "ville": "Sagard",
      "adresse": "Saßnitzer Str. 4",
      "brand": "oil! (automatenstation)",
      "lat": 54.5232,
      "lng": 13.56,
      "fuels": {
        "gazole": 1.009,
        "sp95": 1.009,
        "e10": 1.009
      }
    },
    {
      "id": "ce241717-ebd8-1ee9-9fcc-dd822afdc82f",
      "cp": "18551",
      "ville": "Sagard",
      "adresse": "Schulstr. 58",
      "brand": "Jet",
      "lat": 54.52941,
      "lng": 13.54674,
      "fuels": {
        "gazole": 1.009,
        "sp95": 1.009,
        "e10": 1.009
      }
    },
    {
      "id": "784a61b3-bbd6-478f-a952-8f1e0ce06b37",
      "cp": "18573",
      "ville": "Samtens",
      "adresse": "Bergener Str. 13",
      "brand": "Shell",
      "lat": 54.36191,
      "lng": 13.308209,
      "fuels": {
        "gazole": 1.009,
        "sp95": 1.009,
        "e10": 1.009
      }
    },
    {
      "id": "a0ca5526-ff86-4847-890c-03c375b6b674",
      "cp": "18190",
      "ville": "Sanitz",
      "adresse": "Rostocker Str. 72",
      "brand": "Totalenergies",
      "lat": 54.07774,
      "lng": 12.367252,
      "fuels": {
        "gazole": 1.009,
        "sp95": 1.009,
        "e10": 1.009
      }
    },
    {
      "id": "a927a411-4d15-4ea6-ab8d-740cb65fd48b",
      "cp": "18546",
      "ville": "Sassnitz",
      "adresse": "Gewerbepark 3",
      "brand": "Totalenergies",
      "lat": 54.513303,
      "lng": 13.603129,
      "fuels": {
        "gazole": 1.009,
        "sp95": 1.009,
        "e10": 1.009
      }
    },
    {
      "id": "0540cfe9-0afa-4bd8-a511-aaf416696aba",
      "cp": "18546",
      "ville": "Sassnitz",
      "adresse": "Stralsunder Str./ b96",
      "brand": "Shell",
      "lat": 54.51307,
      "lng": 13.619298,
      "fuels": {
        "gazole": 1.009,
        "sp95": 1.009,
        "e10": 1.009
      }
    },
    {
      "id": "1be11015-5924-4e6c-8d86-73f5326f08e5",
      "cp": "18239",
      "ville": "Satow",
      "adresse": "Fritz-Reuter-Str. 43",
      "brand": "Avia",
      "lat": 53.99245,
      "lng": 11.90487,
      "fuels": {
        "gazole": 1.009,
        "sp95": 1.009,
        "e10": 1.009
      }
    },
    {
      "id": "e1a15081-2533-9107-e040-0b0a3dfe563c",
      "cp": "18258",
      "ville": "Schwaan",
      "adresse": "Niendorfer Chaussee 45",
      "brand": "Hem",
      "lat": 53.937667,
      "lng": 12.134083,
      "fuels": {
        "gazole": 1.009,
        "sp95": 1.009,
        "e10": 1.009
      }
    },
    {
      "id": "52a183e3-c532-449b-8f5c-1e91f190c2cc",
      "cp": "19061",
      "ville": "Schwerin",
      "adresse": "Am Fasanenhof 5",
      "brand": "Nordoel",
      "lat": 53.60897,
      "lng": 11.36787,
      "fuels": {
        "gazole": 1.009,
        "sp95": 1.009,
        "e10": 1.009
      }
    },
    {
      "id": "e084dfd3-4e72-4fc9-9e08-2cbf4cada8ae",
      "cp": "19063",
      "ville": "Schwerin",
      "adresse": "Am Grünen Tal 10",
      "brand": "Aral",
      "lat": 53.59798,
      "lng": 11.43837,
      "fuels": {
        "gazole": 1.009,
        "sp95": 1.009,
        "e10": 1.009
      }
    },
    {
      "id": "0fc97caa-b3d2-55b8-8e98-ab2aec0f8858",
      "cp": "19057",
      "ville": "Schwerin",
      "adresse": "Am Margaretenhof 3",
      "brand": "Hoyer",
      "lat": 53.6616897583,
      "lng": 11.35898685455,
      "fuels": {
        "gazole": 1.009,
        "sp95": 1.009,
        "e10": 1.009
      }
    },
    {
      "id": "61556a1d-088e-4d74-a164-210b82246444",
      "cp": "19061",
      "ville": "Schwerin",
      "adresse": "Am Puesserkrug 2",
      "brand": "Esso",
      "lat": 53.612439,
      "lng": 11.417201,
      "fuels": {
        "gazole": 1.009,
        "sp95": 1.009,
        "e10": 1.009
      }
    },
    {
      "id": "dc644e01-70fd-49d1-8229-4a07565144cd",
      "cp": "19061",
      "ville": "Schwerin",
      "adresse": "An Der Crivitzer Ch. 12",
      "brand": "T",
      "lat": 53.603712,
      "lng": 11.439055,
      "fuels": {
        "gazole": 1.009,
        "sp95": 1.009,
        "e10": 1.009
      }
    },
    {
      "id": "a96ab709-6343-483f-aaf8-a266905949d2",
      "cp": "19063",
      "ville": "Schwerin",
      "adresse": "An Der Crivitzer Chaussee",
      "brand": "Aral",
      "lat": 53.60032,
      "lng": 11.465076,
      "fuels": {
        "gazole": 1.009,
        "sp95": 1.009,
        "e10": 1.009
      }
    },
    {
      "id": "781f9bbe-bca4-48f0-a7bd-fb52c9d5b140",
      "cp": "19061",
      "ville": "Schwerin",
      "adresse": "Grabenstr. 22",
      "brand": "Totalenergies",
      "lat": 53.601225,
      "lng": 11.391104,
      "fuels": {
        "gazole": 1.009,
        "sp95": 1.009,
        "e10": 1.009
      }
    },
    {
      "id": "77dfaef4-ee31-4a58-b3a6-cc1902851429",
      "cp": "19061",
      "ville": "Schwerin",
      "adresse": "Graf-York-Straße 23",
      "brand": "Aral",
      "lat": 53.590836,
      "lng": 11.430641,
      "fuels": {
        "gazole": 1.009,
        "sp95": 1.009,
        "e10": 1.009
      }
    },
    {
      "id": "f66e719a-d28b-4d1e-b291-5d5060c959d7",
      "cp": "19055",
      "ville": "Schwerin",
      "adresse": "Güstrower Straße 32",
      "brand": "Aral",
      "lat": 53.643448,
      "lng": 11.424785,
      "fuels": {
        "gazole": 1.009,
        "sp95": 1.009,
        "e10": 1.009
      }
    },
    {
      "id": "9089fd76-a6e4-41b6-a0ad-899233f197ed",
      "cp": "19063",
      "ville": "Schwerin",
      "adresse": "Hamburger Allee 135",
      "brand": "Shell",
      "lat": 53.59386,
      "lng": 11.465493,
      "fuels": {
        "gazole": 1.009,
        "sp95": 1.009,
        "e10": 1.009
      }
    },
    {
      "id": "bab308d4-7247-4052-9a53-a75dd657150e",
      "cp": "19059",
      "ville": "Schwerin",
      "adresse": "Luebecker Str. 283",
      "brand": "Totalenergies",
      "lat": 53.645703,
      "lng": 11.382095,
      "fuels": {
        "gazole": 1.009,
        "sp95": 1.009,
        "e10": 1.009
      }
    },
    {
      "id": "005056ba-7cb6-1ed2-bceb-98a031d66d3b",
      "cp": "19053",
      "ville": "Schwerin",
      "adresse": "Obotritenring 168",
      "brand": "Orlen",
      "lat": 53.62342,
      "lng": 11.401641,
      "fuels": {
        "gazole": 1.009,
        "sp95": 1.009,
        "e10": 1.009
      }
    },
    {
      "id": "254ee338-6cec-4321-8b15-a03478cf1b0d",
      "cp": "19053",
      "ville": "Schwerin",
      "adresse": "Obotritenring 19a",
      "brand": "Totalenergies",
      "lat": 53.638696,
      "lng": 11.404074,
      "fuels": {
        "gazole": 1.009,
        "sp95": 1.009,
        "e10": 1.009
      }
    },
    {
      "id": "19ce5dce-9afd-4dab-bb17-1faefdd60904",
      "cp": "19061",
      "ville": "Schwerin",
      "adresse": "Pampower Straße 5",
      "brand": "Bft",
      "lat": 53.5892,
      "lng": 11.4028,
      "fuels": {
        "gazole": 1.009,
        "sp95": 1.009,
        "e10": 1.009
      }
    },
    {
      "id": "52ca190c-74fe-478d-968b-9c41f6c92961",
      "cp": "19061",
      "ville": "Schwerin",
      "adresse": "Pampowerstr./Werkstr.",
      "brand": "Sb",
      "lat": 53.5719,
      "lng": 11.38932,
      "fuels": {
        "gazole": 1.009,
        "sp95": 1.009,
        "e10": 1.009
      }
    },
    {
      "id": "ce241717-aba3-1ed9-b2d3-ff8838e30635",
      "cp": "19057",
      "ville": "Schwerin",
      "adresse": "Ratzeburgerstr. 2 B",
      "brand": "Jet",
      "lat": 53.64816,
      "lng": 11.35337,
      "fuels": {
        "gazole": 1.009,
        "sp95": 1.009,
        "e10": 1.009
      }
    },
    {
      "id": "e1a15081-2535-9107-e040-0b0a3dfe563c",
      "cp": "19061",
      "ville": "Schwerin",
      "adresse": "Schweriner Str. C 3",
      "brand": "Hem",
      "lat": 53.585888,
      "lng": 11.400054,
      "fuels": {
        "gazole": 1.009,
        "sp95": 1.009,
        "e10": 1.009
      }
    },
    {
      "id": "3938c6e2-124d-4b98-8ce5-928129071fb1",
      "cp": "19061",
      "ville": "Schwerin",
      "adresse": "Werner - Von - Siemens - Straße 1b",
      "brand": "Avia",
      "lat": 53.56993,
      "lng": 11.37616,
      "fuels": {
        "gazole": 1.009,
        "sp95": 1.009,
        "e10": 1.009
      }
    },
    {
      "id": "e1a15081-25c4-9107-e040-0b0a3dfe563c",
      "cp": "19055",
      "ville": "Schwerin",
      "adresse": "Wismarsche Str. 376",
      "brand": "Hem",
      "lat": 53.650819,
      "lng": 11.405273,
      "fuels": {
        "gazole": 1.009,
        "sp95": 1.009,
        "e10": 1.009
      }
    },
    {
      "id": "62300aa4-acf4-47f0-9443-b1f1f62407b1",
      "cp": "19055",
      "ville": "Schwerin",
      "adresse": "Wismarsche Str. 392",
      "brand": "Nordoel",
      "lat": 53.653933,
      "lng": 11.404426,
      "fuels": {
        "gazole": 1.009,
        "sp95": 1.009,
        "e10": 1.009
      }
    },
    {
      "id": "b3abb5b4-9f6d-41f2-aa11-a703f7087348",
      "cp": "19059",
      "ville": "Schwerin",
      "adresse": "Wittenburger Straße 121",
      "brand": "Aral",
      "lat": 53.62849,
      "lng": 11.38979,
      "fuels": {
        "gazole": 1.009,
        "sp95": 1.009,
        "e10": 1.009
      }
    },
    {
      "id": "ea8afe74-02c2-4f9b-a82e-52393e4b0585",
      "cp": "18528",
      "ville": "Sehlen",
      "adresse": "Dorfstr. 12",
      "brand": "Esso",
      "lat": 54.402733,
      "lng": 13.395805,
      "fuels": {
        "gazole": 1.009,
        "sp95": 1.009,
        "e10": 1.009
      }
    },
    {
      "id": "a1531568-2028-423f-9ebf-c36cbbfbbd90",
      "cp": "18586",
      "ville": "Sellin/Rügen",
      "adresse": "An Der b196",
      "brand": "Shell",
      "lat": 54.365396,
      "lng": 13.703621,
      "fuels": {
        "gazole": 1.009,
        "sp95": 1.009,
        "e10": 1.009
      }
    },
    {
      "id": "485fb090-c655-4e07-9900-eae6a5e850ff",
      "cp": "19372",
      "ville": "Spornitz",
      "adresse": "An Der B 191",
      "brand": "Nordoel",
      "lat": 53.4123,
      "lng": 11.7305,
      "fuels": {
        "gazole": 1.009,
        "sp95": 1.009,
        "e10": 1.009
      }
    },
    {
      "id": "63185c30-b777-4f06-b49b-d742ce8db9bf",
      "cp": "17153",
      "ville": "Stavenhagen",
      "adresse": "Malchiner Str. 81",
      "brand": "Totalenergies",
      "lat": 53.700237,
      "lng": 12.897694,
      "fuels": {
        "gazole": 1.009,
        "sp95": 1.009,
        "e10": 1.009
      }
    },
    {
      "id": "cbb08496-0f35-4541-9aa4-faa32877ca9a",
      "cp": "19406",
      "ville": "Sternberg",
      "adresse": "An Der Brueeler Ch. 12",
      "brand": "Totalenergies",
      "lat": 53.708883,
      "lng": 11.806677,
      "fuels": {
        "gazole": 1.009,
        "sp95": 1.009,
        "e10": 1.009
      }
    },
    {
      "id": "ec2451f3-d7e1-4e3c-9cbe-4b836e2dcb6e",
      "cp": "19406",
      "ville": "Sternberg",
      "adresse": "Parchimer Chaussee 7",
      "brand": "oil!",
      "lat": 53.7023,
      "lng": 11.8309,
      "fuels": {
        "gazole": 1.009,
        "sp95": 1.009,
        "e10": 1.009
      }
    },
    {
      "id": "8b561d44-e79a-43d3-8008-794a2f7d0e1c",
      "cp": "19372",
      "ville": "Stolpe",
      "adresse": "Bab  a24 Stolpe Süd",
      "brand": "Totalenergies",
      "lat": 53.367031,
      "lng": 11.727077,
      "fuels": {
        "gazole": 1.009,
        "sp95": 1.009,
        "e10": 1.009
      }
    },
    {
      "id": "8e6ff792-a0fb-49d3-98aa-e388ca33dcb4",
      "cp": "19372",
      "ville": "Stolpe",
      "adresse": "Bab a24 Stolpe Nord",
      "brand": "Totalenergies",
      "lat": 53.367647,
      "lng": 11.73191,
      "fuels": {
        "gazole": 1.009,
        "sp95": 1.009,
        "e10": 1.009
      }
    },
    {
      "id": "bc96ad73-e703-4d74-a1df-8f6743a7d57d",
      "cp": "18439",
      "ville": "Stralsund",
      "adresse": "Greifswalder Ch. 122",
      "brand": "Totalenergies",
      "lat": 54.300851,
      "lng": 13.094701,
      "fuels": {
        "gazole": 1.009,
        "sp95": 1.009,
        "e10": 1.009
      }
    },
    {
      "id": "e68c261a-c458-4844-ac16-ad8a13a9ea12",
      "cp": "18439",
      "ville": "Stralsund",
      "adresse": "Greifswalder Chaussee 62",
      "brand": "Aral",
      "lat": 54.276688,
      "lng": 13.10687,
      "fuels": {
        "gazole": 1.009,
        "sp95": 1.009,
        "e10": 1.009
      }
    },
    {
      "id": "4667d338-8cad-4437-8563-af15b22b14d4",
      "cp": "18439",
      "ville": "Stralsund",
      "adresse": "Greifswalder Chaussee 7",
      "brand": "Sb",
      "lat": 54.298117,
      "lng": 13.091781,
      "fuels": {
        "gazole": 1.009,
        "sp95": 1.009,
        "e10": 1.009
      }
    },
    {
      "id": "227ffad8-8a5e-43c9-8528-c68f0e05f425",
      "cp": "18437",
      "ville": "Stralsund",
      "adresse": "Grünhufer Bogen 11-14",
      "brand": "Strelapark Tank",
      "lat": 54.320424,
      "lng": 13.047691,
      "fuels": {
        "gazole": 1.009,
        "sp95": 1.009,
        "e10": 1.009
      }
    },
    {
      "id": "51d4b51b-a095-1aa0-e100-80009459e03a",
      "cp": "18439",
      "ville": "Stralsund",
      "adresse": "Gustower Weg 3",
      "brand": "Supermarkt-Tankstelle",
      "lat": 54.27084,
      "lng": 13.11493,
      "fuels": {
        "gazole": 1.009,
        "sp95": 1.009,
        "e10": 1.009
      }
    },
    {
      "id": "8bcc222f-50fa-4fd0-94ae-e8f1a41168ac",
      "cp": "18435",
      "ville": "Stralsund",
      "adresse": "Heinrich-Heine-Ring 127 A",
      "brand": "Esso",
      "lat": 54.321268,
      "lng": 13.055673,
      "fuels": {
        "gazole": 1.009,
        "sp95": 1.009,
        "e10": 1.009
      }
    },
    {
      "id": "0f4f799c-9d35-4786-8751-cca2ad0e794f",
      "cp": "18435",
      "ville": "Stralsund",
      "adresse": "Heinrich-Heine-Ring 71",
      "brand": "Shell",
      "lat": 54.330164,
      "lng": 13.067929,
      "fuels": {
        "gazole": 1.009,
        "sp95": 1.009,
        "e10": 1.009
      }
    },
    {
      "id": "cd8b8686-d646-1ed5-9f85-9d6d5257cb2f",
      "cp": "18435",
      "ville": "Stralsund",
      "adresse": "Heinrich-Heine-Ring 98",
      "brand": "Jet",
      "lat": 54.32737,
      "lng": 13.06185,
      "fuels": {
        "gazole": 1.009,
        "sp95": 1.009,
        "e10": 1.009
      }
    },
    {
      "id": "5b6175f9-6c88-4a25-9cc0-cf23c96dda9c",
      "cp": "18437",
      "ville": "Stralsund",
      "adresse": "Jacob-Kaiser-Str. 20",
      "brand": "Autol",
      "lat": 54.31398,
      "lng": 13.08579,
      "fuels": {
        "gazole": 1.009,
        "sp95": 1.009,
        "e10": 1.009
      }
    },
    {
      "id": "26800c43-f98c-4562-b86b-edb4615cda1c",
      "cp": "18437",
      "ville": "Stralsund",
      "adresse": "Richtenberger Chaussee 56",
      "brand": "Shell",
      "lat": 54.297464,
      "lng": 13.059548,
      "fuels": {
        "gazole": 1.009,
        "sp95": 1.009,
        "e10": 1.009
      }
    },
    {
      "id": "35a06626-8337-476c-b3a7-8264097d9197",
      "cp": "18437",
      "ville": "Stralsund",
      "adresse": "Rostocker Chaussee 126",
      "brand": "Citti",
      "lat": 54.30281,
      "lng": 13.02915,
      "fuels": {
        "gazole": 1.009,
        "sp95": 1.009,
        "e10": 1.009
      }
    },
    {
      "id": "4b356d3c-8d34-46ea-9239-fec6ab24496d",
      "cp": "18437",
      "ville": "Stralsund",
      "adresse": "Rostocker Chaussee 37",
      "brand": "Sb",
      "lat": 54.30578,
      "lng": 13.05806,
      "fuels": {
        "gazole": 1.009,
        "sp95": 1.009,
        "e10": 1.009
      }
    },
    {
      "id": "a700fdc1-1f8a-45d7-bcd0-9bdcd5d64977",
      "cp": "18439",
      "ville": "Stralsund",
      "adresse": "Werftstr. 13",
      "brand": "Totalenergies",
      "lat": 54.302192,
      "lng": 13.100592,
      "fuels": {
        "gazole": 1.009,
        "sp95": 1.009,
        "e10": 1.009
      }
    },
    {
      "id": "65eff463-a6ad-4a95-8b16-a5da1d97d703",
      "cp": "17335",
      "ville": "Strasburg",
      "adresse": "Am Waethering 2",
      "brand": "Totalenergies",
      "lat": 53.502069,
      "lng": 13.733866,
      "fuels": {
        "gazole": 1.009,
        "sp95": 1.009,
        "e10": 1.009
      }
    },
    {
      "id": "75fc1a7d-27c0-5c50-be99-d9e05316397d",
      "cp": "17335",
      "ville": "Strasburg (uckermark)",
      "adresse": "Linchenshöh 9",
      "brand": "Hoyer",
      "lat": 53.49983215332,
      "lng": 13.77781772614,
      "fuels": {
        "gazole": 1.009,
        "sp95": 1.009,
        "e10": 1.009
      }
    },
    {
      "id": "005056ba-7cb6-1ed2-bceb-66a38298cd1f",
      "cp": "18516",
      "ville": "Süderholz",
      "adresse": "Am Pommerndreieck 2",
      "brand": "Orlen",
      "lat": 54.092998,
      "lng": 13.085356,
      "fuels": {
        "gazole": 1.009,
        "sp95": 1.009,
        "e10": 1.009
      }
    },
    {
      "id": "cfae4e45-43cc-5785-b533-a9e0d1b96e42",
      "cp": "18516",
      "ville": "Süderholz",
      "adresse": "Pommerndreieck 6",
      "brand": "Hoyer",
      "lat": 54.0945930481,
      "lng": 13.08844661713,
      "fuels": {
        "gazole": 1.009,
        "sp95": 1.009,
        "e10": 1.009
      }
    },
    {
      "id": "44bb22d7-ea88-4055-84be-93812280386c",
      "cp": "18519",
      "ville": "Sundhagen / Ot Miltzow",
      "adresse": "Reinberger Straße 26",
      "brand": "oil!",
      "lat": 54.2025,
      "lng": 13.2017,
      "fuels": {
        "gazole": 1.009,
        "sp95": 1.009,
        "e10": 1.009
      }
    },
    {
      "id": "90d26994-0760-4d05-8354-1447b18c6af8",
      "cp": "17268",
      "ville": "Templin",
      "adresse": "Dargersdorfer Str 69a",
      "brand": "Sprint",
      "lat": 53.112923,
      "lng": 13.514142,
      "fuels": {
        "gazole": 1.009,
        "sp95": 1.009,
        "e10": 1.009
      }
    },
    {
      "id": "146b121a-053d-4d58-a04a-414c7f875b03",
      "cp": "17268",
      "ville": "Templin",
      "adresse": "Lychener Straße 15",
      "brand": "Aral",
      "lat": 53.128937,
      "lng": 13.489475,
      "fuels": {
        "gazole": 1.009,
        "sp95": 1.009,
        "e10": 1.009
      }
    },