{
  "code": "RP",
  "name": "Rheinland-Pfalz",
  "fullName": "Rheinland-Pfalz",
  "asOf": "2026-06-01T14:45:37.749Z",
  "source": "https://creativecommons.tankerkoenig.de/",
  "licence": "CC BY 4.0 — Bundeskartellamt MTS-K via tankerkoenig.de",
  "mode": "demo",
  "stationCount": 600,
  "fuels": {
    "gazole": {
      "count": 600,
      "mean": 1.009,
      "median": 1.009,
      "min": 1.009,
      "max": 1.009
    },
    "sp95": {
      "count": 600,
      "mean": 1.009,
      "median": 1.009,
      "min": 1.009,
      "max": 1.009
    },
    "e10": {
      "count": 600,
      "mean": 1.009,
      "median": 1.009,
      "min": 1.009,
      "max": 1.009
    }
  },
  "stations": [
    {
      "id": "a4885036-aac6-4d7b-8c8d-51257a86c29d",
      "cp": "67122",
      "ville": "Altrip",
      "adresse": "Bezirksstraße 16",
      "brand": "Aral",
      "lat": 49.434967,
      "lng": 8.484531,
      "fuels": {
        "gazole": 1.009,
        "sp95": 1.009,
        "e10": 1.009
      }
    },
    {
      "id": "0e31a3fd-c450-4a29-923d-70343d7b1883",
      "cp": "55232",
      "ville": "Alzey",
      "adresse": "Bahnhofstr. 81",
      "brand": "Shell",
      "lat": 49.746588,
      "lng": 8.106635,
      "fuels": {
        "gazole": 1.009,
        "sp95": 1.009,
        "e10": 1.009
      }
    },
    {
      "id": "51d4b6e9-a095-1aa0-e100-80009459e03a",
      "cp": "55232",
      "ville": "Alzey",
      "adresse": "Karl-Heinz-Kipp-Str. 25 A",
      "brand": "Supermarkt-Tankstelle",
      "lat": 49.74646,
      "lng": 8.13613,
      "fuels": {
        "gazole": 1.009,
        "sp95": 1.009,
        "e10": 1.009
      }
    },
    {
      "id": "39eaae7a-14b5-48ec-a9ad-efef9682df39",
      "cp": "55232",
      "ville": "Alzey",
      "adresse": "Schaffhäuser Straße 2-6",
      "brand": "Aral",
      "lat": 49.75078,
      "lng": 8.119211,
      "fuels": {
        "gazole": 1.009,
        "sp95": 1.009,
        "e10": 1.009
      }
    },
    {
      "id": "32eeba17-89c1-43ea-89e0-19a675627f03",
      "cp": "55232",
      "ville": "Alzey",
      "adresse": "Wormser Straße 2",
      "brand": "Ed",
      "lat": 49.742783,
      "lng": 8.114569,
      "fuels": {
        "gazole": 1.009,
        "sp95": 1.009,
        "e10": 1.009
      }
    },
    {
      "id": "8c010159-07f8-4519-b9e8-4a8c01b15931",
      "cp": "56626",
      "ville": "Andernach",
      "adresse": "Aktienstr. 88",
      "brand": "Tankcenter",
      "lat": 50.42363,
      "lng": 7.405856,
      "fuels": {
        "gazole": 1.009,
        "sp95": 1.009,
        "e10": 1.009
      }
    },
    {
      "id": "5d79c352-efd2-42e3-a30c-46363e8491f8",
      "cp": "56626",
      "ville": "Andernach",
      "adresse": "B 9 -",
      "brand": "Ed",
      "lat": 50.422588,
      "lng": 7.395355,
      "fuels": {
        "gazole": 1.009,
        "sp95": 1.009,
        "e10": 1.009
      }
    },
    {
      "id": "c40eefd2-1343-48f1-aafe-3e97f46222b0",
      "cp": "56626",
      "ville": "Andernach",
      "adresse": "Buchenstraße 1 A",
      "brand": "Ed",
      "lat": 50.420498,
      "lng": 7.406177,
      "fuels": {
        "gazole": 1.009,
        "sp95": 1.009,
        "e10": 1.009
      }
    },
    {
      "id": "c4497197-ac39-4b4e-a3e3-1599ea7e38e1",
      "cp": "56626",
      "ville": "Andernach",
      "adresse": "Koblenzer Str. 53-55",
      "brand": "Tankcenter",
      "lat": 50.437148,
      "lng": 7.416318,
      "fuels": {
        "gazole": 1.009,
        "sp95": 1.009,
        "e10": 1.009
      }
    },
    {
      "id": "8b075be4-85c1-4542-9266-434af72fda9d",
      "cp": "56626",
      "ville": "Andernach",
      "adresse": "Kölner Straße 19",
      "brand": "Ed",
      "lat": 50.44202,
      "lng": 7.394059,
      "fuels": {
        "gazole": 1.009,
        "sp95": 1.009,
        "e10": 1.009
      }
    },
    {
      "id": "dafab93f-8f67-4249-bc68-acd767400be6",
      "cp": "56626",
      "ville": "Andernach",
      "adresse": "Rasselsteinstr. 2",
      "brand": "Shell",
      "lat": 50.433211,
      "lng": 7.427013,
      "fuels": {
        "gazole": 1.009,
        "sp95": 1.009,
        "e10": 1.009
      }
    },
    {
      "id": "629d2422-c1a1-4ca5-84ed-79a6d68145db",
      "cp": "56584",
      "ville": "Anhausen",
      "adresse": "Neuwieder Str. 5",
      "brand": "T",
      "lat": 50.496519,
      "lng": 7.552689,
      "fuels": {
        "gazole": 1.009,
        "sp95": 1.009,
        "e10": 1.009
      }
    },
    {
      "id": "e71e1bb6-e7b6-4597-ae83-7e8342579d05",
      "cp": "56766",
      "ville": "Auderath",
      "adresse": "Wilhelmshöhe 3",
      "brand": "Bft",
      "lat": 50.1914,
      "lng": 7.0178,
      "fuels": {
        "gazole": 1.009,
        "sp95": 1.009,
        "e10": 1.009
      }
    },
    {
      "id": "51d4b5b9-a095-1aa0-e100-80009459e03a",
      "cp": "67098",
      "ville": "Bad Duerkheim",
      "adresse": "Gutleutstr. 10",
      "brand": "Jet",
      "lat": 49.46421,
      "lng": 8.1779,
      "fuels": {
        "gazole": 1.009,
        "sp95": 1.009,
        "e10": 1.009
      }
    },
    {
      "id": "f398cc71-feea-49b8-8857-a6e0160cde31",
      "cp": "67098",
      "ville": "Bad Duerkheim",
      "adresse": "Weinstrasse Nord 57",
      "brand": "Agip Eni",
      "lat": 49.467025666013,
      "lng": 8.170956576141,
      "fuels": {
        "gazole": 1.009,
        "sp95": 1.009,
        "e10": 1.009
      }
    },
    {
      "id": "aa29ee35-107d-4593-986d-64e20f212b9e",
      "cp": "67098",
      "ville": "Bad Dürkheim",
      "adresse": "Bruchstr. 10",
      "brand": "Minera",
      "lat": 49.4694,
      "lng": 8.2024,
      "fuels": {
        "gazole": 1.009,
        "sp95": 1.009,
        "e10": 1.009
      }
    },
    {
      "id": "ae352384-e0d1-4079-aebc-ecff4f27ebcd",
      "cp": "67098",
      "ville": "Bad Dürkheim",
      "adresse": "Mannheimer Straße 112",
      "brand": "Aral",
      "lat": 49.46323,
      "lng": 8.186616,
      "fuels": {
        "gazole": 1.009,
        "sp95": 1.009,
        "e10": 1.009
      }
    },
    {
      "id": "175c2a28-fa54-49c7-ba79-d2373f9f2223",
      "cp": "56130",
      "ville": "Bad Ems",
      "adresse": "Bleichstraße 47",
      "brand": "Ed",
      "lat": 50.337852,
      "lng": 7.714615,
      "fuels": {
        "gazole": 1.009,
        "sp95": 1.009,
        "e10": 1.009
      }
    },
    {
      "id": "407d9a68-aa07-4fb5-9669-527e425e6f27",
      "cp": "56130",
      "ville": "Bad Ems",
      "adresse": "Koblenzer Straße 81",
      "brand": "Bell Oil",
      "lat": 50.336308,
      "lng": 7.706284,
      "fuels": {
        "gazole": 1.009,
        "sp95": 1.009,
        "e10": 1.009
      }
    },
    {
      "id": "da266223-518c-4622-a061-129b19fd17b1",
      "cp": "55543",
      "ville": "Bad Kreuznach",
      "adresse": "Alzeyer Str. 73",
      "brand": "Totalenergies",
      "lat": 49.836608,
      "lng": 7.877203,
      "fuels": {
        "gazole": 1.009,
        "sp95": 1.009,
        "e10": 1.009
      }
    },
    {
      "id": "a4437995-279f-4f3d-b5de-fcf604b3c3b0",
      "cp": "55583",
      "ville": "Bad Kreuznach",
      "adresse": "Berliner Str. 12",
      "brand": "Shell",
      "lat": 49.815556,
      "lng": 7.848262,
      "fuels": {
        "gazole": 1.009,
        "sp95": 1.009,
        "e10": 1.009
      }
    },
    {
      "id": "51d4b4bd-a095-1aa0-e100-80009459e03a",
      "cp": "55543",
      "ville": "Bad Kreuznach",
      "adresse": "Bosenheimer Str. 218",
      "brand": "Jet",
      "lat": 49.84751,
      "lng": 7.88798,
      "fuels": {
        "gazole": 1.009,
        "sp95": 1.009,
        "e10": 1.009
      }
    },
    {
      "id": "4bbe0de5-78d4-4dfe-bf9c-366c36152b53",
      "cp": "55543",
      "ville": "Bad Kreuznach",
      "adresse": "Bosenheimer Str. 288",
      "brand": "Shell",
      "lat": 49.849859,
      "lng": 7.895983,
      "fuels": {
        "gazole": 1.009,
        "sp95": 1.009,
        "e10": 1.009
      }
    },
    {
      "id": "02d64192-81bc-45e9-aba5-1222802893d8",
      "cp": "55543",
      "ville": "Bad Kreuznach",
      "adresse": "Bosenheimer Straße 45",
      "brand": "Aral",
      "lat": 49.841988,
      "lng": 7.867241,
      "fuels": {
        "gazole": 1.009,
        "sp95": 1.009,
        "e10": 1.009
      }
    },
    {
      "id": "de3decf0-c20e-4f49-a76d-15d1d7bf9964",
      "cp": "55543",
      "ville": "Bad Kreuznach",
      "adresse": "Michelinstraße 1",
      "brand": "Bft-Tankstelle",
      "lat": 49.857919,
      "lng": 7.884599,
      "fuels": {
        "gazole": 1.009,
        "sp95": 1.009,
        "e10": 1.009
      }
    },
    {
      "id": "51d4b686-a095-1aa0-e100-80009459e03a",
      "cp": "55543",
      "ville": "Bad Kreuznach",
      "adresse": "Planiger Str. 106",
      "brand": "Supermarkt-Tankstelle",
      "lat": 49.84824,
      "lng": 7.87322,
      "fuels": {
        "gazole": 1.009,
        "sp95": 1.009,
        "e10": 1.009
      }
    },
    {
      "id": "679937a9-5d9b-42b5-af48-bf2621c5ba4d",
      "cp": "55545",
      "ville": "Bad Kreuznach",
      "adresse": "Rüdesheimer Str 110",
      "brand": "Shell",
      "lat": 49.848797,
      "lng": 7.83964,
      "fuels": {
        "gazole": 1.009,
        "sp95": 1.009,
        "e10": 1.009
      }
    },
    {
      "id": "51d4b461-a095-1aa0-e100-80009459e03a",
      "cp": "55543",
      "ville": "Bad Kreuznach",
      "adresse": "Schwabenheimer Weg",
      "brand": "Supermarkt-Tankstelle",
      "lat": 49.84632,
      "lng": 7.87797,
      "fuels": {
        "gazole": 1.009,
        "sp95": 1.009,
        "e10": 1.009
      }
    },
    {
      "id": "05445e5a-7798-4aae-932f-8bada8e05e4f",
      "cp": "55543",
      "ville": "Bad Kreuznach",
      "adresse": "Schwabenheimer Weg 135",
      "brand": "Aral",
      "lat": 49.851807,
      "lng": 7.892767,
      "fuels": {
        "gazole": 1.009,
        "sp95": 1.009,
        "e10": 1.009
      }
    },
    {
      "id": "a654c31c-3c95-4091-b494-ea56808e7e94",
      "cp": "56470",
      "ville": "Bad Marienberg",
      "adresse": "Langenbacher Straße 18",
      "brand": "Aral",
      "lat": 50.64803,
      "lng": 7.953069,
      "fuels": {
        "gazole": 1.009,
        "sp95": 1.009,
        "e10": 1.009
      }
    },
    {
      "id": "aa8695ef-f74e-4586-eee6-5c9d3506058b",
      "cp": "55566",
      "ville": "Bad Sobernheim",
      "adresse": "Eckweiler Straße 11",
      "brand": "Mtb",
      "lat": 49.78713,
      "lng": 7.646975,
      "fuels": {
        "gazole": 1.009,
        "sp95": 1.009,
        "e10": 1.009
      }
    },
    {
      "id": "fc4f43dd-2ee2-48da-9c2e-5f6f734a83b6",
      "cp": "55566",
      "ville": "Bad Sobernheim",
      "adresse": "Monzinger Straße 102-104",
      "brand": "Aral",
      "lat": 49.787674,
      "lng": 7.639332,
      "fuels": {
        "gazole": 1.009,
        "sp95": 1.009,
        "e10": 1.009
      }
    },
    {
      "id": "b0204fb3-c666-4983-aed2-b851e36ca305",
      "cp": "54657",
      "ville": "Badem",
      "adresse": "Raiffeisenstr. 1",
      "brand": "Raiffeisen",
      "lat": 50.01312,
      "lng": 6.610849,
      "fuels": {
        "gazole": 1.009,
        "sp95": 1.009,
        "e10": 1.009
      }
    },
    {
      "id": "3907c992-e47e-4cb9-8589-043fb63c3d04",
      "cp": "55774",
      "ville": "Baumholder",
      "adresse": "Berschweilerstr. 9",
      "brand": "Esso",
      "lat": 49.611589,
      "lng": 7.333048,
      "fuels": {
        "gazole": 1.009,
        "sp95": 1.009,
        "e10": 1.009
      }
    },
    {
      "id": "3aeed500-8dda-4bd8-be55-d13e415e81b1",
      "cp": "55774",
      "ville": "Baumholder",
      "adresse": "In Der Schwärzgrub 20",
      "brand": "Aral",
      "lat": 49.60933,
      "lng": 7.328758,
      "fuels": {
        "gazole": 1.009,
        "sp95": 1.009,
        "e10": 1.009
      }
    },
    {
      "id": "5b42ad03-db60-4e49-a008-650d4df84854",
      "cp": "67259",
      "ville": "Beindersheim",
      "adresse": "Rudolf-Diesel-Str. 3",
      "brand": "Winkler 24h",
      "lat": 49.5577186185,
      "lng": 8.3270546005,
      "fuels": {
        "gazole": 1.009,
        "sp95": 1.009,
        "e10": 1.009
      }
    },
    {
      "id": "5228bcc8-c5ed-0990-e100-80009459e02c",
      "cp": "56170",
      "ville": "Bendorf",
      "adresse": "Adolph-Kolping-Str. 9",
      "brand": "Jet",
      "lat": 50.42659,
      "lng": 7.57018,
      "fuels": {
        "gazole": 1.009,
        "sp95": 1.009,
        "e10": 1.009
      }
    },
    {
      "id": "0a332404-e6f0-400b-8691-7dcb5ac32b91",
      "cp": "56170",
      "ville": "Bendorf",
      "adresse": "Hauptstraße 150",
      "brand": "q1",
      "lat": 50.4263,
      "lng": 7.57205,
      "fuels": {
        "gazole": 1.009,
        "sp95": 1.009,
        "e10": 1.009
      }
    },
    {
      "id": "e98fdcf6-bd0f-484b-b294-7ce7ca840e57",
      "cp": "56170",
      "ville": "Bendorf",
      "adresse": "Hauptstraße 170",
      "brand": "Aral",
      "lat": 50.42687,
      "lng": 7.571692,
      "fuels": {
        "gazole": 1.009,
        "sp95": 1.009,
        "e10": 1.009
      }
    },
    {
      "id": "4c30dc94-0b03-48a7-a785-757e62574626",
      "cp": "54538",
      "ville": "Bengel",
      "adresse": "Trierer Straße 34",
      "brand": "Ed",
      "lat": 50.015171,
      "lng": 7.060365,
      "fuels": {
        "gazole": 1.009,
        "sp95": 1.009,
        "e10": 1.009
      }
    },
    {
      "id": "2327eaed-c0f3-493b-8762-e7b96b953a0e",
      "cp": "54470",
      "ville": "Bernkastel-Kues",
      "adresse": "Bornwiese 1",
      "brand": "oil!",
      "lat": 49.9269,
      "lng": 7.06178,
      "fuels": {
        "gazole": 1.009,
        "sp95": 1.009,
        "e10": 1.009
      }
    },
    {
      "id": "0ae68f77-faea-4dc8-bdc7-5525185bd4e4",
      "cp": "55411",
      "ville": "Bingen",
      "adresse": "Gustav-Stresemann-Straße 2",
      "brand": "Aral",
      "lat": 49.92507,
      "lng": 7.93675,
      "fuels": {
        "gazole": 1.009,
        "sp95": 1.009,
        "e10": 1.009
      }
    },
    {
      "id": "eaabfae1-5c23-4195-b8aa-5d5572ceb112",
      "cp": "55411",
      "ville": "Bingen",
      "adresse": "Hitchinstraße 44",
      "brand": "Aral",
      "lat": 49.94846,
      "lng": 7.903118,
      "fuels": {
        "gazole": 1.009,
        "sp95": 1.009,
        "e10": 1.009
      }
    },
    {
      "id": "bf0fa2d3-cc68-4531-bad2-8973cbdce054",
      "cp": "55411",
      "ville": "Bingen",
      "adresse": "Koblenzer Str. 85",
      "brand": "Shell",
      "lat": 49.968399,
      "lng": 7.881721,
      "fuels": {
        "gazole": 1.009,
        "sp95": 1.009,
        "e10": 1.009
      }
    },
    {
      "id": "69f766eb-c497-491d-8a92-b99b799c94dc",
      "cp": "55411",
      "ville": "Bingen",
      "adresse": "Schulth.-Kollei-Str. 23",
      "brand": "Totalenergies",
      "lat": 49.950114,
      "lng": 7.903223,
      "fuels": {
        "gazole": 1.009,
        "sp95": 1.009,
        "e10": 1.009
      }
    },
    {
      "id": "9d791bf6-9df2-4197-9e07-9f8676ab1913",
      "cp": "55411",
      "ville": "Bingen Kempten",
      "adresse": "Mainzer Str. 234",
      "brand": "Shell",
      "lat": 49.968826,
      "lng": 7.93746,
      "fuels": {
        "gazole": 1.009,
        "sp95": 1.009,
        "e10": 1.009
      }
    },
    {
      "id": "b5346d7e-6911-4321-8cb6-a1a4e345f82a",
      "cp": "55765",
      "ville": "Birkenfeld",
      "adresse": "Am Zimmerbach 3",
      "brand": "Esso",
      "lat": 49.646751,
      "lng": 7.165744,
      "fuels": {
        "gazole": 1.009,
        "sp95": 1.009,
        "e10": 1.009
      }
    },
    {
      "id": "dc6b150f-9a37-48be-b42c-fb86e9b67767",
      "cp": "55765",
      "ville": "Birkenfeld",
      "adresse": "Friedrich-August-Str. 22",
      "brand": "Agip Eni",
      "lat": 49.64907,
      "lng": 7.16119,
      "fuels": {
        "gazole": 1.009,
        "sp95": 1.009,
        "e10": 1.009
      }
    },
    {
      "id": "4365ac38-8271-4b02-a6c6-9ee97fae1059",
      "cp": "55765",
      "ville": "Birkenfeld",
      "adresse": "Wasserschiederstr. 26",
      "brand": "",
      "lat": 49.64986,
      "lng": 7.17179,
      "fuels": {
        "gazole": 1.009,
        "sp95": 1.009,
        "e10": 1.009
      }
    },
    {
      "id": "7ba7865e-0f04-4c1b-a1c8-b2e06413a193",
      "cp": "67134",
      "ville": "Birkenheide",
      "adresse": "Mannheimer Str. 2",
      "brand": "Agip Eni",
      "lat": 49.47983,
      "lng": 8.26447,
      "fuels": {
        "gazole": 1.009,
        "sp95": 1.009,
        "e10": 1.009
      }
    },
    {
      "id": "9ef6c3ea-ea13-40f3-a238-58d5c2cbc28b",
      "cp": "54634",
      "ville": "Bitburg",
      "adresse": "Am Markt 1a",
      "brand": "Aral",
      "lat": 49.973064,
      "lng": 6.521433,
      "fuels": {
        "gazole": 1.009,
        "sp95": 1.009,
        "e10": 1.009
      }
    },
    {
      "id": "c5fe40d2-9ded-430a-b2fa-417c1a75b3ce",
      "cp": "54634",
      "ville": "Bitburg",
      "adresse": "Bahnhofstr. 30",
      "brand": "Raiffeisen",
      "lat": 49.96452,
      "lng": 6.525439,
      "fuels": {
        "gazole": 1.009,
        "sp95": 1.009,
        "e10": 1.009
      }
    },
    {
      "id": "ec056cff-405a-45ae-8029-3c3fc08cf8ab",
      "cp": "54634",
      "ville": "Bitburg",
      "adresse": "Kölner Straße 18",
      "brand": "Totalenergies",
      "lat": 49.978797,
      "lng": 6.523628,
      "fuels": {
        "gazole": 1.009,
        "sp95": 1.009,
        "e10": 1.009
      }
    },
    {
      "id": "fc7c9c43-bb74-4578-9407-b43edf28dcea",
      "cp": "54634",
      "ville": "Bitburg",
      "adresse": "Rittersdorfer Straße 32",
      "brand": "Ed",
      "lat": 49.980099,
      "lng": 6.519825,
      "fuels": {
        "gazole": 1.009,
        "sp95": 1.009,
        "e10": 1.009
      }
    },
    {
      "id": "bb19dbf7-962d-4425-8bf4-a9e295a06432",
      "cp": "54634",
      "ville": "Bitburg",
      "adresse": "Saarstraße 58 A",
      "brand": "Aral",
      "lat": 49.95592,
      "lng": 6.525196,
      "fuels": {
        "gazole": 1.009,
        "sp95": 1.009,
        "e10": 1.009
      }
    },
    {
      "id": "7ede2e16-13e1-4ebc-a515-80d1b306a224",
      "cp": "56865",
      "ville": "Blankenrath",
      "adresse": "Obere Heide",
      "brand": "Raiffeisen",
      "lat": 50.032475,
      "lng": 7.294418,
      "fuels": {
        "gazole": 1.009,
        "sp95": 1.009,
        "e10": 1.009
      }
    },
    {
      "id": "5df8f394-57ef-4796-b3d7-db04d97f56a4",
      "cp": "54608",
      "ville": "Bleialf",
      "adresse": "Auwer Straße 31",
      "brand": "Ed",
      "lat": 50.242432,
      "lng": 6.284526,
      "fuels": {
        "gazole": 1.009,
        "sp95": 1.009,
        "e10": 1.009
      }
    },
    {
      "id": "b7135418-b4cd-47ee-a59e-53f7803e85db",
      "cp": "54608",
      "ville": "Bleialf",
      "adresse": "Bahnhofstr. 47",
      "brand": "Raiffeisen",
      "lat": 50.23552,
      "lng": 6.27974,
      "fuels": {
        "gazole": 1.009,
        "sp95": 1.009,
        "e10": 1.009
      }
    },
    {
      "id": "8e04a261-815f-43f8-a5ba-20d12c5b3273",
      "cp": "67240",
      "ville": "Bobenheim-Roxheim",
      "adresse": "Südring 2",
      "brand": "Globus Sb Warenhaus",
      "lat": 49.58223,
      "lng": 8.35355,
      "fuels": {
        "gazole": 1.009,
        "sp95": 1.009,
        "e10": 1.009
      }
    },
    {
      "id": "d3b397af-5b06-47c7-b3a1-deb3f835ff7e",
      "cp": "67278",
      "ville": "Bockenheim",
      "adresse": "Weinstraße 90",
      "brand": "Aral",
      "lat": 49.608467,
      "lng": 8.181643,
      "fuels": {
        "gazole": 1.009,
        "sp95": 1.009,
        "e10": 1.009
      }
    },
    {
      "id": "0006d4f6-a88d-473e-a8b1-b1f49b35eec0",
      "cp": "56412",
      "ville": "Boden",
      "adresse": "Hauptstr. 2",
      "brand": "Shell",
      "lat": 50.47119,
      "lng": 7.855065,
      "fuels": {
        "gazole": 1.009,
        "sp95": 1.009,
        "e10": 1.009
      }
    },
    {
      "id": "005056ba-7cb6-1ed2-bceb-6a05bb68cd20",
      "cp": "55294",
      "ville": "Bodenheim",
      "adresse": "Mainzer Straße 91",
      "brand": "Orlen",
      "lat": 49.935502,
      "lng": 8.305241,
      "fuels": {
        "gazole": 1.009,
        "sp95": 1.009,
        "e10": 1.009
      }
    },
    {
      "id": "b48682b4-d344-4bb9-8890-a8504912119d",
      "cp": "67459",
      "ville": "Boehl-Iggelheim",
      "adresse": "Eisenbahnstr. 101",
      "brand": "Shell",
      "lat": 49.372737,
      "lng": 8.30803,
      "fuels": {
        "gazole": 1.009,
        "sp95": 1.009,
        "e10": 1.009
      }
    },
    {
      "id": "e1a15081-24d2-9107-e040-0b0a3dfe563c",
      "cp": "56154",
      "ville": "Boppard",
      "adresse": "Hunsrückhöhenstr. 9",
      "brand": "Hem",
      "lat": 50.21398055,
      "lng": 7.54953611,
      "fuels": {
        "gazole": 1.009,
        "sp95": 1.009,
        "e10": 1.009
      }
    },
    {
      "id": "84898cb8-66ce-4fd7-9ae6-098bb457b06f",
      "cp": "56154",
      "ville": "Boppard",
      "adresse": "Koblenzer Straße 237",
      "brand": "Aral",
      "lat": 50.23674,
      "lng": 7.577054,
      "fuels": {
        "gazole": 1.009,
        "sp95": 1.009,
        "e10": 1.009
      }
    },
    {
      "id": "195fc725-e30f-4d7f-8ea4-91d6fb75bca5",
      "cp": "56154",
      "ville": "Boppard/Bad Salzig",
      "adresse": "Unten In Der Aab",
      "brand": "Ed",
      "lat": 50.209576,
      "lng": 7.626215,
      "fuels": {
        "gazole": 1.009,
        "sp95": 1.009,
        "e10": 1.009
      }
    },
    {
      "id": "1ccc9514-46f7-4b54-ae76-493bd121bf75",
      "cp": "56332",
      "ville": "Brodenbach",
      "adresse": "Moselufer 37",
      "brand": "Raiffeisen Hunsrück",
      "lat": 50.224617,
      "lng": 7.437561,
      "fuels": {
        "gazole": 1.009,
        "sp95": 1.009,
        "e10": 1.009
      }
    },
    {
      "id": "9f696ac2-abc1-46a3-8e83-a3a55550498a",
      "cp": "56656",
      "ville": "Brohl-Lützing",
      "adresse": "An Der B 9",
      "brand": "Aral",
      "lat": 50.486286,
      "lng": 7.32906,
      "fuels": {
        "gazole": 1.009,
        "sp95": 1.009,
        "e10": 1.009
      }
    },
    {
      "id": "1b617317-d598-47ee-b826-c99d3d2015f6",
      "cp": "56814",
      "ville": "Bruttig-Fankel",
      "adresse": "l98",
      "brand": "Adams",
      "lat": 50.131888,
      "lng": 7.2298413,
      "fuels": {
        "gazole": 1.009,
        "sp95": 1.009,
        "e10": 1.009
      }
    },
    {
      "id": "aa786deb-5f71-41b1-bf6b-a42ce3cd3dfc",
      "cp": "56823",
      "ville": "Büchel",
      "adresse": "Hauptstraße 26",
      "brand": "Aral",
      "lat": 50.173923,
      "lng": 7.082313,
      "fuels": {
        "gazole": 1.009,
        "sp95": 1.009,
        "e10": 1.009
      }
    },
    {
      "id": "d2ad9533-b91f-4662-a289-f7d9026a0985",
      "cp": "55491",
      "ville": "Büchenbeuren",
      "adresse": "Im Schiffels 1",
      "brand": "Aral",
      "lat": 49.92726,
      "lng": 7.279584,
      "fuels": {
        "gazole": 1.009,
        "sp95": 1.009,
        "e10": 1.009
      }
    },
    {
      "id": "295f9fec-ace0-45df-bb3e-126db78d4317",
      "cp": "55257",
      "ville": "Budenheim",
      "adresse": "Binger Str. 74",
      "brand": "Esso",
      "lat": 50.019253,
      "lng": 8.169311,
      "fuels": {
        "gazole": 1.009,
        "sp95": 1.009,
        "e10": 1.009
      }
    },
    {
      "id": "fd77c866-a781-40ef-851b-85795a55ff97",
      "cp": "56659",
      "ville": "Burgbrohl",
      "adresse": "Brohltalstr. 21",
      "brand": "T",
      "lat": 50.457599,
      "lng": 7.28273,
      "fuels": {
        "gazole": 1.009,
        "sp95": 1.009,
        "e10": 1.009
      }
    },
    {
      "id": "53f1bb34-8123-4b7a-aa25-94b3a49d82d3",
      "cp": "67316",
      "ville": "Carlsberg",
      "adresse": "Linienstr. 62",
      "brand": "Esso",
      "lat": 49.5035,
      "lng": 8.0336,
      "fuels": {
        "gazole": 1.009,
        "sp95": 1.009,
        "e10": 1.009
      }
    },
    {
      "id": "b6101f8a-2b67-4eea-924e-6aea69a7f7e5",
      "cp": "56812",
      "ville": "Cochem",
      "adresse": "Moselstr. 23",
      "brand": "Shell",
      "lat": 50.151471,
      "lng": 7.167461,
      "fuels": {
        "gazole": 1.009,
        "sp95": 1.009,
        "e10": 1.009
      }
    },
    {
      "id": "6075e81b-4812-4772-9a41-a838b0a976ca",
      "cp": "56340",
      "ville": "Dachsenhausen",
      "adresse": "Rhein-Taunus-Straße 52",
      "brand": "Bell Oil",
      "lat": 50.25355,
      "lng": 7.733114,
      "fuels": {
        "gazole": 1.009,
        "sp95": 1.009,
        "e10": 1.009
      }
    },
    {
      "id": "e188eed1-d31e-43fd-9eee-4827555e5d70",
      "cp": "67125",
      "ville": "Dannstadt",
      "adresse": "Bab a61",
      "brand": "Total",
      "lat": 49.41171,
      "lng": 8.34012,
      "fuels": {
        "gazole": 1.009,
        "sp95": 1.009,
        "e10": 1.009
      }
    },
    {
      "id": "06ab3c7d-0bb7-4bc7-9711-7c02bc2672dd",
      "cp": "67125",
      "ville": "Dannstadt-Schauernheim",
      "adresse": "Am Rathausplatz 22",
      "brand": "Aral",
      "lat": 49.431866,
      "lng": 8.309247,
      "fuels": {
        "gazole": 1.009,
        "sp95": 1.009,
        "e10": 1.009
      }
    },
    {
      "id": "b54b2cc8-c6f5-4b4e-8bde-0b89771c13c7",
      "cp": "54550",
      "ville": "Daun",
      "adresse": "Bonner Straße 16",
      "brand": "Aral",
      "lat": 50.203224,
      "lng": 6.826713,
      "fuels": {
        "gazole": 1.009,
        "sp95": 1.009,
        "e10": 1.009
      }
    },
    {
      "id": "23e756a1-1576-4ea2-a3f7-53b02a82c7ad",
      "cp": "54550",
      "ville": "Daun",
      "adresse": "Mehrener Straße 37",
      "brand": "Ed",
      "lat": 50.194439,
      "lng": 6.839912,
      "fuels": {
        "gazole": 1.009,
        "sp95": 1.009,
        "e10": 1.009
      }
    },
    {
      "id": "3d8698ab-1c65-4b5e-9db5-b9ae8395052f",
      "cp": "54550",
      "ville": "Daun-Pützborn",
      "adresse": "Marderweg 2",
      "brand": "Roth- Energie",
      "lat": 50.190491,
      "lng": 6.801564,
      "fuels": {
        "gazole": 1.009,
        "sp95": 1.009,
        "e10": 1.009
      }
    },
    {
      "id": "6e2aa3c2-834d-45d3-b71d-e251deb18757",
      "cp": "67146",
      "ville": "Deidesheim",
      "adresse": "Niederkircher Str. 1",
      "brand": "Esso",
      "lat": 49.4104,
      "lng": 8.1875,
      "fuels": {
        "gazole": 1.009,
        "sp95": 1.009,
        "e10": 1.009
      }
    },
    {
      "id": "27b1364c-3cce-4dad-af4d-ff89796e7744",
      "cp": "56307",
      "ville": "Dernbach",
      "adresse": "A 3",
      "brand": "Aral",
      "lat": 50.546818,
      "lng": 7.586309,
      "fuels": {
        "gazole": 1.009,
        "sp95": 1.009,
        "e10": 1.009
      }
    },
    {
      "id": "005056a9-4231-1edc-bb91-59ce32f4c5d9",
      "cp": "56332",
      "ville": "Dieblich",
      "adresse": "Mosel Ost",
      "brand": "Agip Eni",
      "lat": 50.266369,
      "lng": 7.512642,
      "fuels": {
        "gazole": 1.009,
        "sp95": 1.009,
        "e10": 1.009
      }
    },
    {
      "id": "005056a9-4231-1edc-bb91-6944a880e60c",
      "cp": "56332",
      "ville": "Dieblich",
      "adresse": "Mosel West",
      "brand": "Agip Eni",
      "lat": 50.267589,
      "lng": 7.509838,
      "fuels": {
        "gazole": 1.009,
        "sp95": 1.009,
        "e10": 1.009
      }
    },
    {
      "id": "a6277810-d040-4db0-9e5c-842b1ab01671",
      "cp": "56269",
      "ville": "Dierdorf",
      "adresse": "An Der B 413",
      "brand": "Bell Oil",
      "lat": 50.549335,
      "lng": 7.656307,
      "fuels": {
        "gazole": 1.009,
        "sp95": 1.009,
        "e10": 1.009
      }
    },
    {
      "id": "6551baf8-ed83-4616-aeb4-52f54fa52d1c",
      "cp": "56269",
      "ville": "Dierdorf",
      "adresse": "Neuwieder Straße 38-40",
      "brand": "Aral",
      "lat": 50.54755,
      "lng": 7.647419,
      "fuels": {
        "gazole": 1.009,
        "sp95": 1.009,
        "e10": 1.009
      }
    },
    {
      "id": "fb45f7b0-c260-427e-931f-0c935f92abbe",
      "cp": "67246",
      "ville": "Dirmstein",
      "adresse": "Heuchelheimer Str. 2",
      "brand": "Esso",
      "lat": 49.565089,
      "lng": 8.259125,
      "fuels": {
        "gazole": 1.009,
        "sp95": 1.009,
        "e10": 1.009
      }
    },
    {
      "id": "c06d5556-3f47-4d6d-877d-d628b72ee0dd",
      "cp": "56281",
      "ville": "Doerth",
      "adresse": "Trinkbornstr. 10",
      "brand": "Shell",
      "lat": 50.159572,
      "lng": 7.589613,
      "fuels": {
        "gazole": 1.009,
        "sp95": 1.009,
        "e10": 1.009
      }
    },
    {
      "id": "3aa00d49-f1ab-4e67-a8ec-98189ff35dd4",
      "cp": "67585",
      "ville": "Dorn-Dürkheim",
      "adresse": "Jahnstraße 2",
      "brand": "Avia Xpress",
      "lat": 49.76803,
      "lng": 8.265378,
      "fuels": {
        "gazole": 1.009,
        "sp95": 1.009,
        "e10": 1.009
      }
    },
    {
      "id": "3b8acbe0-edff-4d94-a646-eafd2efb755e",
      "cp": "56370",
      "ville": "Dörsdorf",
      "adresse": "Hauptstraße 3",
      "brand": "Bft-Tankstelle",
      "lat": 50.24742198587,
      "lng": 8.01080455552,
      "fuels": {
        "gazole": 1.009,
        "sp95": 1.009,
        "e10": 1.009
      }
    },
    {
      "id": "ce819da5-6a68-4eb6-ad42-64a89a56ba6a",
      "cp": "67373",
      "ville": "Dudenhofen",
      "adresse": "Speyerer Str. 23",
      "brand": "oil!",
      "lat": 49.3163,
      "lng": 8.39657,
      "fuels": {
        "gazole": 1.009,
        "sp95": 1.009,
        "e10": 1.009
      }
    },
    {
      "id": "66937573-c945-4d52-8aba-08902141843c",
      "cp": "67440",
      "ville": "Edenkoben",
      "adresse": "Industriering 9",
      "brand": "Schuster & Sohn Kg",
      "lat": 49.28339,
      "lng": 8.15066,
      "fuels": {
        "gazole": 1.009,
        "sp95": 1.009,
        "e10": 1.009
      }
    },
    {
      "id": "e991a489-6456-38af-e040-0b0a3dfe7c4f",
      "cp": "67480",
      "ville": "Edenkoben",
      "adresse": "Staatsstr. 2",
      "brand": "Hem",
      "lat": 49.285415,
      "lng": 8.140352,
      "fuels": {
        "gazole": 1.009,
        "sp95": 1.009,
        "e10": 1.009
      }
    },
    {
      "id": "ed2cd661-be8d-4fcb-b012-82d6672efd2d",
      "cp": "67480",
      "ville": "Edenkoben",
      "adresse": "Staatsstraße 19",
      "brand": "oil!",
      "lat": 49.2842,
      "lng": 8.14074,
      "fuels": {
        "gazole": 1.009,
        "sp95": 1.009,
        "e10": 1.009
      }
    },
    {
      "id": "3ab08783-d26f-4f4e-9f48-f39ed45a33e6",
      "cp": "67483",
      "ville": "Edesheim",
      "adresse": "a65 Pfaelzer Weinstrasse Ost a65",
      "brand": "Shell",
      "lat": 49.269754,
      "lng": 8.153408,
      "fuels": {
        "gazole": 1.009,
        "sp95": 1.009,
        "e10": 1.009
      }
    },
    {
      "id": "ff719585-52e4-40f3-a217-2e1b5a5c5633",
      "cp": "67483",
      "ville": "Edesheim",
      "adresse": "a65 Pfaelzer Weinstrasse West",
      "brand": "Shell",
      "lat": 49.269738,
      "lng": 8.15341,
      "fuels": {
        "gazole": 1.009,
        "sp95": 1.009,
        "e10": 1.009
      }
    },
    {
      "id": "9e222667-4909-4b69-a73e-46d12660e7ff",
      "cp": "67483",
      "ville": "Edesheim",
      "adresse": "Staatsstr. 47a",
      "brand": "Totalenergies",
      "lat": 49.26583,
      "lng": 8.133551,
      "fuels": {
        "gazole": 1.009,
        "sp95": 1.009,
        "e10": 1.009
      }
    },
    {
      "id": "9da1b121-a633-47f4-2607-79ca09cf7563",
      "cp": "67483",
      "ville": "Edesheim",
      "adresse": "Staatsstraße 2a",
      "brand": "Frühmesser Gmbh",
      "lat": 49.259633,
      "lng": 8.132767,
      "fuels": {
        "gazole": 1.009,
        "sp95": 1.009,
        "e10": 1.009
      }
    },
    {
      "id": "7f758c6d-e3e8-4350-8ec9-a0f1802e1909",
      "cp": "56814",
      "ville": "Ediger-Eller",
      "adresse": "Moselweinstraße 34",
      "brand": "Autohaus Andre",
      "lat": 50.096588,
      "lng": 7.153206,
      "fuels": {
        "gazole": 1.009,
        "sp95": 1.009,
        "e10": 1.009
      }
    },
    {
      "id": "0c94d112-d3d4-4a98-a20d-138f7c5e1064",
      "cp": "67575",
      "ville": "Eich",
      "adresse": "Osthofener Str. 99",
      "brand": "Ts Arnt",
      "lat": 49.74484,
      "lng": 8.38747,
      "fuels": {
        "gazole": 1.009,
        "sp95": 1.009,
        "e10": 1.009
      }
    },
    {
      "id": "9aab1ae8-c032-4834-bee4-bb0227ec4e3f",
      "cp": "67304",
      "ville": "Eisenberg",
      "adresse": "Alfred-Nobel-Str. 2a",
      "brand": "Shell",
      "lat": 49.563581,
      "lng": 8.081615,
      "fuels": {
        "gazole": 1.009,
        "sp95": 1.009,
        "e10": 1.009
      }
    },
    {
      "id": "ce241717-f30b-1ee7-b6c0-f5f67ab74d5d",
      "cp": "67304",
      "ville": "Eisenberg",
      "adresse": "Am Gielbrunnen 43",
      "brand": "Jet",
      "lat": 49.55801,
      "lng": 8.08454,
      "fuels": {
        "gazole": 1.009,
        "sp95": 1.009,
        "e10": 1.009
      }
    },
    {
      "id": "82fe4c16-8dfa-4b0d-a468-ef86e112dccb",
      "cp": "67304",
      "ville": "Eisenberg",
      "adresse": "Rosenthaler Str. 2",
      "brand": "Totalenergies",
      "lat": 49.564165,
      "lng": 8.06227,
      "fuels": {
        "gazole": 1.009,
        "sp95": 1.009,
        "e10": 1.009
      }
    },
    {
      "id": "d98c2dd6-9fb4-4d3c-9cbf-1bddd2aee141",
      "cp": "55765",
      "ville": "Ellweiler",
      "adresse": "Im Steinautal 2",
      "brand": "Aral",
      "lat": 49.617226,
      "lng": 7.158907,
      "fuels": {
        "gazole": 1.009,
        "sp95": 1.009,
        "e10": 1.009
      }
    },
    {
      "id": "5795cea2-9db9-42c6-a75a-d3c697d54b37",
      "cp": "67471",
      "ville": "Elmstein",
      "adresse": "Talstr. 16",
      "brand": "Classic",
      "lat": 49.3481,
      "lng": 7.94848,
      "fuels": {
        "gazole": 1.009,
        "sp95": 1.009,
        "e10": 1.009
      }
    },
    {
      "id": "32e316f1-760b-4d3a-8c1d-7faf4b418bf8",
      "cp": "56281",
      "ville": "Emmelshausen",
      "adresse": "Hunsrückhöhenstraße 2b",
      "brand": "Raiffeisen",
      "lat": 50.158,
      "lng": 7.56109,
      "fuels": {
        "gazole": 1.009,
        "sp95": 1.009,
        "e10": 1.009
      }
    },
    {
      "id": "6eb4966d-d214-43d8-933f-50b58aed670d",
      "cp": "56281",
      "ville": "Emmelshausen",
      "adresse": "Hunsrückhöhenstraße 7",
      "brand": "Ed",
      "lat": 50.158058,
      "lng": 7.560868,
      "fuels": {
        "gazole": 1.009,
        "sp95": 1.009,
        "e10": 1.009
      }
    },
    {
      "id": "f5552423-47e5-4290-bce2-5625bb6c8a69",
      "cp": "67677",
      "ville": "Enkenbach-Alsenborn",
      "adresse": "Donnersbergstr. 13",
      "brand": "Esso",
      "lat": 49.489321,
      "lng": 7.897673,
      "fuels": {
        "gazole": 1.009,
        "sp95": 1.009,
        "e10": 1.009
      }
    },
    {
      "id": "a60c167d-7da7-4e44-8462-937c05fa14e3",
      "cp": "67677",
      "ville": "Enkenbach-Alsenborn",
      "adresse": "Haselheckerstraße",
      "brand": "Schuster & Sohn Kg",
      "lat": 49.4950523,
      "lng": 7.888988,
      "fuels": {
        "gazole": 1.009,
        "sp95": 1.009,
        "e10": 1.009
      }
    },
    {
      "id": "b096f630-650f-4bbf-887c-00fca46567e9",
      "cp": "67677",
      "ville": "Enkenbach-Alsenborn",
      "adresse": "Hochspeyerer-Straße 53",
      "brand": "Aral",
      "lat": 49.483673,
      "lng": 7.900407,
      "fuels": {
        "gazole": 1.009,
        "sp95": 1.009,
        "e10": 1.009
      }
    },
    {
      "id": "a207fd61-42e9-4c0f-bf60-78a3b150ba64",
      "cp": "56729",
      "ville": "Ettringen",
      "adresse": "Mayener Straße 8",
      "brand": "Tankstelle",
      "lat": 50.352,
      "lng": 7.22237,
      "fuels": {
        "gazole": 1.009,
        "sp95": 1.009,
        "e10": 1.009
      }
    },
    {
      "id": "ab32dfab-97b9-4f5a-9ec6-8a1f565f1d7b",
      "cp": "56814",
      "ville": "Faid",
      "adresse": "Vor Den Birken 2",
      "brand": "Ed",
      "lat": 50.143434,
      "lng": 7.125421,
      "fuels": {
        "gazole": 1.009,
        "sp95": 1.009,
        "e10": 1.009
      }
    },
    {
      "id": "c7f72e44-ee72-4885-b8ae-879448f834b6",
      "cp": "67693",
      "ville": "Fischbach",
      "adresse": "Enkenbacher Str. 7",
      "brand": "Freie Tankstelle",
      "lat": 49.4527,
      "lng": 7.91526,
      "fuels": {
        "gazole": 1.009,
        "sp95": 1.009,
        "e10": 1.009
      }
    },
    {
      "id": "52876f93-0faf-41b8-9542-2471bd02be3b",
      "cp": "67592",
      "ville": "Flörsheim-Dalsheim",
      "adresse": "Mölsheimer Strasse 28",
      "brand": "Raiffeisen Tankstelle",
      "lat": 49.651,
      "lng": 8.20861,
      "fuels": {
        "gazole": 1.009,
        "sp95": 1.009,
        "e10": 1.009
      }
    },
    {
      "id": "00060562-0001-4444-8888-acdc00000001",
      "cp": "67227",
      "ville": "Frankenthal",
      "adresse": "Carl-Benz Str. 28",
      "brand": "",
      "lat": 49.543491363525,
      "lng": 8.3367385864258,
      "fuels": {
        "gazole": 1.009,
        "sp95": 1.009,
        "e10": 1.009
      }
    },
    {
      "id": "7c0294a0-0268-4b4f-a5f4-6a2129a9116a",
      "cp": "67227",
      "ville": "Frankenthal",
      "adresse": "Foltzring 38-40",
      "brand": "Totalenergies",
      "lat": 49.537769,
      "lng": 8.359031,
      "fuels": {
        "gazole": 1.009,
        "sp95": 1.009,
        "e10": 1.009
      }
    },
    {
      "id": "9c91b113-fd5d-4b76-910e-9d8e87aca8e3",
      "cp": "67227",
      "ville": "Frankenthal",
      "adresse": "Industriestr. 22",
      "brand": "Totalenergies",
      "lat": 49.551535,
      "lng": 8.348149,
      "fuels": {
        "gazole": 1.009,
        "sp95": 1.009,
        "e10": 1.009
      }
    },
    {
      "id": "51d4b598-a095-1aa0-e100-80009459e03a",
      "cp": "67227",
      "ville": "Frankenthal",
      "adresse": "Mahlastr. 89",
      "brand": "Jet",
      "lat": 49.52176,
      "lng": 8.35498,
      "fuels": {
        "gazole": 1.009,
        "sp95": 1.009,
        "e10": 1.009
      }
    },
    {
      "id": "b344c82c-b7aa-4afa-8d47-af9219038847",
      "cp": "67227",
      "ville": "Frankenthal",
      "adresse": "Mahlastraße 37",
      "brand": "Aral",
      "lat": 49.52605,
      "lng": 8.354932,
      "fuels": {
        "gazole": 1.009,
        "sp95": 1.009,
        "e10": 1.009
      }
    },
    {
      "id": "2d449fb7-b190-4fd4-ac0b-12ea39309f63",
      "cp": "67227",
      "ville": "Frankenthal",
      "adresse": "Wormser Str. 116",
      "brand": "Esso",
      "lat": 49.545442,
      "lng": 8.353803,
      "fuels": {
        "gazole": 1.009,
        "sp95": 1.009,
        "e10": 1.009
      }
    },
    {
      "id": "7999da6c-1390-4dfa-b260-05f526412fb3",
      "cp": "67227",
      "ville": "Frankenthal",
      "adresse": "Wormser Str. 121",
      "brand": "Shell",
      "lat": 49.550742,
      "lng": 8.352982,
      "fuels": {
        "gazole": 1.009,
        "sp95": 1.009,
        "e10": 1.009
      }
    },
    {
      "id": "a75de68d-c9a6-435a-b705-9184c1eb56bb",
      "cp": "67227",
      "ville": "Frankenthal",
      "adresse": "Wormser Straße 128",
      "brand": "Hem",
      "lat": 49.548357,
      "lng": 8.353794,
      "fuels": {
        "gazole": 1.009,
        "sp95": 1.009,
        "e10": 1.009
      }
    },
    {
      "id": "ed5786ec-6ae6-4c5e-b28e-a9682cbcdf23",
      "cp": "67251",
      "ville": "Freinsheim",
      "adresse": "Erpolzheimer Str. 23",
      "brand": "Esso",
      "lat": 49.5073,
      "lng": 8.2175,
      "fuels": {
        "gazole": 1.009,
        "sp95": 1.009,
        "e10": 1.009
      }
    },
    {
      "id": "2b34d23b-cef1-4fe2-87d5-3070c819bb8b",
      "cp": "55435",
      "ville": "Gau-Algesheim",
      "adresse": "Rheinstr. 53",
      "brand": "Shell",
      "lat": 49.971546,
      "lng": 8.022571,
      "fuels": {
        "gazole": 1.009,
        "sp95": 1.009,
        "e10": 1.009
      }
    },
    {
      "id": "9be75d73-e85c-45e8-a598-e26d52407e67",
      "cp": "55435",
      "ville": "Gau-Algesheim",
      "adresse": "Rheinstraße 13",
      "brand": "Hem",
      "lat": 49.964632,
      "lng": 8.016561,
      "fuels": {
        "gazole": 1.009,
        "sp95": 1.009,
        "e10": 1.009
      }
    },
    {
      "id": "e3972506-6546-4ba8-a597-e99187ae9c97",
      "cp": "55435",
      "ville": "Gau-Algesheim",
      "adresse": "Rheinstraße 18",
      "brand": "Aral",
      "lat": 49.964874,
      "lng": 8.017713,
      "fuels": {
        "gazole": 1.009,
        "sp95": 1.009,
        "e10": 1.009
      }
    },
    {
      "id": "4ce424b4-3275-4954-9951-c313e8f34902",
      "cp": "55599",
      "ville": "Gau-Bickelheim",
      "adresse": "Wöllsteiner Straße 11",
      "brand": "Aral",
      "lat": 49.834915,
      "lng": 8.015878,
      "fuels": {
        "gazole": 1.009,
        "sp95": 1.009,
        "e10": 1.009
      }
    },
    {
      "id": "779f3806-f49e-456a-9c0f-27abc74568a0",
      "cp": "67822",
      "ville": "Gaugrehweiler",
      "adresse": "Hauptstraße 42",
      "brand": "Ed",
      "lat": 49.7057,
      "lng": 7.86206,
      "fuels": {
        "gazole": 1.009,
        "sp95": 1.009,
        "e10": 1.009
      }
    },
    {
      "id": "197a2371-2190-40c8-b899-67136a2cd51b",
      "cp": "67724",
      "ville": "Gehrweiler",
      "adresse": "Hauptstr. 8",
      "brand": "Esso",
      "lat": 49.574,
      "lng": 7.775,
      "fuels": {
        "gazole": 1.009,
        "sp95": 1.009,
        "e10": 1.009
      }
    },
    {
      "id": "6e3ee652-f339-4715-ae5b-725b3b5aca53",
      "cp": "55490",
      "ville": "Gemünden",
      "adresse": "Hauptstraße 57",
      "brand": "oil!",
      "lat": 49.8958,
      "lng": 7.47998,
      "fuels": {
        "gazole": 1.009,
        "sp95": 1.009,
        "e10": 1.009
      }
    },
    {
      "id": "db2f475f-8ab8-439d-88bf-38ed5edf0c93",
      "cp": "55490",
      "ville": "Gemünden",
      "adresse": "Simmertalstraße 5",
      "brand": "Ed",
      "lat": 49.892933,
      "lng": 7.474112,
      "fuels": {
        "gazole": 1.009,
        "sp95": 1.009,
        "e10": 1.009
      }
    },
    {
      "id": "28d2efc8-a5e6-47d6-9d37-230fbcefcf70",
      "cp": "55457",
      "ville": "Gensingen",
      "adresse": "Am Kieselberg 36",
      "brand": "Globus Sb Warenhaus",
      "lat": 49.900784,
      "lng": 7.922154,
      "fuels": {
        "gazole": 1.009,
        "sp95": 1.009,
        "e10": 1.009
      }
    },
    {
      "id": "38e61a6e-83c2-4c9b-94fe-794db37db591",
      "cp": "55457",
      "ville": "Gensingen",
      "adresse": "Am Kieselberg 36",
      "brand": "Globus Sb Warenhaus",
      "lat": 49.900784,
      "lng": 7.922154,
      "fuels": {
        "gazole": 1.009,
        "sp95": 1.009,
        "e10": 1.009
      }
    },
    {
      "id": "3eeb3737-66a7-48f3-830e-3ce43e402fd9",
      "cp": "54568",
      "ville": "Gerolstein",
      "adresse": "Sarresdorfer Straße 91",
      "brand": "Ed",
      "lat": 50.224063,
      "lng": 6.643382,
      "fuels": {
        "gazole": 1.009,
        "sp95": 1.009,
        "e10": 1.009
      }
    },
    {
      "id": "3e9e8209-1cbb-43c1-86c5-fce1f4daad37",
      "cp": "54558",
      "ville": "Gillenfeld",
      "adresse": "Holzmaarstr. 36",
      "brand": "Bft",
      "lat": 50.12574,
      "lng": 6.90117,
      "fuels": {
        "gazole": 1.009,
        "sp95": 1.009,
        "e10": 1.009
      }
    },
    {
      "id": "bb6d6a2c-83a2-4a77-a498-ca1accb6dfc2",
      "cp": "67578",
      "ville": "Gimbsheim",
      "adresse": "Alsheimer Straße 10",
      "brand": "Winkler 24h",
      "lat": 49.77761098185,
      "lng": 8.37129511856,
      "fuels": {
        "gazole": 1.009,
        "sp95": 1.009,
        "e10": 1.009
      }
    },
    {
      "id": "20947e99-074e-4fb3-9e16-3813330beaac",
      "cp": "56412",
      "ville": "Goergeshausen",
      "adresse": "In Der Neuwiese 1",
      "brand": "Shell",
      "lat": 50.410751,
      "lng": 7.947619,
      "fuels": {
        "gazole": 1.009,
        "sp95": 1.009,
        "e10": 1.009
      }
    },
    {
      "id": "d3ccc203-1935-47f6-88f6-7c20494f04a9",
      "cp": "55624",
      "ville": "Gösenroth",
      "adresse": "Hauptstraße 25",
      "brand": "Raiffeisen",
      "lat": 49.89081,
      "lng": 7.323446,
      "fuels": {
        "gazole": 1.009,
        "sp95": 1.009,
        "e10": 1.009
      }
    },
    {
      "id": "ffe9e5f3-1451-4af4-ab59-fdfbf4b9b757",
      "cp": "54534",
      "ville": "Großlittgen",
      "adresse": "Himmeroder Str. 46",
      "brand": "Bft",
      "lat": 50.023621,
      "lng": 6.789381,
      "fuels": {
        "gazole": 1.009,
        "sp95": 1.009,
        "e10": 1.009
      }
    },
    {
      "id": "f274a0b6-81a6-4fe2-99f8-ed61c36f67e7",
      "cp": "67269",
      "ville": "Gruenstadt",
      "adresse": "Kirchheimer Str 58",
      "brand": "Shell",
      "lat": 49.559209,
      "lng": 8.16964,
      "fuels": {
        "gazole": 1.009,
        "sp95": 1.009,
        "e10": 1.009
      }
    },
    {
      "id": "c50bdb16-49e8-4e9a-bf1c-ae44f562dd5e",
      "cp": "67269",
      "ville": "Gruenstadt",
      "adresse": "Leininger Str. 39-41",
      "brand": "Totalenergies",
      "lat": 49.546928,
      "lng": 8.159311,
      "fuels": {
        "gazole": 1.009,
        "sp95": 1.009,
        "e10": 1.009
      }
    },
    {
      "id": "ba10c89e-d2f8-46d9-8ec5-6060bc32e89a",
      "cp": "67269",
      "ville": "Grünstadt",
      "adresse": "Daimlerstr. 23",
      "brand": "Globus Sb Warenhaus",
      "lat": 49.55763,
      "lng": 8.18225,
      "fuels": {
        "gazole": 1.009,
        "sp95": 1.009,
        "e10": 1.009
      }
    },
    {
      "id": "bf5714ae-3ec6-460d-95bb-18f6e4aba3e6",
      "cp": "67269",
      "ville": "Grünstadt",
      "adresse": "Kirchheimer Straße 45 A",
      "brand": "oil!",
      "lat": 49.56015,
      "lng": 8.16946,
      "fuels": {
        "gazole": 1.009,
        "sp95": 1.009,
        "e10": 1.009
      }
    },
    {
      "id": "e707bd23-1806-420a-9909-b14c1e221775",
      "cp": "67269",
      "ville": "Grünstadt",
      "adresse": "Kirchheimer Straße 51-53",
      "brand": "Aral",
      "lat": 49.559288,
      "lng": 8.170279,
      "fuels": {
        "gazole": 1.009,
        "sp95": 1.009,
        "e10": 1.009
      }
    },
    {
      "id": "04c8b4a9-0887-41a6-99fa-3572891d7c24",
      "cp": "67598",
      "ville": "Gundersheim",
      "adresse": "Donnersberger Straße 23",
      "brand": "Bft",
      "lat": 49.701138,
      "lng": 8.193271,
      "fuels": {
        "gazole": 1.009,
        "sp95": 1.009,
        "e10": 1.009
      }
    },
    {
      "id": "1cdc5664-263c-490d-b37c-6e00e8863cea",
      "cp": "67583",
      "ville": "Guntersblum",
      "adresse": "Hauptstr. 86",
      "brand": "Shell",
      "lat": 49.800507,
      "lng": 8.343961,
      "fuels": {
        "gazole": 1.009,
        "sp95": 1.009,
        "e10": 1.009
      }
    },
    {
      "id": "d3c50c69-d638-4b60-b7ad-e60eeba673bb",
      "cp": "56283",
      "ville": "Halsenbach",
      "adresse": "Industriestraße",
      "brand": "Raiffeisen Hunsrück",
      "lat": 50.166,
      "lng": 7.564,
      "fuels": {
        "gazole": 1.009,
        "sp95": 1.009,
        "e10": 1.009
      }
    },
    {
      "id": "ce241717-57a4-1eda-b8cb-dff4f73a090a",
      "cp": "67454",
      "ville": "Hassloch",
      "adresse": "Adam-Stegerwald-Str. 1 A",
      "brand": "Jet",
      "lat": 49.34978,
      "lng": 8.2472,
      "fuels": {
        "gazole": 1.009,
        "sp95": 1.009,
        "e10": 1.009
      }
    },
    {
      "id": "9462058a-4b55-4e8c-8ace-b70556a13332",
      "cp": "67454",
      "ville": "Hassloch",
      "adresse": "Richard-Sang-Str. 1",
      "brand": "Shell",
      "lat": 49.378683,
      "lng": 8.251625,
      "fuels": {
        "gazole": 1.009,
        "sp95": 1.009,
        "e10": 1.009
      }
    },
    {
      "id": "e935427e-bd37-4daf-979c-b4fe2d112981",
      "cp": "67454",
      "ville": "Hassloch",
      "adresse": "Schubertstr. 24",
      "brand": "Esso",
      "lat": 49.355641,
      "lng": 8.256116,
      "fuels": {
        "gazole": 1.009,
        "sp95": 1.009,
        "e10": 1.009
      }
    },
    {
      "id": "b01f066b-9b21-45c6-a687-00f5fb1a7463",
      "cp": "67454",
      "ville": "Haßloch",
      "adresse": "Lindenstr. 15",
      "brand": "Esso",
      "lat": 49.3557,
      "lng": 8.2609,
      "fuels": {
        "gazole": 1.009,
        "sp95": 1.009,
        "e10": 1.009
      }
    },
    {
      "id": "4b3c04a2-dc5a-44b9-ab23-dfb9072e115c",
      "cp": "67454",
      "ville": "Haßloch",
      "adresse": "Rudolf-Diesel Straße 4",
      "brand": "Schuster & Sohn Kg",
      "lat": 49.37361,
      "lng": 8.256667,
      "fuels": {
        "gazole": 1.009,
        "sp95": 1.009,
        "e10": 1.009
      }
    },
    {
      "id": "e941c3e6-f95a-405a-84c7-f510a4dc48b6",
      "cp": "55262",
      "ville": "Heidesheim",
      "adresse": "Budenheimer Weg 69",
      "brand": "winkler24h",
      "lat": 50.00166472,
      "lng": 8.129261138,
      "fuels": {
        "gazole": 1.009,
        "sp95": 1.009,
        "e10": 1.009
      }
    },
    {
      "id": "005056a9-4231-1edc-bb91-1e8c4d682563",
      "cp": "55262",
      "ville": "Heidesheim",
      "adresse": "Heidenfahrt Nord",
      "brand": "Agip Eni",
      "lat": 50.002442,
      "lng": 8.109398,
      "fuels": {
        "gazole": 1.009,
        "sp95": 1.009,
        "e10": 1.009
      }
    },
    {
      "id": "6639e7fd-c6e9-48c4-8593-d0bee954465d",
      "cp": "54518",
      "ville": "Heidweiler",
      "adresse": "Wittlicher Straße 26",
      "brand": "Ed",
      "lat": 49.912003,
      "lng": 6.748188,
      "fuels": {
        "gazole": 1.009,
        "sp95": 1.009,
        "e10": 1.009
      }
    },
    {
      "id": "005056a9-4231-1edd-999c-6a64ec8883dc",
      "cp": "56412",
      "ville": "Heiligenroth",
      "adresse": "Heilgenroth - a3",
      "brand": "Agip Eni",
      "lat": 50.454275,
      "lng": 7.866716,
      "fuels": {
        "gazole": 1.009,
        "sp95": 1.009,
        "e10": 1.009
      }
    },
    {
      "id": "7fe75e19-f4d3-4c3b-a697-06d26e435f67",
      "cp": "56412",
      "ville": "Heiligenroth",
      "adresse": "Industriestr. 2",
      "brand": "Totalenergies Truckstop",
      "lat": 50.451513,
      "lng": 7.848464,
      "fuels": {
        "gazole": 1.009,
        "sp95": 1.009,
        "e10": 1.009
      }
    },
    {
      "id": "2fe7ce0d-3c72-46a2-bec5-81b92d6faeb5",
      "cp": "56412",
      "ville": "Heiligenroth",
      "adresse": "Industriestr. 26",
      "brand": "Supermarkt",
      "lat": 50.449519,
      "lng": 7.852528,
      "fuels": {
        "gazole": 1.009,
        "sp95": 1.009,
        "e10": 1.009
      }
    },
    {
      "id": "d45e4382-46e5-40ec-a0bf-3d6572339052",
      "cp": "54662",
      "ville": "Herforst",
      "adresse": "Lindenstraße 1",
      "brand": "Totalenergies",
      "lat": 49.946586,
      "lng": 6.69345,
      "fuels": {
        "gazole": 1.009,
        "sp95": 1.009,
        "e10": 1.009
      }
    },
    {
      "id": "b908b74f-3efe-49d3-8ab5-5a0ce8bcf259",
      "cp": "54411",
      "ville": "Hermeskeil",
      "adresse": "Saarstraße 91",
      "brand": "Ed",
      "lat": 49.648636,
      "lng": 6.946082,
      "fuels": {
        "gazole": 1.009,
        "sp95": 1.009,
        "e10": 1.009
      }
    },
    {
      "id": "39411d49-94ba-4c72-9016-1ef3ee3e1e2c",
      "cp": "54411",
      "ville": "Hermeskeil",
      "adresse": "Trierer Str. 148",
      "brand": "Esso",
      "lat": 49.660812,
      "lng": 6.927781,
      "fuels": {
        "gazole": 1.009,
        "sp95": 1.009,
        "e10": 1.009
      }
    },
    {
      "id": "ed7a4e5f-9d37-4743-b504-be65dbd4c7b5",
      "cp": "54411",
      "ville": "Hermeskeil",
      "adresse": "Trierer Str. 94",
      "brand": "",
      "lat": 49.657056,
      "lng": 6.938125,
      "fuels": {
        "gazole": 1.009,
        "sp95": 1.009,
        "e10": 1.009
      }
    },
    {
      "id": "8e279381-7ec1-4130-a12b-465bea74037e",
      "cp": "54411",
      "ville": "Hermeskeil",
      "adresse": "Trierer Straße 97",
      "brand": "Aral",
      "lat": 49.657722,
      "lng": 6.933154,
      "fuels": {
        "gazole": 1.009,
        "sp95": 1.009,
        "e10": 1.009
      }
    },
    {
      "id": "3a8b92df-f4ec-446b-8f43-490948e24eeb",
      "cp": "56249",
      "ville": "Herschbach",
      "adresse": "Rheinstraße 21",
      "brand": "Ed",
      "lat": 50.571102,
      "lng": 7.737465,
      "fuels": {
        "gazole": 1.009,
        "sp95": 1.009,
        "e10": 1.009
      }
    },
    {
      "id": "6179a96b-4af9-4372-a98b-8a6bd1064069",
      "cp": "56249",
      "ville": "Herschbach",
      "adresse": "Siegstraße 56",
      "brand": "A Energie",
      "lat": 50.581976,
      "lng": 7.736741,
      "fuels": {
        "gazole": 1.009,
        "sp95": 1.009,
        "e10": 1.009
      }
    },
    {
      "id": "e38ac538-a948-448c-afaf-13e958f4daa8",
      "cp": "56414",
      "ville": "herschbach(oberwesterwald)",
      "adresse": "Hauptstraße 5",
      "brand": "q1 Automaten-Tankstelle",
      "lat": 50.503436,
      "lng": 7.927871,
      "fuels": {
        "gazole": 1.009,
        "sp95": 1.009,
        "e10": 1.009
      }
    },
    {
      "id": "32f1203f-716f-4629-b855-404aa69d9953",
      "cp": "67273",
      "ville": "Herxheim Am Berg",
      "adresse": "Weinstr. 18",
      "brand": "",
      "lat": 49.509001,
      "lng": 8.179677,
      "fuels": {
        "gazole": 1.009,
        "sp95": 1.009,
        "e10": 1.009
      }
    },
    {
      "id": "562d74fa-162e-490c-8659-0382927ff58d",
      "cp": "67258",
      "ville": "Hessheim",
      "adresse": "Frankentaler Str. 23",
      "brand": "Top",
      "lat": 49.54406,
      "lng": 8.31218,
      "fuels": {
        "gazole": 1.009,
        "sp95": 1.009,
        "e10": 1.009
      }
    },
    {
      "id": "2ba49a03-9f49-4d0e-80f0-851e6e5ade6e",
      "cp": "67310",
      "ville": "Hettenleidelheim",
      "adresse": "Wattenheimer Str. 28",
      "brand": "Totalenergies",
      "lat": 49.53158,
      "lng": 8.066086,
      "fuels": {
        "gazole": 1.009,
        "sp95": 1.009,
        "e10": 1.009
      }
    },
    {
      "id": "1460de64-9c60-41fa-90e7-da2bdd72ce8b",
      "cp": "54523",
      "ville": "Hetzerath",
      "adresse": "Wittlicher Straße 1",
      "brand": "Aral",
      "lat": 49.878967,
      "lng": 6.814709,
      "fuels": {
        "gazole": 1.009,
        "sp95": 1.009,
        "e10": 1.009
      }
    },
    {
      "id": "01913456-d774-49ee-a5d2-52371850d31e",
      "cp": "54576",
      "ville": "Hillesheim",
      "adresse": "Kölner Straße 40",
      "brand": "Ed",
      "lat": 50.296234,
      "lng": 6.672883,
      "fuels": {
        "gazole": 1.009,
        "sp95": 1.009,
        "e10": 1.009
      }
    },
    {
      "id": "25a9bf75-a698-406a-8e91-5310e6008b93",
      "cp": "54576",
      "ville": "Hillesheim",
      "adresse": "Raiffeisenstraße 2",
      "brand": "",
      "lat": 50.295425415039,
      "lng": 6.6716442108154,
      "fuels": {
        "gazole": 1.009,
        "sp95": 1.009,
        "e10": 1.009
      }
    },
    {
      "id": "9f685a13-5672-4866-a730-605caad3c46e",
      "cp": "54472",
      "ville": "Hochscheid",
      "adresse": "Am Dicken Stein 2",
      "brand": "tankpool24",
      "lat": 49.879192,
      "lng": 7.215089,
      "fuels": {
        "gazole": 1.009,
        "sp95": 1.009,
        "e10": 1.009
      }
    },
    {
      "id": "69c90288-bea6-4d21-8734-22f4c13b96db",
      "cp": "67691",
      "ville": "Hochspeyer",
      "adresse": "Hauptstraße 13",
      "brand": "Tankstelle Hochspeyer 24h",
      "lat": 49.44324,
      "lng": 7.883134,
      "fuels": {
        "gazole": 1.009,
        "sp95": 1.009,
        "e10": 1.009
      }
    },
    {
      "id": "2cd55a64-2091-476c-a9b6-fbc3b85764f9",
      "cp": "55606",
      "ville": "Hochstetten",
      "adresse": "Binger Landstr. 25",
      "brand": "Access",
      "lat": 49.799247,
      "lng": 7.509407,
      "fuels": {
        "gazole": 1.009,
        "sp95": 1.009,
        "e10": 1.009
      }
    },
    {
      "id": "e5cd2c8e-e5b9-4244-831a-c1385df36a5d",
      "cp": "56203",
      "ville": "Hoehr-Grenzhausen",
      "adresse": "Lindenstr. 40",
      "brand": "Bft",
      "lat": 50.442548,
      "lng": 7.652634,
      "fuels": {
        "gazole": 1.009,
        "sp95": 1.009,
        "e10": 1.009
      }
    },
    {
      "id": "32292786-5081-4a4a-8fac-01d20537c568",
      "cp": "56203",
      "ville": "Hoehr-Grenzhausen",
      "adresse": "Westerwaldstr. 12-14",
      "brand": "Shell",
      "lat": 50.442055,
      "lng": 7.666455,
      "fuels": {
        "gazole": 1.009,
        "sp95": 1.009,
        "e10": 1.009
      }
    },
    {
      "id": "fef93e7a-5653-4751-9515-7ad2a79e8382",
      "cp": "56472",
      "ville": "Hof",
      "adresse": "Talstraße 12 / b414",
      "brand": "Aral",
      "lat": 50.66444,
      "lng": 8.015791,
      "fuels": {
        "gazole": 1.009,
        "sp95": 1.009,
        "e10": 1.009
      }
    },
    {
      "id": "4cf44f9f-ebb4-4fa5-aa51-f94e47d72ec1",
      "cp": "56462",
      "ville": "Höhn",
      "adresse": "Rheinstraße 18",
      "brand": "Aral",
      "lat": 50.619164,
      "lng": 7.990604,
      "fuels": {
        "gazole": 1.009,
        "sp95": 1.009,
        "e10": 1.009
      }
    },
    {
      "id": "130c575c-63d6-4d3f-8ebe-f9749572db74",
      "cp": "56203",
      "ville": "Höhr-Grenzhausen",
      "adresse": "Am Autobahnzubringer/West",
      "brand": "Aral",
      "lat": 50.441917,
      "lng": 7.666416,
      "fuels": {
        "gazole": 1.009,
        "sp95": 1.009,
        "e10": 1.009
      }
    },
    {
      "id": "df44694b-e38d-4b5c-8323-1c27afba3d0b",
      "cp": "56379",
      "ville": "Holzappel",
      "adresse": "Hauptstr. 104",
      "brand": "Shell",
      "lat": 50.354298,
      "lng": 7.898499,
      "fuels": {
        "gazole": 1.009,
        "sp95": 1.009,
        "e10": 1.009
      }
    },
    {
      "id": "5f9b2958-fb13-413c-8ca2-1dd160a7164b",
      "cp": "56357",
      "ville": "Holzhausen",
      "adresse": "Baederstr. 5",
      "brand": "Shell",
      "lat": 50.220593,
      "lng": 7.904519,
      "fuels": {
        "gazole": 1.009,
        "sp95": 1.009,
        "e10": 1.009
      }
    },
    {
      "id": "af2ca854-5b80-4b03-b41f-fcf2501d7dad",
      "cp": "55768",
      "ville": "Hoppstaedten-Weiersbach",
      "adresse": "Harald-Fissler-Str. 2",
      "brand": "Esso",
      "lat": 49.6037131,
      "lng": 7.165654,
      "fuels": {
        "gazole": 1.009,
        "sp95": 1.009,
        "e10": 1.009
      }
    },
    {
      "id": "4b83f98d-d88b-41ec-a5d4-0964c624dcf0",
      "cp": "56414",
      "ville": "Hundsangen",
      "adresse": "Hauptstr. 20",
      "brand": "Shell",
      "lat": 50.452358,
      "lng": 7.988578,
      "fuels": {
        "gazole": 1.009,
        "sp95": 1.009,
        "e10": 1.009
      }
    },
    {
      "id": "c21deb04-42cf-45f4-8441-23f25b934aa1",
      "cp": "55743",
      "ville": "Idar-Oberstein",
      "adresse": "Fischbacher Straße 1",
      "brand": "Aral",
      "lat": 49.73898,
      "lng": 7.408038,
      "fuels": {
        "gazole": 1.009,
        "sp95": 1.009,
        "e10": 1.009
      }
    },
    {
      "id": "b9d1b625-8158-4660-906b-33459746e55b",
      "cp": "55743",
      "ville": "Idar-Oberstein",
      "adresse": "Hauptstraße 242",
      "brand": "Aral",
      "lat": 49.70951,
      "lng": 7.315356,
      "fuels": {
        "gazole": 1.009,
        "sp95": 1.009,
        "e10": 1.009
      }
    },
    {
      "id": "ed4489e5-4fc0-4738-a20e-5c959b7fe998",
      "cp": "55743",
      "ville": "Idar-Oberstein",
      "adresse": "Heidensteilstrasse 10",
      "brand": "Agip Eni",
      "lat": 49.72719,
      "lng": 7.31222,
      "fuels": {
        "gazole": 1.009,
        "sp95": 1.009,
        "e10": 1.009
      }
    },
    {
      "id": "90e41996-82b4-4807-aa2a-d5d99ec62933",
      "cp": "55743",
      "ville": "Idar-Oberstein",
      "adresse": "Mainzer Str. 81",
      "brand": "Shell",
      "lat": 49.716923,
      "lng": 7.305833,
      "fuels": {
        "gazole": 1.009,
        "sp95": 1.009,
        "e10": 1.009
      }
    },
    {
      "id": "7316d60b-6478-40f9-830c-18ba0aeb901f",
      "cp": "55743",
      "ville": "Idar-Oberstein",
      "adresse": "Nahbollenbacher Straße 134",
      "brand": "Bft",
      "lat": 49.71245,
      "lng": 7.36125,
      "fuels": {
        "gazole": 1.009,
        "sp95": 1.009,
        "e10": 1.009
      }
    },
    {
      "id": "05599648-5928-4015-9802-15548670e02e",
      "cp": "55743",
      "ville": "Idar-Oberstein",
      "adresse": "Tiefensteiner Straße 170",
      "brand": "Bft",
      "lat": 49.73568,
      "lng": 7.28211,
      "fuels": {
        "gazole": 1.009,
        "sp95": 1.009,
        "e10": 1.009
      }
    },
    {
      "id": "9a10e349-92d2-4885-a8de-da84292eecb3",
      "cp": "55743",
      "ville": "Idar-Oberstein",
      "adresse": "Zwischen Wasser 13",
      "brand": "Globus Sb Warenhaus",
      "lat": 49.731228,
      "lng": 7.395239,
      "fuels": {
        "gazole": 1.009,
        "sp95": 1.009,
        "e10": 1.009
      }
    },
    {
      "id": "53343992-d830-4613-9e8b-f826c541e72c",
      "cp": "55218",
      "ville": "Ingelheim",
      "adresse": "Konrad-Adenauer-Straße 14",
      "brand": "Aral",
      "lat": 49.97907,
      "lng": 8.05402,
      "fuels": {
        "gazole": 1.009,
        "sp95": 1.009,
        "e10": 1.009
      }
    },
    {
      "id": "b4a01f69-9943-42d1-acf0-f2f3a208e924",
      "cp": "54584",
      "ville": "Jünkerath",
      "adresse": "Kölner Straße 20",
      "brand": "Dk Energiehandel",
      "lat": 50.34528,
      "lng": 6.57578,
      "fuels": {
        "gazole": 1.009,
        "sp95": 1.009,
        "e10": 1.009
      }
    },
    {
      "id": "258a9154-afaa-4934-bb6b-c5c6d1f85f94",
      "cp": "56761",
      "ville": "Kaifenheim",
      "adresse": "Roeserstrasse 15",
      "brand": "Budget Oil",
      "lat": 50.245792,
      "lng": 7.229296,
      "fuels": {
        "gazole": 1.009,
        "sp95": 1.009,
        "e10": 1.009
      }
    },
    {
      "id": "7a558382-49b7-4def-9ed7-57337d50c3bb",
      "cp": "56759",
      "ville": "Kaisersesch",
      "adresse": "August-Horch-Straße .",
      "brand": "Ed",
      "lat": 50.233631,
      "lng": 7.150104,
      "fuels": {
        "gazole": 1.009,
        "sp95": 1.009,
        "e10": 1.009
      }
    },
    {
      "id": "78fdc315-4672-48da-baf9-7c431655c49c",
      "cp": "67655",
      "ville": "Kaiserslautern",
      "adresse": "Altenwoogstr. 36",
      "brand": "Esso",
      "lat": 49.443804,
      "lng": 7.78373,
      "fuels": {
        "gazole": 1.009,
        "sp95": 1.009,
        "e10": 1.009
      }
    },
    {
      "id": "ce241717-c600-1ee9-a0b1-7269a2ad8a06",
      "cp": "67661",
      "ville": "Kaiserslautern",
      "adresse": "Am Rangierbahnhof 2",
      "brand": "Jet",
      "lat": 49.43285,
      "lng": 7.68044,
      "fuels": {
        "gazole": 1.009,
        "sp95": 1.009,
        "e10": 1.009
      }
    },
    {
      "id": "2f8ca0f1-cd12-43ab-988e-b0e3bb12d5ec",
      "cp": "67663",
      "ville": "Kaiserslautern",
      "adresse": "Brandenburger Strasse 1",
      "brand": "Agip Eni",
      "lat": 49.433501559071,
      "lng": 7.750224096894,
      "fuels": {
        "gazole": 1.009,
        "sp95": 1.009,
        "e10": 1.009
      }
    },
    {
      "id": "94df48be-757b-424b-8b57-07844e0425a3",
      "cp": "67659",
      "ville": "Kaiserslautern",
      "adresse": "Burgstr. 40",
      "brand": "Shell",
      "lat": 49.446862,
      "lng": 7.763195,
      "fuels": {
        "gazole": 1.009,
        "sp95": 1.009,
        "e10": 1.009
      }
    },
    {
      "id": "3c27649d-205e-9418-a327-d299e67870bb",
      "cp": "67663",
      "ville": "Kaiserslautern",
      "adresse": "Gustave-Eiffel-Straße 2",
      "brand": "Tankstelle Am Waschpark",
      "lat": 49.43837,
      "lng": 7.72531,
      "fuels": {
        "gazole": 1.009,
        "sp95": 1.009,
        "e10": 1.009
      }
    },
    {
      "id": "8eff4145-4cc9-43b5-a947-25bfb070f143",
      "cp": "67663",
      "ville": "Kaiserslautern",
      "adresse": "Hans-Geiger-Strasse 5",
      "brand": "Schuster & Sohn Kg",
      "lat": 49.48347,
      "lng": 7.679766,
      "fuels": {
        "gazole": 1.009,
        "sp95": 1.009,
        "e10": 1.009
      }
    },
    {
      "id": "1921dcf2-68c9-440a-ab46-4f5c60e6042a",
      "cp": "67663",
      "ville": "Kaiserslautern",
      "adresse": "Hohenecker Str. 20",
      "brand": "Shell",
      "lat": 49.433104,
      "lng": 7.744317,
      "fuels": {
        "gazole": 1.009,
        "sp95": 1.009,
        "e10": 1.009
      }
    },
    {
      "id": "6aafd46e-f892-486b-b9c0-bee7489a5ac6",
      "cp": "67661",
      "ville": "Kaiserslautern",
      "adresse": "Im Erfenbacher Tal 15",
      "brand": "Aral",
      "lat": 49.421474,
      "lng": 7.703652,
      "fuels": {
        "gazole": 1.009,
        "sp95": 1.009,
        "e10": 1.009
      }
    },
    {
      "id": "faef04f1-986a-4dbc-aae8-93eb27478c13",
      "cp": "67663",
      "ville": "Kaiserslautern",
      "adresse": "Kantstr. 64",
      "brand": "Bft",
      "lat": 49.43199,
      "lng": 7.78064,
      "fuels": {
        "gazole": 1.009,
        "sp95": 1.009,
        "e10": 1.009
      }
    },
    {
      "id": "83974c3d-c4f0-4a06-acee-cfbdf88ac8f8",
      "cp": "67655",
      "ville": "Kaiserslautern",
      "adresse": "Koenigstr. 131",
      "brand": "T",
      "lat": 49.435072,
      "lng": 7.753651,
      "fuels": {
        "gazole": 1.009,
        "sp95": 1.009,
        "e10": 1.009
      }
    },
    {
      "id": "85aae4a5-89c0-44c7-b994-d8fdc325ca48",
      "cp": "67663",
      "ville": "Kaiserslautern",
      "adresse": "Kohlenhofstr. 6-12",
      "brand": "Schuster & Sohn Kg",
      "lat": 49.4365,
      "lng": 7.774833,
      "fuels": {
        "gazole": 1.009,
        "sp95": 1.009,
        "e10": 1.009
      }
    },
    {
      "id": "dbb0a607-7b91-42bf-af87-0c06c45991ed",
      "cp": "67657",
      "ville": "Kaiserslautern",
      "adresse": "Mainzer Str. 140",
      "brand": "Totalenergies",
      "lat": 49.457298,
      "lng": 7.801527,
      "fuels": {
        "gazole": 1.009,
        "sp95": 1.009,
        "e10": 1.009
      }
    },
    {
      "id": "51d4b48c-a095-1aa0-e100-80009459e03a",
      "cp": "67657",
      "ville": "Kaiserslautern",
      "adresse": "Mainzer Str. 83",
      "brand": "Jet",
      "lat": 49.45304,
      "lng": 7.78833,
      "fuels": {
        "gazole": 1.009,
        "sp95": 1.009,
        "e10": 1.009
      }
    },
    {
      "id": "b7a65da4-a0f3-4339-b72b-5d951ac03c73",
      "cp": "67657",
      "ville": "Kaiserslautern",
      "adresse": "Mainzer Straße 117",
      "brand": "Aral",
      "lat": 49.455753,
      "lng": 7.795879,
      "fuels": {
        "gazole": 1.009,
        "sp95": 1.009,
        "e10": 1.009
      }
    },
    {
      "id": "eef314cf-a84a-4648-9284-c2df1efa36c9",
      "cp": "67657",
      "ville": "Kaiserslautern",
      "adresse": "Mainzerstraße 110",
      "brand": "Winkler 24h",
      "lat": 49.45353,
      "lng": 7.79195,
      "fuels": {
        "gazole": 1.009,
        "sp95": 1.009,
        "e10": 1.009
      }
    },
    {
      "id": "c691499f-69da-436c-b154-282030f77692",
      "cp": "67663",
      "ville": "Kaiserslautern",
      "adresse": "Merkurstr. 20",
      "brand": "Shell",
      "lat": 49.443273,
      "lng": 7.726655,
      "fuels": {
        "gazole": 1.009,
        "sp95": 1.009,
        "e10": 1.009
      }
    },
    {
      "id": "7c5aca0f-b8e4-478e-9afb-46c2c136ae4e",
      "cp": "67663",
      "ville": "Kaiserslautern",
      "adresse": "Merkurstr. 57",
      "brand": "Globus Sb Warenhaus",
      "lat": 49.440156,
      "lng": 7.710974,
      "fuels": {
        "gazole": 1.009,
        "sp95": 1.009,
        "e10": 1.009
      }
    },
    {
      "id": "adc3aa15-ae7c-46c8-997b-3fcce9a41d01",
      "cp": "67663",
      "ville": "Kaiserslautern",
      "adresse": "Opelkreisel 15",
      "brand": "Esso",
      "lat": 49.441463,
      "lng": 7.704137,
      "fuels": {
        "gazole": 1.009,
        "sp95": 1.009,
        "e10": 1.009
      }
    },
    {
      "id": "51d4b53b-a095-1aa0-e100-80009459e03a",
      "cp": "67655",
      "ville": "Kaiserslautern",
      "adresse": "Pariser Str. 167",
      "brand": "Jet",
      "lat": 49.4422,
      "lng": 7.74836,
      "fuels": {
        "gazole": 1.009,
        "sp95": 1.009,
        "e10": 1.009
      }
    },
    {
      "id": "a252bf23-b4cf-49d8-9f1d-1700077e1f9e",
      "cp": "67655",
      "ville": "Kaiserslautern",
      "adresse": "Pariser Str. 190",
      "brand": "Hem",
      "lat": 49.442536,
      "lng": 7.745478,
      "fuels": {
        "gazole": 1.009,
        "sp95": 1.009,
        "e10": 1.009
      }
    },
    {
      "id": "972c3df5-7668-448c-9cc4-5e07fae18928",
      "cp": "67663",
      "ville": "Kaiserslautern",
      "adresse": "Pariser Straße 202",
      "brand": "oil!",
      "lat": 49.440918,
      "lng": 7.7425413,
      "fuels": {
        "gazole": 1.009,
        "sp95": 1.009,
        "e10": 1.009
      }
    },
    {
      "id": "c7caf231-0e47-40db-92de-9349a2eb2bef",
      "cp": "67663",
      "ville": "Kaiserslautern",
      "adresse": "Trippstadter Straße 83",
      "brand": "Aral",
      "lat": 49.433754,
      "lng": 7.757465,
      "fuels": {
        "gazole": 1.009,
        "sp95": 1.009,
        "e10": 1.009
      }
    },
    {
      "id": "24d01ad3-5244-4c23-b256-4fdf51805b31",
      "cp": "56288",
      "ville": "Kastellaun",
      "adresse": "Fordstr. 15",
      "brand": "Raiffeisen Hunsrück",
      "lat": 50.0754,
      "lng": 7.457,
      "fuels": {
        "gazole": 1.009,
        "sp95": 1.009,
        "e10": 1.009
      }
    },
    {
      "id": "756c3981-00ca-4a3c-8889-d2ed3eb73ce0",
      "cp": "56288",
      "ville": "Kastellaun",
      "adresse": "Fordstraße 1",
      "brand": "",
      "lat": 50.079283,
      "lng": 7.455177,
      "fuels": {
        "gazole": 1.009,
        "sp95": 1.009,
        "e10": 1.009
      }
    },
    {
      "id": "f72b008c-3aa3-482c-b4af-472644bba866",
      "cp": "56288",
      "ville": "Kastellaun",
      "adresse": "Zellerstraße 34",
      "brand": "Aral",
      "lat": 50.068867,
      "lng": 7.439397,
      "fuels": {
        "gazole": 1.009,
        "sp95": 1.009,
        "e10": 1.009
      }
    },
    {
      "id": "39728497-e7ca-4f13-87c0-e723efe4e57a",
      "cp": "56368",
      "ville": "Katzenelnbogen",
      "adresse": "Bahnhofstraße 20",
      "brand": "Raiffeisen",
      "lat": 50.265495300293,
      "lng": 7.9792308807373,
      "fuels": {
        "gazole": 1.009,
        "sp95": 1.009,
        "e10": 1.009
      }
    },
    {
      "id": "2311a16f-1093-427b-8649-a42e24ad58b0",
      "cp": "67734",
      "ville": "Katzweiler",
      "adresse": "Hauptstraße 73",
      "brand": "Aral",
      "lat": 49.50465,
      "lng": 7.692398,
      "fuels": {
        "gazole": 1.009,
        "sp95": 1.009,
        "e10": 1.009
      }
    },
    {
      "id": "f42331e7-c74e-42f4-84b9-bc3f3c7d7882",
      "cp": "56729",
      "ville": "Kehrig",
      "adresse": "A 48",
      "brand": "Aral",
      "lat": 50.26755,
      "lng": 7.226649,
      "fuels": {
        "gazole": 1.009,
        "sp95": 1.009,
        "e10": 1.009
      }
    },
    {
      "id": "83c2dd6b-3aa4-430b-8573-21f83bc163e3",
      "cp": "56729",
      "ville": "Kehrig",
      "adresse": "a48 Elztal Nord",
      "brand": "Shell",
      "lat": 50.26743,
      "lng": 7.226569,
      "fuels": {
        "gazole": 1.009,
        "sp95": 1.009,
        "e10": 1.009
      }
    },
    {
      "id": "a44cfbdf-6ec6-4679-8569-f35a39fc11e3",
      "cp": "54427",
      "ville": "Kell",
      "adresse": "Hunsrückhöhenstraße 1",
      "brand": "Ed",
      "lat": 49.635593,
      "lng": 6.833877,
      "fuels": {
        "gazole": 1.009,
        "sp95": 1.009,
        "e10": 1.009
      }
    },
    {
      "id": "b8bdbfbf-1d74-44b7-8cde-ac34d623b62f",
      "cp": "56746",
      "ville": "Kempenich",
      "adresse": "Hannebacher Straße 2 D",
      "brand": "Ed",
      "lat": 50.425084,
      "lng": 7.123221,
      "fuels": {
        "gazole": 1.009,
        "sp95": 1.009,
        "e10": 1.009
      }
    },
    {
      "id": "4fcbed9b-64c1-4532-b444-b0fb04321f56",
      "cp": "55758",
      "ville": "Kempfeld",
      "adresse": "Hauptstr. 84",
      "brand": "Bft",
      "lat": 49.78567,
      "lng": 7.24072,
      "fuels": {
        "gazole": 1.009,
        "sp95": 1.009,
        "e10": 1.009
      }
    },
    {
      "id": "a6bd6dba-d776-45a0-b746-eb942dff5ad7",
      "cp": "55481",
      "ville": "Kirchberg",
      "adresse": "Kappeler Straße 50",
      "brand": "Aral",
      "lat": 49.950478,
      "lng": 7.404095,
      "fuels": {
        "gazole": 1.009,
        "sp95": 1.009,
        "e10": 1.009
      }
    },
    {
      "id": "a61a6d90-a4a9-4802-973e-7f11fddc5a00",
      "cp": "55481",
      "ville": "Kirchberg",
      "adresse": "Maitzborner Straße 1",
      "brand": "Raiffeisen",
      "lat": 49.940403,
      "lng": 7.410663,
      "fuels": {
        "gazole": 1.009,
        "sp95": 1.009,
        "e10": 1.009
      }
    },
    {
      "id": "c3bfa1ac-f022-4001-a85f-bee2a1cf1e31",
      "cp": "55481",
      "ville": "Kirchberg",
      "adresse": "Simmerner Straße 48",
      "brand": "Ed",
      "lat": 49.944672,
      "lng": 7.41431,
      "fuels": {
        "gazole": 1.009,
        "sp95": 1.009,
        "e10": 1.009
      }
    },
    {
      "id": "8c5dbc74-f033-4a18-ab3b-bda2bcbdd921",
      "cp": "67281",
      "ville": "Kirchheim",
      "adresse": "Autohof Rosengartenweg 1",
      "brand": "Totalenergies Autohof",
      "lat": 49.554166,
      "lng": 8.185635,
      "fuels": {
        "gazole": 1.009,
        "sp95": 1.009,
        "e10": 1.009
      }
    },
    {
      "id": "d4d2ffc7-db50-4dc2-89a7-f10eb0d391b8",
      "cp": "67292",
      "ville": "Kirchheimbolanden",
      "adresse": "Bischheimer Straße 9",
      "brand": "Aral",
      "lat": 49.66857,
      "lng": 8.02008,
      "fuels": {
        "gazole": 1.009,
        "sp95": 1.009,
        "e10": 1.009
      }
    },
    {
      "id": "fb252029-df58-4730-ac20-47aa2ba7c7a0",
      "cp": "67292",
      "ville": "Kirchheimbolanden",
      "adresse": "Marnheimer Str. 100",
      "brand": "Hem",
      "lat": 49.65613,
      "lng": 8.017258,
      "fuels": {
        "gazole": 1.009,
        "sp95": 1.009,
        "e10": 1.009
      }
    },
    {
      "id": "ce241717-f30b-1ee7-b6c0-f5f62d298d5d",
      "cp": "67292",
      "ville": "Kirchheimbolanden",
      "adresse": "Woogmorgen 1",
      "brand": "Jet",
      "lat": 49.65999,
      "lng": 8.02174,
      "fuels": {
        "gazole": 1.009,
        "sp95": 1.009,
        "e10": 1.009
      }
    },
    {
      "id": "f457f6d2-1d6f-4b25-811d-91a8b79a34d0",
      "cp": "55606",
      "ville": "Kirn",
      "adresse": "Binger Landstraße 16",
      "brand": "Ed",
      "lat": 49.789429,
      "lng": 7.481856,
      "fuels": {
        "gazole": 1.009,
        "sp95": 1.009,
        "e10": 1.009
      }
    },
    {
      "id": "86344e1b-02a2-4bc1-a99c-b77b7eebfb85",
      "cp": "55606",
      "ville": "Kirn",
      "adresse": "Obersteiner Straße 80",
      "brand": "Mtb",
      "lat": 49.7737942,
      "lng": 7.4523737,
      "fuels": {
        "gazole": 1.009,
        "sp95": 1.009,
        "e10": 1.009
      }
    },
    {
      "id": "43da827e-661f-40a2-8e29-a42d26934f37",
      "cp": "55270",
      "ville": "Klein-Winternheim",
      "adresse": "Pariser Str. 53",
      "brand": "Esso",
      "lat": 49.93752,
      "lng": 8.210023,
      "fuels": {
        "gazole": 1.009,
        "sp95": 1.009,
        "e10": 1.009
      }
    },
    {
      "id": "8e651442-f9b3-4e78-b39a-125b468e8b23",
      "cp": "56271",
      "ville": "Kleinmaischeid",
      "adresse": "Hauptstraße 11",
      "brand": "A Energie",
      "lat": 50.509734,
      "lng": 7.60359,
      "fuels": {
        "gazole": 1.009,
        "sp95": 1.009,
        "e10": 1.009
      }
    },
    {
      "id": "b300b5d7-426a-49b1-886d-78b997f2bea3",
      "cp": "56330",
      "ville": "Kobern-Gondorf",
      "adresse": "Moselstraße / B 416",
      "brand": "Aral",
      "lat": 50.314255,
      "lng": 7.462393,
      "fuels": {
        "gazole": 1.009,
        "sp95": 1.009,
        "e10": 1.009
      }
    },
    {
      "id": "ea63f34d-e151-4ee9-914b-c50cb672c486",
      "cp": "56072",
      "ville": "Koblenz",
      "adresse": "Am Ruebenacher Wald 2",
      "brand": "Shell",
      "lat": 50.347001,
      "lng": 7.506528,
      "fuels": {
        "gazole": 1.009,
        "sp95": 1.009,
        "e10": 1.009
      }
    },
    {
      "id": "0feba9f3-0528-49fa-b89d-8b532db92212",
      "cp": "56072",
      "ville": "Koblenz",
      "adresse": "An Der B 416",
      "brand": "Shell",
      "lat": 50.348121,
      "lng": 7.550969,
      "fuels": {
        "gazole": 1.009,
        "sp95": 1.009,
        "e10": 1.009
      }
    },
    {
      "id": "c7b3724c-5b4d-4cd1-96f7-489c24e14499",
      "cp": "56070",
      "ville": "Koblenz",
      "adresse": "Andernacher Straße 207",
      "brand": "Aral",
      "lat": 50.37837,
      "lng": 7.584987,
      "fuels": {
        "gazole": 1.009,
        "sp95": 1.009,
        "e10": 1.009
      }
    },
    {
      "id": "62dad35b-6e72-4896-8784-1db0a281dce9",
      "cp": "56076",
      "ville": "Koblenz",
      "adresse": "August-Horch-Straße 1-3",
      "brand": "Aral",
      "lat": 50.389275,
      "lng": 7.566403,
      "fuels": {
        "gazole": 1.009,
        "sp95": 1.009,
        "e10": 1.009
      }
    },
    {
      "id": "851dc16c-3254-4398-9ced-a086404b89c2",
      "cp": "56070",
      "ville": "Koblenz",
      "adresse": "b9 Richtung Andernach",
      "brand": "Shell",
      "lat": 50.380818,
      "lng": 7.577924,
      "fuels": {
        "gazole": 1.009,
        "sp95": 1.009,
        "e10": 1.009
      }
    },
    {
      "id": "f68b6d37-ba7f-4565-bfe4-968893af61ba",
      "cp": "56070",
      "ville": "Koblenz",
      "adresse": "Carl-Spaeter-Straße 73",
      "brand": "Bft",
      "lat": 50.3916,
      "lng": 7.58622,
      "fuels": {
        "gazole": 1.009,
        "sp95": 1.009,
        "e10": 1.009
      }
    },
    {
      "id": "f474e88b-328c-467f-8c1e-d5ce05625f5c",
      "cp": "56070",
      "ville": "Koblenz",
      "adresse": "Friedrich-Mohr-Str. 2a",
      "brand": "Shell",
      "lat": 50.380338,
      "lng": 7.577183,
      "fuels": {
        "gazole": 1.009,
        "sp95": 1.009,
        "e10": 1.009
      }
    },
    {
      "id": "34ae75dc-9074-4f60-b92b-3f4f3055d4f3",
      "cp": "56077",
      "ville": "Koblenz",
      "adresse": "In Den Siebenmorgen 2c",
      "brand": "Bell Oil",
      "lat": 50.37125,
      "lng": 7.645431,
      "fuels": {
        "gazole": 1.009,
        "sp95": 1.009,
        "e10": 1.009
      }
    },
    {
      "id": "78de9a85-ad8a-4c42-bb7d-937468d878db",
      "cp": "56073",
      "ville": "Koblenz",
      "adresse": "Moselring 11",
      "brand": "Sb",
      "lat": 50.356328,
      "lng": 7.588334,
      "fuels": {
        "gazole": 1.009,
        "sp95": 1.009,
        "e10": 1.009
      }
    },
    {
      "id": "a640612d-9a3d-4e97-b88c-e51b9d45c405",
      "cp": "56075",
      "ville": "Koblenz",
      "adresse": "Pfarrer-Kraus-Str. 154",
      "brand": "Raiffeisen Hunsrück",
      "lat": 50.3689,
      "lng": 7.65922,
      "fuels": {
        "gazole": 1.009,
        "sp95": 1.009,
        "e10": 1.009
      }
    },
    {
      "id": "2de60ccf-5d11-4229-9d17-14f97c580563",
      "cp": "56075",
      "ville": "Koblenz",
      "adresse": "Römerstraße 221",
      "brand": "Aral",
      "lat": 50.334286,
      "lng": 7.582917,
      "fuels": {
        "gazole": 1.009,
        "sp95": 1.009,
        "e10": 1.009
      }
    },
    {
      "id": "0ea3cb53-06a8-4119-a276-a2a7444a9638",
      "cp": "56073",
      "ville": "Koblenz",
      "adresse": "Schlachthofstr. 88",
      "brand": "Totalenergies",
      "lat": 50.362534,
      "lng": 7.571578,
      "fuels": {
        "gazole": 1.009,
        "sp95": 1.009,
        "e10": 1.009
      }
    },
    {
      "id": "1e74ba72-f4cc-4c1b-b197-72a158e94140",
      "cp": "56073",
      "ville": "Koblenz",
      "adresse": "Schlachthofstraße 79",
      "brand": "Aral",
      "lat": 50.36289,
      "lng": 7.574478,
      "fuels": {
        "gazole": 1.009,
        "sp95": 1.009,
        "e10": 1.009
      }
    },
    {
      "id": "bb41fabb-41aa-47b0-90a3-ec2064f76bb2",
      "cp": "56075",
      "ville": "Koblenz",
      "adresse": "Simmernerstr. 170",
      "brand": "Sb",
      "lat": 50.3332,
      "lng": 7.56576,
      "fuels": {
        "gazole": 1.009,
        "sp95": 1.009,
        "e10": 1.009
      }
    },
    {
      "id": "e996cf97-36be-43e8-8322-7f852b99e224",
      "cp": "56070",
      "ville": "Koblenz-Bubenheim",
      "adresse": "Jakob-Caspers-Straße 2",
      "brand": "Globus Sb Warenhaus",
      "lat": 50.386205,
      "lng": 7.553635,
      "fuels": {
        "gazole": 1.009,
        "sp95": 1.009,
        "e10": 1.009
      }
    },
    {
      "id": "d3a26e68-9662-431d-ad9d-6480eaa11455",
      "cp": "56072",
      "ville": "Koblenz-Metternich",
      "adresse": "Trierer Straße 79b",
      "brand": "Ed",
      "lat": 50.370136,
      "lng": 7.570178,
      "fuels": {
        "gazole": 1.009,
        "sp95": 1.009,
        "e10": 1.009
      }
    },
    {
      "id": "63cecf31-b907-4e99-bf2f-1cf542e4ebc8",
      "cp": "56076",
      "ville": "Koblenz-Pfaffendorf",
      "adresse": "Wilhelm-Leuschner-Straße 14",
      "brand": "Ed",
      "lat": 50.338013,
      "lng": 7.61182,
      "fuels": {
        "gazole": 1.009,
        "sp95": 1.009,
        "e10": 1.009
      }
    },
    {
      "id": "d9e14ebb-23b5-449e-bbf3-e4c198e4061b",
      "cp": "56072",
      "ville": "Koblenz-Rübenach",
      "adresse": "Aachener Straße 15",
      "brand": "Ed",
      "lat": 50.372574,
      "lng": 7.528644,
      "fuels": {
        "gazole": 1.009,
        "sp95": 1.009,
        "e10": 1.009
      }
    },
    {
      "id": "06abdb4c-f337-499a-84aa-35000483acc0",
      "cp": "56459",
      "ville": "Koelbingen",
      "adresse": "Hauptstr. 79",
      "brand": "Esso",
      "lat": 50.54839,
      "lng": 7.921952,
      "fuels": {
        "gazole": 1.009,
        "sp95": 1.009,
        "e10": 1.009
      }
    },
    {
      "id": "3189ff7b-66f9-45c3-9012-b5691d066597",
      "cp": "56459",
      "ville": "Kölbingen",
      "adresse": "Hauptstraße 28",
      "brand": "Ed",
      "lat": 50.55099,
      "lng": 7.93411,
      "fuels": {
        "gazole": 1.009,
        "sp95": 1.009,
        "e10": 1.009
      }
    },
    {
      "id": "84b3ffae-87f6-4601-aefe-2e11e9b79dfa",
      "cp": "54329",
      "ville": "Konz",
      "adresse": "Brunostraße 30",
      "brand": "Totalenergies",
      "lat": 49.710376,
      "lng": 6.588435,
      "fuels": {
        "gazole": 1.009,
        "sp95": 1.009,
        "e10": 1.009
      }
    },
    {
      "id": "ba4a8a85-0f75-49d0-8b96-c0350a8a1405",
      "cp": "56736",
      "ville": "Kottenheim",
      "adresse": "Hausener Straße 51",
      "brand": "Mht",
      "lat": 50.3449,
      "lng": 7.25952,
      "fuels": {
        "gazole": 1.009,
        "sp95": 1.009,
        "e10": 1.009
      }
    },
    {
      "id": "639531b9-8650-4a54-ab54-6ab7915de516",
      "cp": "67757",
      "ville": "Kreimbach-Kaulbach",
      "adresse": "Wallackerhof 1",
      "brand": "Avia",
      "lat": 49.5544,
      "lng": 7.6196,
      "fuels": {
        "gazole": 1.009,
        "sp95": 1.009,
        "e10": 1.009
      }
    },
    {
      "id": "a8dd87a4-4bfe-484c-bec9-128e6991bb94",
      "cp": "54536",
      "ville": "Kröv",
      "adresse": "Moselweinstraße 26",
      "brand": "Ed",
      "lat": 49.981251,
      "lng": 7.090629,
      "fuels": {
        "gazole": 1.009,
        "sp95": 1.009,
        "e10": 1.009
      }
    },
    {
      "id": "7807caad-15e9-4c23-56a7-cfead4825de3",
      "cp": "54536",
      "ville": "Kröv",
      "adresse": "Moselweinstraße. 104",
      "brand": "Freie Tankstelle",
      "lat": 49.976148,
      "lng": 7.087598,
      "fuels": {
        "gazole": 1.009,
        "sp95": 1.009,
        "e10": 1.009
      }
    },
    {
      "id": "3e27a5b4-6a0b-4df8-aae3-a92ec0f40454",
      "cp": "56642",
      "ville": "Kruft",
      "adresse": "Alte Chaussee 32",
      "brand": "Esso",
      "lat": 50.38642504,
      "lng": 7.338068376,
      "fuels": {
        "gazole": 1.009,
        "sp95": 1.009,
        "e10": 1.009
      }
    },
    {
      "id": "1f28f2f2-5512-4fc5-b91e-37efdd8f9671",
      "cp": "55471",
      "ville": "Kümbdchen",
      "adresse": "Külztalstr. 17",
      "brand": "Raiffeisen",
      "lat": 49.99103,
      "lng": 7.511795,
      "fuels": {
        "gazole": 1.009,
        "sp95": 1.009,
        "e10": 1.009
      }
    },
    {
      "id": "55968817-dab6-408b-8f9c-61b42de99d31",
      "cp": "56112",
      "ville": "Lahnstein",
      "adresse": "Braubacher Str. 75",
      "brand": "Shell",
      "lat": 50.284895,
      "lng": 7.629157,
      "fuels": {
        "gazole": 1.009,
        "sp95": 1.009,
        "e10": 1.009
      }
    },
    {
      "id": "05e62228-a534-4f89-a4f2-32a3df7162f6",
      "cp": "56112",
      "ville": "Lahnstein",
      "adresse": "Gutenbergstr. 7",
      "brand": "Markenfreie Ts",
      "lat": 50.302678,
      "lng": 7.605062,
      "fuels": {
        "gazole": 1.009,
        "sp95": 1.009,
        "e10": 1.009
      }
    },
    {
      "id": "42b89a70-d630-4284-a264-e1625e306517",
      "cp": "56112",
      "ville": "Lahnstein",
      "adresse": "Koblenzer Str. 35",
      "brand": "Globus Sb Warenhaus",
      "lat": 50.32224,
      "lng": 7.59756,
      "fuels": {
        "gazole": 1.009,
        "sp95": 1.009,
        "e10": 1.009
      }
    },
    {
      "id": "000e5864-eb6e-47f7-825f-9a655d83b0d0",
      "cp": "56112",
      "ville": "Lahnstein",
      "adresse": "Kölner Str. 43",
      "brand": "Shell",
      "lat": 50.324879,
      "lng": 7.605549,
      "fuels": {
        "gazole": 1.009,
        "sp95": 1.009,
        "e10": 1.009
      }
    },
    {
      "id": "a6be8197-9801-423a-a08c-f201358cc9ce",
      "cp": "67466",
      "ville": "Lambrecht",
      "adresse": "Hauptstraße 105",
      "brand": "",
      "lat": 49.373394,
      "lng": 8.06595,
      "fuels": {
        "gazole": 1.009,
        "sp95": 1.009,
        "e10": 1.009
      }
    },
    {
      "id": "acbd1515-cc0e-4c35-a49b-4f8a138982b2",
      "cp": "67245",
      "ville": "Lambsheim",
      "adresse": "Breslauer Straße 2",
      "brand": "Aral",
      "lat": 49.50482,
      "lng": 8.291397,
      "fuels": {
        "gazole": 1.009,
        "sp95": 1.009,
        "e10": 1.009
      }
    },
    {
      "id": "eb935c5a-a1cb-444e-a710-0040c97c549d",
      "cp": "56459",
      "ville": "Langenhahn",
      "adresse": "Koblenzer Straße 15",
      "brand": "Aral",
      "lat": 50.58384,
      "lng": 7.918299,
      "fuels": {
        "gazole": 1.009,
        "sp95": 1.009,
        "e10": 1.009
      }
    },
    {
      "id": "53a8d601-1006-4ad1-bff7-76df8a6547af",
      "cp": "55450",
      "ville": "Langenlonsheim",
      "adresse": "Naheweinstraße 182",
      "brand": "Aral",
      "lat": 49.9011,
      "lng": 7.899361,
      "fuels": {
        "gazole": 1.009,
        "sp95": 1.009,
        "e10": 1.009
      }
    },
    {
      "id": "9d5a339a-6a2a-4e5d-8c69-00c7689a17ee",
      "cp": "56759",
      "ville": "Laubach",
      "adresse": "Eifelstraße 13",
      "brand": "Ed",
      "lat": 50.235146,
      "lng": 7.072513,
      "fuels": {
        "gazole": 1.009,
        "sp95": 1.009,
        "e10": 1.009
      }
    },
    {
      "id": "49151e78-2696-43e7-a882-6f9522c29916",
      "cp": "67742",
      "ville": "Lauterecken",
      "adresse": "Saarbrücker Straße 56",
      "brand": "Aral",
      "lat": 49.650055,
      "lng": 7.58423,
      "fuels": {
        "gazole": 1.009,
        "sp95": 1.009,
        "e10": 1.009
      }
    },
    {
      "id": "1f65ab7e-626d-43b8-9d47-46229af0808c",
      "cp": "67742",
      "ville": "Lauterecken",
      "adresse": "Saarbrücker Straße 67",
      "brand": "Ed",
      "lat": 49.650162,
      "lng": 7.585614,
      "fuels": {
        "gazole": 1.009,
        "sp95": 1.009,
        "e10": 1.009
      }
    },
    {
      "id": "0369fe3b-ca59-4db3-94ea-331b6b890581",
      "cp": "55483",
      "ville": "Lautzenhausen",
      "adresse": "An Der Kreisstr. 2",
      "brand": "Shell",
      "lat": 49.931124,
      "lng": 7.277615,
      "fuels": {
        "gazole": 1.009,
        "sp95": 1.009,
        "e10": 1.009
      }
    },
    {
      "id": "6493a030-add5-4b73-8863-b6d7e56c7c45",
      "cp": "56599",
      "ville": "Leutesdorf",
      "adresse": "Hauptstraße 85",
      "brand": "Ed",
      "lat": 50.45414,
      "lng": 7.382616,
      "fuels": {
        "gazole": 1.009,
        "sp95": 1.009,
        "e10": 1.009
      }
    },
    {
      "id": "3553d4c4-e939-4894-98fa-d11c2700b63e",
      "cp": "54619",
      "ville": "Lichtenborn",
      "adresse": "Hauptstr. 14",
      "brand": "Bft",
      "lat": 50.1098,
      "lng": 6.291909,
      "fuels": {
        "gazole": 1.009,
        "sp95": 1.009,
        "e10": 1.009
      }
    },
    {
      "id": "09c3e387-1b81-4c37-8b4b-a8dc01a38ca2",
      "cp": "67117",
      "ville": "Limburgerhof",
      "adresse": "Speyerer-Straße 105 A",
      "brand": "Aral",
      "lat": 49.421963,
      "lng": 8.394073,
      "fuels": {
        "gazole": 1.009,
        "sp95": 1.009,
        "e10": 1.009
      }
    },
    {
      "id": "54f3db7e-cef5-4a99-ad84-a897d207db85",
      "cp": "56332",
      "ville": "Löf",
      "adresse": "Moselstraße 1",
      "brand": "Aral",
      "lat": 50.23959,
      "lng": 7.441824,
      "fuels": {
        "gazole": 1.009,
        "sp95": 1.009,
        "e10": 1.009
      }
    },
    {
      "id": "51d4b603-a095-1aa0-e100-80009459e03a",
      "cp": "67059",
      "ville": "Ludwigshafen",
      "adresse": "Bruchwiesenstr. 146",
      "brand": "Jet",
      "lat": 49.46867,
      "lng": 8.42059,
      "fuels": {
        "gazole": 1.009,
        "sp95": 1.009,
        "e10": 1.009
      }
    },
    {
      "id": "3351c003-c3ee-4e84-922a-d7901fc7b2a6",
      "cp": "67063",
      "ville": "Ludwigshafen",
      "adresse": "Brunckstraße 100",
      "brand": "Aral",
      "lat": 49.503807,
      "lng": 8.4126,
      "fuels": {
        "gazole": 1.009,
        "sp95": 1.009,
        "e10": 1.009
      }
    },
    {
      "id": "d7907605-9463-4dca-b649-2b55e678aa69",
      "cp": "67063",
      "ville": "Ludwigshafen",
      "adresse": "Brunckstraße 101",
      "brand": "oil!",
      "lat": 49.5031,
      "lng": 8.41248,
      "fuels": {
        "gazole": 1.009,
        "sp95": 1.009,
        "e10": 1.009
      }
    },
    {
      "id": "dea14d8a-4166-408f-24e5-04547525f190",
      "cp": "67069",
      "ville": "Ludwigshafen",
      "adresse": "Budapester Str. 3",
      "brand": "Freie Tankstelle",
      "lat": 49.537636,
      "lng": 8.391129,
      "fuels": {
        "gazole": 1.009,
        "sp95": 1.009,
        "e10": 1.009
      }
    },
    {
      "id": "26731d13-0aec-4f1a-aa4b-c0471aa61e1b",
      "cp": "67059",
      "ville": "Ludwigshafen",
      "adresse": "Frankenthaler Straße 222",
      "brand": "Winkler 24h",
      "lat": 49.485292,
      "lng": 8.414747,
      "fuels": {
        "gazole": 1.009,
        "sp95": 1.009,
        "e10": 1.009
      }
    },
    {
      "id": "8210437c-c3e9-4b5a-a62a-8f18c2cee833",
      "cp": "67069",
      "ville": "Ludwigshafen",
      "adresse": "Friesenheimer Str. 47",
      "brand": "Esso",
      "lat": 49.515211,
      "lng": 8.406178,
      "fuels": {
        "gazole": 1.009,
        "sp95": 1.009,
        "e10": 1.009
      }
    },
    {
      "id": "c393f0a6-2197-403a-ac89-e6a59be3ff50",
      "cp": "67065",
      "ville": "Ludwigshafen",
      "adresse": "Hauptstr. 257",
      "brand": "Totalenergies",
      "lat": 49.450165,
      "lng": 8.423482,
      "fuels": {
        "gazole": 1.009,
        "sp95": 1.009,
        "e10": 1.009
      }
    },
    {
      "id": "733da493-02a3-4356-928e-2ec8653b89c6",
      "cp": "67059",
      "ville": "Ludwigshafen",
      "adresse": "Heinigstraße 69",
      "brand": "Aral",
      "lat": 49.481503,
      "lng": 8.439371,
      "fuels": {
        "gazole": 1.009,
        "sp95": 1.009,
        "e10": 1.009
      }
    },
    {
      "id": "e1a15081-25b6-9107-e040-0b0a3dfe563c",
      "cp": "67063",
      "ville": "Ludwigshafen",
      "adresse": "Industriestr. 51",
      "brand": "Hem",
      "lat": 49.4884,
      "lng": 8.4048,
      "fuels": {
        "gazole": 1.009,
        "sp95": 1.009,
        "e10": 1.009
      }
    },
    {
      "id": "51d4b4e4-a095-1aa0-e100-80009459e03a",
      "cp": "67071",
      "ville": "Ludwigshafen",
      "adresse": "Mannheimer Str. 61",
      "brand": "Jet",
      "lat": 49.48915,
      "lng": 8.38425,
      "fuels": {
        "gazole": 1.009,
        "sp95": 1.009,
        "e10": 1.009
      }
    },
    {
      "id": "fd0297ad-c29d-48ac-a33f-47f155103ae5",
      "cp": "67065",
      "ville": "Ludwigshafen",
      "adresse": "Maudacher Str. 289",
      "brand": "Esso",
      "lat": 49.457,
      "lng": 8.4002,
      "fuels": {
        "gazole": 1.009,
        "sp95": 1.009,
        "e10": 1.009
      }
    },
    {
      "id": "7aafc62a-a9e0-4cd2-83ad-345dfec172a0",
      "cp": "67061",
      "ville": "Ludwigshafen",
      "adresse": "Mundenheimer Str. 74",
      "brand": "Tankcenter",
      "lat": 49.463779,
      "lng": 8.436507,
      "fuels": {
        "gazole": 1.009,
        "sp95": 1.009,
        "e10": 1.009
      }
    },
    {
      "id": "3ebc84b4-42be-4f65-a6bd-cc1d38e71513",
      "cp": "67069",
      "ville": "Ludwigshafen",
      "adresse": "Oppauer Straße 108",
      "brand": "Sb",
      "lat": 49.533873,
      "lng": 8.388695,
      "fuels": {
        "gazole": 1.009,
        "sp95": 1.009,
        "e10": 1.009
      }
    },
    {
      "id": "530cb248-0cec-43b6-9057-2d5179deb386",
      "cp": "67069",
      "ville": "Ludwigshafen",
      "adresse": "Oppauer Straße 125",
      "brand": "Aral",
      "lat": 49.53402,
      "lng": 8.388857,
      "fuels": {
        "gazole": 1.009,
        "sp95": 1.009,
        "e10": 1.009
      }
    },
    {
      "id": "76165ca6-3b50-4d24-854a-f079f26321e8",
      "cp": "67071",
      "ville": "Ludwigshafen",
      "adresse": "Prälat-Caire-Straße 14",
      "brand": "Aral",
      "lat": 49.49206,
      "lng": 8.383311,
      "fuels": {
        "gazole": 1.009,
        "sp95": 1.009,
        "e10": 1.009
      }
    },
    {
      "id": "dfbb6353-b29e-42cd-8a00-1c05fe273a78",
      "cp": "67065",
      "ville": "Ludwigshafen",
      "adresse": "Wegelnburgstraße 27",
      "brand": "Aral",
      "lat": 49.457108,
      "lng": 8.431821,
      "fuels": {
        "gazole": 1.009,
        "sp95": 1.009,
        "e10": 1.009
      }
    },
    {
      "id": "cdff494c-2f11-4001-9241-e7cf61c3ebb8",
      "cp": "67061",
      "ville": "Ludwigshafen",
      "adresse": "Zollhofstrasse 8",
      "brand": "Freie Tankstelle",
      "lat": 49.484046,
      "lng": 8.449173,
      "fuels": {
        "gazole": 1.009,
        "sp95": 1.009,
        "e10": 1.009
      }
    },
    {
      "id": "1a4e6624-5f24-4136-8faf-b003f1aed04d",
      "cp": "67071",
      "ville": "Ludwigshafen Am Rhein",
      "adresse": "Duerkheimer Str. 91",
      "brand": "Esso",
      "lat": 49.491457,
      "lng": 8.364139,
      "fuels": {
        "gazole": 1.009,
        "sp95": 1.009,
        "e10": 1.009
      }
    },
    {
      "id": "e6da7859-c6d2-4087-9167-e623721f1f00",
      "cp": "67071",
      "ville": "Ludwigshafen Am Rhein",
      "adresse": "Mannheimer Str. 85",
      "brand": "Shell",
      "lat": 49.488566,
      "lng": 8.38895,
      "fuels": {
        "gazole": 1.009,
        "sp95": 1.009,
        "e10": 1.009
      }
    },
    {
      "id": "fa9f33fa-732a-4722-85da-e46eba880c1b",
      "cp": "67065",
      "ville": "Ludwigshafen Am Rhein",
      "adresse": "Maudacher Str. 194",
      "brand": "Esso",
      "lat": 49.46051,
      "lng": 8.411643,
      "fuels": {
        "gazole": 1.009,
        "sp95": 1.009,
        "e10": 1.009
      }
    },
    {
      "id": "07e07bdc-6b0d-461a-b4b5-88a680f5b229",
      "cp": "67065",
      "ville": "Ludwigshafen Am Rhein",
      "adresse": "Maudacher Str. 298",
      "brand": "Shell",
      "lat": 49.457417,
      "lng": 8.400015,
      "fuels": {
        "gazole": 1.009,
        "sp95": 1.009,
        "e10": 1.009
      }
    },
    {
      "id": "09839b72-1976-4e20-b617-acccecf75ea0",
      "cp": "67063",
      "ville": "Ludwigshafen Am Rhein",
      "adresse": "Sternstr. 101",
      "brand": "Shell",
      "lat": 49.494919,
      "lng": 8.41414,
      "fuels": {
        "gazole": 1.009,
        "sp95": 1.009,
        "e10": 1.009
      }
    },
    {
      "id": "5efe5bd0-bcfd-4fdf-9456-3f0aeb0fa9e4",
      "cp": "67059",
      "ville": "Ludwigshafen Am Rhein",
      "adresse": "Valentin-Bauer-Str. 49",
      "brand": "Shell",
      "lat": 49.479415,
      "lng": 8.426679,
      "fuels": {
        "gazole": 1.009,
        "sp95": 1.009,
        "e10": 1.009
      }
    },
    {
      "id": "51d4b69f-a095-1aa0-e100-80009459e03a",
      "cp": "67071",
      "ville": "Ludwigshafen Oggersheim",
      "adresse": "Oderstr. 2",
      "brand": "Supermarkt-Tankstelle",
      "lat": 49.48872,
      "lng": 8.35119,
      "fuels": {
        "gazole": 1.009,
        "sp95": 1.009,
        "e10": 1.009
      }
    },
    {
      "id": "602a47f1-7182-46b6-bcf5-25c7a1d47572",
      "cp": "67067",
      "ville": "Ludwigshafen-Maudach",
      "adresse": "Bergstr. 34",
      "brand": "Access",
      "lat": 49.453446,
      "lng": 8.375457,
      "fuels": {
        "gazole": 1.009,
        "sp95": 1.009,
        "e10": 1.009
      }
    },
    {
      "id": "400ce1d0-e095-47dd-a0fc-6073edd7c8d2",
      "cp": "67061",
      "ville": "Ludwigshafen-Oggersheim",
      "adresse": "Oderstraße 8c",
      "brand": "Globus Sb Warenhaus",
      "lat": 49.48443,
      "lng": 8.35216,
      "fuels": {
        "gazole": 1.009,
        "sp95": 1.009,
        "e10": 1.009
      }
    },
    {
      "id": "95ffd7a4-2265-49b7-bb44-ab172a952437",
      "cp": "56826",
      "ville": "Lutzerath",
      "adresse": "Trierer Straße 97",
      "brand": "Ed",
      "lat": 50.123962,
      "lng": 7.005759,
      "fuels": {
        "gazole": 1.009,
        "sp95": 1.009,
        "e10": 1.009
      }
    },