{
  "code": "SH",
  "name": "Schleswig-Holstein",
  "fullName": "Schleswig-Holstein",
  "asOf": "2026-06-01T14:45:37.749Z",
  "source": "https://creativecommons.tankerkoenig.de/",
  "licence": "CC BY 4.0 — Bundeskartellamt MTS-K via tankerkoenig.de",
  "mode": "demo",
  "stationCount": 555,
  "fuels": {
    "gazole": {
      "count": 555,
      "mean": 1.009,
      "median": 1.009,
      "min": 1.009,
      "max": 1.009
    },
    "sp95": {
      "count": 555,
      "mean": 1.009,
      "median": 1.009,
      "min": 1.009,
      "max": 1.009
    },
    "e10": {
      "count": 555,
      "mean": 1.009,
      "median": 1.009,
      "min": 1.009,
      "max": 1.009
    }
  },
  "stations": [
    {
      "id": "b50b6987-4476-42b8-8f8f-5ec71e267a1e",
      "cp": "23623",
      "ville": "Ahrensbök",
      "adresse": "Lübecker Str. 29",
      "brand": "Weidemann-Tank",
      "lat": 54.0076,
      "lng": 10.574,
      "fuels": {
        "gazole": 1.009,
        "sp95": 1.009,
        "e10": 1.009
      }
    },
    {
      "id": "54469fb1-b479-11eb-8b4d-005056a27fa7",
      "cp": "23623",
      "ville": "Ahrensbök",
      "adresse": "Lübecker Straße 127",
      "brand": "Classic",
      "lat": 53.99919,
      "lng": 10.57802,
      "fuels": {
        "gazole": 1.009,
        "sp95": 1.009,
        "e10": 1.009
      }
    },
    {
      "id": "6339ccaf-3565-4d8a-a4f4-f7e89c878425",
      "cp": "23623",
      "ville": "Ahrensbök",
      "adresse": "Segeberger Chaussee 2a",
      "brand": "Team",
      "lat": 54.0159,
      "lng": 10.571,
      "fuels": {
        "gazole": 1.009,
        "sp95": 1.009,
        "e10": 1.009
      }
    },
    {
      "id": "005056ba-7cb6-1ed2-bceb-b5cef8478d48",
      "cp": "23623",
      "ville": "Ahrensbök",
      "adresse": "Segeberger Chaussee 9-11",
      "brand": "Star",
      "lat": 54.013953,
      "lng": 10.567645,
      "fuels": {
        "gazole": 1.009,
        "sp95": 1.009,
        "e10": 1.009
      }
    },
    {
      "id": "f869baa1-b122-4145-aa2c-b7b946cf56ff",
      "cp": "25767",
      "ville": "Albersdorf",
      "adresse": "Dithmarsenpark -",
      "brand": "Schillhorn Tankstelle",
      "lat": 54.153131972073,
      "lng": 9.269109465638,
      "fuels": {
        "gazole": 1.009,
        "sp95": 1.009,
        "e10": 1.009
      }
    },
    {
      "id": "ba02d21f-ad5d-4604-8e8a-93f8337d4f5b",
      "cp": "25767",
      "ville": "Albersdorf",
      "adresse": "Friedrichstr. 17",
      "brand": "Shell",
      "lat": 54.14712,
      "lng": 9.280808,
      "fuels": {
        "gazole": 1.009,
        "sp95": 1.009,
        "e10": 1.009
      }
    },
    {
      "id": "d48c21a2-764d-483c-a244-7a6af7a80c2c",
      "cp": "24791",
      "ville": "Alt Duvenstedt",
      "adresse": "A 7",
      "brand": "Aral",
      "lat": 54.36419,
      "lng": 9.670657,
      "fuels": {
        "gazole": 1.009,
        "sp95": 1.009,
        "e10": 1.009
      }
    },
    {
      "id": "0cc158fa-506b-43a7-9411-2c7c6110d9cb",
      "cp": "24791",
      "ville": "Alt Duvenstedt",
      "adresse": "a7 Huettener Berge Ost",
      "brand": "Shell",
      "lat": 54.364226,
      "lng": 9.672773,
      "fuels": {
        "gazole": 1.009,
        "sp95": 1.009,
        "e10": 1.009
      }
    },
    {
      "id": "49b4498c-ba99-4f7e-a6b5-128daf89bba2",
      "cp": "23881",
      "ville": "Alt Mölln",
      "adresse": "Bundesstr. 7",
      "brand": "Nordoel",
      "lat": 53.62164,
      "lng": 10.66207,
      "fuels": {
        "gazole": 1.009,
        "sp95": 1.009,
        "e10": 1.009
      }
    },
    {
      "id": "741059ea-0a93-4d14-a1d3-5063991f25ad",
      "cp": "24161",
      "ville": "Altenholz",
      "adresse": "Daenischenhagener Str. 3",
      "brand": "Esso",
      "lat": 54.381213,
      "lng": 10.134381,
      "fuels": {
        "gazole": 1.009,
        "sp95": 1.009,
        "e10": 1.009
      }
    },
    {
      "id": "66d5971a-021a-42ed-9d69-c0c48c03e7ce",
      "cp": "24161",
      "ville": "Altenholz",
      "adresse": "Klausdorfer Str. 93",
      "brand": "Freie Tankstelle",
      "lat": 54.403218,
      "lng": 10.120689,
      "fuels": {
        "gazole": 1.009,
        "sp95": 1.009,
        "e10": 1.009
      }
    },
    {
      "id": "005056ba-7cb6-1ed2-bceb-a256fd5a8d3e",
      "cp": "24161",
      "ville": "Altenholz",
      "adresse": "Klausdorfer Straße 121",
      "brand": "Star",
      "lat": 54.40597,
      "lng": 10.12324,
      "fuels": {
        "gazole": 1.009,
        "sp95": 1.009,
        "e10": 1.009
      }
    },
    {
      "id": "0db693d5-39b7-435a-9b80-469e05b48d86",
      "cp": "25482",
      "ville": "Appen",
      "adresse": "Hauptstraße 82",
      "brand": "oil!",
      "lat": 53.6599,
      "lng": 9.73545,
      "fuels": {
        "gazole": 1.009,
        "sp95": 1.009,
        "e10": 1.009
      }
    },
    {
      "id": "de1cf612-f137-47d1-8e73-a59ba8b0cb3d",
      "cp": "24326",
      "ville": "Ascheberg",
      "adresse": "Ploener Chaussee 90 A",
      "brand": "Sb",
      "lat": 54.15149,
      "lng": 10.35318,
      "fuels": {
        "gazole": 1.009,
        "sp95": 1.009,
        "e10": 1.009
      }
    },
    {
      "id": "005056ba-7cb6-1ed2-bceb-8f84c8680d35",
      "cp": "24326",
      "ville": "Ascheberg",
      "adresse": "Plöner Chaussee 22",
      "brand": "Star",
      "lat": 54.151863,
      "lng": 10.352353,
      "fuels": {
        "gazole": 1.009,
        "sp95": 1.009,
        "e10": 1.009
      }
    },
    {
      "id": "399858fc-f4f1-4991-bc46-ec91cb2911c5",
      "cp": "24613",
      "ville": "Aukrug-Innien",
      "adresse": "Itzehoer Straße 24",
      "brand": "oil!",
      "lat": 54.0811,
      "lng": 9.78,
      "fuels": {
        "gazole": 1.009,
        "sp95": 1.009,
        "e10": 1.009
      }
    },
    {
      "id": "695dfc2e-0df0-4e20-9f18-a1ada2a24a13",
      "cp": "24576",
      "ville": "Bad Bramstedt",
      "adresse": "Bleeck 35",
      "brand": "Esso",
      "lat": 53.916585,
      "lng": 9.882762,
      "fuels": {
        "gazole": 1.009,
        "sp95": 1.009,
        "e10": 1.009
      }
    },
    {
      "id": "bba680eb-fcfe-483b-a48f-5e7382a92c7b",
      "cp": "24576",
      "ville": "Bad Bramstedt",
      "adresse": "Liethberg 11-13",
      "brand": "Shell",
      "lat": 53.923364,
      "lng": 9.881737,
      "fuels": {
        "gazole": 1.009,
        "sp95": 1.009,
        "e10": 1.009
      }
    },
    {
      "id": "51d4b43a-a095-1aa0-e100-80009459e03a",
      "cp": "24576",
      "ville": "Bad Bramstedt",
      "adresse": "Liethberg 2",
      "brand": "Jet",
      "lat": 53.92167,
      "lng": 9.88196,
      "fuels": {
        "gazole": 1.009,
        "sp95": 1.009,
        "e10": 1.009
      }
    },
    {
      "id": "d1c38e98-6e8c-4202-9914-a3760de44add",
      "cp": "23714",
      "ville": "Bad Malente",
      "adresse": "Eutiner Str. 54",
      "brand": "Access",
      "lat": 54.163445,
      "lng": 10.566369,
      "fuels": {
        "gazole": 1.009,
        "sp95": 1.009,
        "e10": 1.009
      }
    },
    {
      "id": "005056ba-7cb6-1ed2-bceb-960012010d38",
      "cp": "23714",
      "ville": "Bad Malente-Gremsmühlen",
      "adresse": "Eutiner Straße 55",
      "brand": "Star",
      "lat": 54.163689,
      "lng": 10.567077,
      "fuels": {
        "gazole": 1.009,
        "sp95": 1.009,
        "e10": 1.009
      }
    },
    {
      "id": "7ed7858e-7962-4ecf-acb3-517cf24a374d",
      "cp": "23843",
      "ville": "Bad Oldesloe",
      "adresse": "Hamburger Str. 75",
      "brand": "Team",
      "lat": 53.8033,
      "lng": 10.364,
      "fuels": {
        "gazole": 1.009,
        "sp95": 1.009,
        "e10": 1.009
      }
    },
    {
      "id": "bae92205-b32a-4d5b-8493-0fec3f10de07",
      "cp": "23843",
      "ville": "Bad Oldesloe",
      "adresse": "Hamburger Straße 110",
      "brand": "Aral",
      "lat": 53.80307,
      "lng": 10.359054,
      "fuels": {
        "gazole": 1.009,
        "sp95": 1.009,
        "e10": 1.009
      }
    },
    {
      "id": "9b2a37cb-a924-4c58-a2c6-aa97f9d30e19",
      "cp": "23843",
      "ville": "Bad Oldesloe",
      "adresse": "Hermann-Bössow-Str. 2",
      "brand": "Tankpoint",
      "lat": 53.800479,
      "lng": 10.404479,
      "fuels": {
        "gazole": 1.009,
        "sp95": 1.009,
        "e10": 1.009
      }
    },
    {
      "id": "2097612e-5975-4883-8f73-473de34fb484",
      "cp": "23843",
      "ville": "Bad Oldesloe",
      "adresse": "Industriestr. 4",
      "brand": "Access",
      "lat": 53.801945,
      "lng": 10.385834,
      "fuels": {
        "gazole": 1.009,
        "sp95": 1.009,
        "e10": 1.009
      }
    },
    {
      "id": "e57135e7-1fa1-40ef-be92-9b26ebf2491a",
      "cp": "23843",
      "ville": "Bad Oldesloe",
      "adresse": "Industriestr. 5",
      "brand": "Shell",
      "lat": 53.802296,
      "lng": 10.386026,
      "fuels": {
        "gazole": 1.009,
        "sp95": 1.009,
        "e10": 1.009
      }
    },
    {
      "id": "e1a15081-24c1-9107-e040-0b0a3dfe563c",
      "cp": "23843",
      "ville": "Bad Oldesloe",
      "adresse": "Ratzeburger Str. 98",
      "brand": "Hem",
      "lat": 53.804576,
      "lng": 10.39783,
      "fuels": {
        "gazole": 1.009,
        "sp95": 1.009,
        "e10": 1.009
      }
    },
    {
      "id": "551fe4a3-e3e9-4a5c-841d-cf7c70acf4ed",
      "cp": "23843",
      "ville": "Bad Oldesloe",
      "adresse": "Rögen 10",
      "brand": "Avia",
      "lat": 53.801489,
      "lng": 10.342675,
      "fuels": {
        "gazole": 1.009,
        "sp95": 1.009,
        "e10": 1.009
      }
    },
    {
      "id": "1b321eb8-f553-47d6-9f80-70c60647a98e",
      "cp": "23611",
      "ville": "Bad Schwartau",
      "adresse": "Eutiner Str. 4a",
      "brand": "Shell",
      "lat": 53.921235,
      "lng": 10.697596,
      "fuels": {
        "gazole": 1.009,
        "sp95": 1.009,
        "e10": 1.009
      }
    },
    {
      "id": "7c4586a6-1556-4726-b9db-563af19bea78",
      "cp": "23611",
      "ville": "Bad Schwartau",
      "adresse": "Hauptstraße 37",
      "brand": "Nordoel",
      "lat": 53.90666,
      "lng": 10.67574,
      "fuels": {
        "gazole": 1.009,
        "sp95": 1.009,
        "e10": 1.009
      }
    },
    {
      "id": "e293dfca-e2b6-4983-b28a-6a00ea9966b0",
      "cp": "23611",
      "ville": "Bad Schwartau",
      "adresse": "Tremskamp 32",
      "brand": "Avia",
      "lat": 53.90483,
      "lng": 10.69065,
      "fuels": {
        "gazole": 1.009,
        "sp95": 1.009,
        "e10": 1.009
      }
    },
    {
      "id": "80f6a07f-8d38-4de0-9984-84222d90eb6c",
      "cp": "23795",
      "ville": "Bad Segeberg",
      "adresse": "Eutiner Straße 29",
      "brand": "Nordoel",
      "lat": 53.9481,
      "lng": 10.30893,
      "fuels": {
        "gazole": 1.009,
        "sp95": 1.009,
        "e10": 1.009
      }
    },
    {
      "id": "005056ba-7cb6-1ed2-bceb-6753d9128d1f",
      "cp": "23795",
      "ville": "Bad Segeberg",
      "adresse": "Gieschenhagen 2-2a",
      "brand": "Orlen",
      "lat": 53.932783,
      "lng": 10.310417,
      "fuels": {
        "gazole": 1.009,
        "sp95": 1.009,
        "e10": 1.009
      }
    },
    {
      "id": "ba8a440e-5922-4a65-b5cd-58c83453ad34",
      "cp": "23795",
      "ville": "Bad Segeberg",
      "adresse": "Hamburger Straße 103",
      "brand": "Avia",
      "lat": 53.93447,
      "lng": 10.28969,
      "fuels": {
        "gazole": 1.009,
        "sp95": 1.009,
        "e10": 1.009
      }
    },
    {
      "id": "db69a03a-eaff-4049-9bd2-2b8bfbb6d16e",
      "cp": "23795",
      "ville": "Bad Segeberg",
      "adresse": "Ziegelstr. 100",
      "brand": "Shell",
      "lat": 53.946913,
      "lng": 10.303796,
      "fuels": {
        "gazole": 1.009,
        "sp95": 1.009,
        "e10": 1.009
      }
    },
    {
      "id": "d4ad3abf-7011-4434-8911-28aa7783adc3",
      "cp": "23795",
      "ville": "Bad Segeberg",
      "adresse": "Ziegelstraße 46",
      "brand": "Aral",
      "lat": 53.942005,
      "lng": 10.30004,
      "fuels": {
        "gazole": 1.009,
        "sp95": 1.009,
        "e10": 1.009
      }
    },
    {
      "id": "2e4ebea1-1d8e-46d4-aa93-06fd1374c7b3",
      "cp": "23826",
      "ville": "Bark O.T. Bockhorn",
      "adresse": "Bockhorner Landstraße 63a",
      "brand": "Aral",
      "lat": 53.918407,
      "lng": 10.127657,
      "fuels": {
        "gazole": 1.009,
        "sp95": 1.009,
        "e10": 1.009
      }
    },
    {
      "id": "0a637be7-dc90-4ed3-a222-4574de01ba7d",
      "cp": "25355",
      "ville": "Barmstedt",
      "adresse": "Hamburger Straße 65",
      "brand": "Aral",
      "lat": 53.784348,
      "lng": 9.788203,
      "fuels": {
        "gazole": 1.009,
        "sp95": 1.009,
        "e10": 1.009
      }
    },
    {
      "id": "4af748dc-85fd-42b5-8be4-ad47a10ae525",
      "cp": "25355",
      "ville": "Barmstedt",
      "adresse": "Moltkestr. 44",
      "brand": "Esso",
      "lat": 53.78692,
      "lng": 9.754781,
      "fuels": {
        "gazole": 1.009,
        "sp95": 1.009,
        "e10": 1.009
      }
    },
    {
      "id": "e3fb60ec-e346-4c24-a47d-bab7f2ae0af1",
      "cp": "23919",
      "ville": "Berkenthin",
      "adresse": "Oldesloer Straße 1",
      "brand": "oil!",
      "lat": 53.7343,
      "lng": 10.6433,
      "fuels": {
        "gazole": 1.009,
        "sp95": 1.009,
        "e10": 1.009
      }
    },
    {
      "id": "5493d285-2eea-429b-992c-4a3697272618",
      "cp": "23645",
      "ville": "Bockhorn",
      "adresse": "Vareler Str. 6a",
      "brand": "Raiffeisen",
      "lat": 53.39235,
      "lng": 8.031307,
      "fuels": {
        "gazole": 1.009,
        "sp95": 1.009,
        "e10": 1.009
      }
    },
    {
      "id": "4fea853c-1add-4ac7-9d0a-d7c95de80ff1",
      "cp": "25474",
      "ville": "Boenningstedt",
      "adresse": "Kieler Str. 70",
      "brand": "Shell",
      "lat": 53.661696,
      "lng": 9.90685,
      "fuels": {
        "gazole": 1.009,
        "sp95": 1.009,
        "e10": 1.009
      }
    },
    {
      "id": "65131384-915a-4ad7-9327-0e74d3dfe9a8",
      "cp": "25335",
      "ville": "Bokholt-Hanredder",
      "adresse": "Offenau 28",
      "brand": "oil!",
      "lat": 53.777,
      "lng": 9.69974,
      "fuels": {
        "gazole": 1.009,
        "sp95": 1.009,
        "e10": 1.009
      }
    },
    {
      "id": "005056ba-7cb6-1ed2-bceb-9236fea28d35",
      "cp": "24860",
      "ville": "Böklund",
      "adresse": "Schleswiger Straße 17",
      "brand": "Star",
      "lat": 54.601765,
      "lng": 9.584306,
      "fuels": {
        "gazole": 1.009,
        "sp95": 1.009,
        "e10": 1.009
      }
    },
    {
      "id": "689dd892-7b9d-4ea9-8237-9e9bd8d3227b",
      "cp": "24598",
      "ville": "Boostedt",
      "adresse": "Bahnhofstr. 50",
      "brand": "Shell",
      "lat": 54.0142,
      "lng": 10.02063,
      "fuels": {
        "gazole": 1.009,
        "sp95": 1.009,
        "e10": 1.009
      }
    },
    {
      "id": "1b83d779-a18c-4c8b-b460-1d8b0505a223",
      "cp": "24582",
      "ville": "Bordesholm",
      "adresse": "Bahnhofstr. 78",
      "brand": "Shell",
      "lat": 54.173325,
      "lng": 10.035081,
      "fuels": {
        "gazole": 1.009,
        "sp95": 1.009,
        "e10": 1.009
      }
    },
    {
      "id": "c342f7c1-3301-4a62-8e5c-cc5a43be95ab",
      "cp": "24582",
      "ville": "Bordesholm",
      "adresse": "Kieler Str. 37-39",
      "brand": "Shell",
      "lat": 54.176561,
      "lng": 10.026086,
      "fuels": {
        "gazole": 1.009,
        "sp95": 1.009,
        "e10": 1.009
      }
    },
    {
      "id": "66eb6caf-6583-4579-8612-ebf1f6c96510",
      "cp": "24619",
      "ville": "Bornhöved",
      "adresse": "Kronberg 6",
      "brand": "",
      "lat": 54.069353,
      "lng": 10.231669,
      "fuels": {
        "gazole": 1.009,
        "sp95": 1.009,
        "e10": 1.009
      }
    },
    {
      "id": "e1a15081-24d6-9107-e040-0b0a3dfe563c",
      "cp": "25821",
      "ville": "Bredstedt",
      "adresse": "Herrmannstr. 55",
      "brand": "Hem",
      "lat": 54.623041,
      "lng": 8.966978,
      "fuels": {
        "gazole": 1.009,
        "sp95": 1.009,
        "e10": 1.009
      }
    },
    {
      "id": "400912d4-d062-4ad7-98b3-bbfb10192b17",
      "cp": "25821",
      "ville": "Bredstedt",
      "adresse": "Husumer Str. 28",
      "brand": "Classic",
      "lat": 54.6148,
      "lng": 8.97426,
      "fuels": {
        "gazole": 1.009,
        "sp95": 1.009,
        "e10": 1.009
      }
    },
    {
      "id": "005056ba-7cb6-1ed2-bceb-a431ce3c0d3e",
      "cp": "25821",
      "ville": "Bredstedt",
      "adresse": "Tondernsche Straße 1-5",
      "brand": "Orlen",
      "lat": 54.623057,
      "lng": 8.959666,
      "fuels": {
        "gazole": 1.009,
        "sp95": 1.009,
        "e10": 1.009
      }
    },
    {
      "id": "5b9216c3-a1bb-4e15-929b-696b8d9fbbf4",
      "cp": "25524",
      "ville": "Breitenburg",
      "adresse": "Elmshorner Straße 36",
      "brand": "Aral",
      "lat": 53.905807,
      "lng": 9.507933,
      "fuels": {
        "gazole": 1.009,
        "sp95": 1.009,
        "e10": 1.009
      }
    },
    {
      "id": "764e55af-3d85-40a5-b1b7-8e4b420529cc",
      "cp": "23881",
      "ville": "Breitenfelde",
      "adresse": "Bundesstr. 5a",
      "brand": "Raiffeisen",
      "lat": 53.60958,
      "lng": 10.637188,
      "fuels": {
        "gazole": 1.009,
        "sp95": 1.009,
        "e10": 1.009
      }
    },
    {
      "id": "f08ed4f0-ddbc-4a4d-99cd-490da5fd6b68",
      "cp": "23881",
      "ville": "Breitenfelde",
      "adresse": "Bundesstr. 9",
      "brand": "Esso",
      "lat": 53.609147,
      "lng": 10.635618,
      "fuels": {
        "gazole": 1.009,
        "sp95": 1.009,
        "e10": 1.009
      }
    },
    {
      "id": "e1a15081-24d7-9107-e040-0b0a3dfe563c",
      "cp": "24623",
      "ville": "Brokenlande",
      "adresse": "Apothekerholz 3",
      "brand": "Tamoil",
      "lat": 54.012177,
      "lng": 9.932863,
      "fuels": {
        "gazole": 1.009,
        "sp95": 1.009,
        "e10": 1.009
      }
    },
    {
      "id": "4e31b5d7-9140-43c7-a0b9-771d9faf405c",
      "cp": "24616",
      "ville": "Brokstedt",
      "adresse": "Dörnbek 33",
      "brand": "oil!",
      "lat": 53.9951,
      "lng": 9.81972,
      "fuels": {
        "gazole": 1.009,
        "sp95": 1.009,
        "e10": 1.009
      }
    },
    {
      "id": "b3e6acac-9331-420b-82f9-a080bcda2791",
      "cp": "25541",
      "ville": "Brunsbuettel",
      "adresse": "Olof-Palme-Allee 5",
      "brand": "Totalenergies",
      "lat": 53.902145,
      "lng": 9.122195,
      "fuels": {
        "gazole": 1.009,
        "sp95": 1.009,
        "e10": 1.009
      }
    },
    {
      "id": "c513c273-c678-4532-acdb-6a298884ab7a",
      "cp": "25541",
      "ville": "Brunsbüttel",
      "adresse": "Kuferstraße 9a",
      "brand": "Schillhorn Tankstellen",
      "lat": 53.91050751931,
      "lng": 9.1401339951064,
      "fuels": {
        "gazole": 1.009,
        "sp95": 1.009,
        "e10": 1.009
      }
    },
    {
      "id": "96bb95b8-a3c9-4ea4-869b-8ed9dc9a82e2",
      "cp": "25541",
      "ville": "Brunsbüttel",
      "adresse": "Olof-Palme-Allee 2",
      "brand": "Aral",
      "lat": 53.90042,
      "lng": 9.121024,
      "fuels": {
        "gazole": 1.009,
        "sp95": 1.009,
        "e10": 1.009
      }
    },
    {
      "id": "059b3ff9-494a-4589-84cd-0de994eb32e9",
      "cp": "24782",
      "ville": "Büdelsdorf",
      "adresse": "Holler Str. 106",
      "brand": "Classic",
      "lat": 54.3166,
      "lng": 9.68294,
      "fuels": {
        "gazole": 1.009,
        "sp95": 1.009,
        "e10": 1.009
      }
    },
    {
      "id": "51d4b5e2-a095-1aa0-e100-80009459e03a",
      "cp": "24782",
      "ville": "Buedelsdorf",
      "adresse": "Hollerstr. 76",
      "brand": "Jet",
      "lat": 54.31498,
      "lng": 9.67696,
      "fuels": {
        "gazole": 1.009,
        "sp95": 1.009,
        "e10": 1.009
      }
    },
    {
      "id": "bb85d365-dfc1-426c-b6d0-6ce46765e42a",
      "cp": "25761",
      "ville": "Buesum",
      "adresse": "Heider Str. 8 A",
      "brand": "Shell",
      "lat": 54.13689,
      "lng": 8.870579,
      "fuels": {
        "gazole": 1.009,
        "sp95": 1.009,
        "e10": 1.009
      }
    },
    {
      "id": "75267800-db14-470c-93e4-9917d689ff48",
      "cp": "25712",
      "ville": "Burg",
      "adresse": "Burgstr. 11",
      "brand": "Nordoel",
      "lat": 53.995678,
      "lng": 9.265707,
      "fuels": {
        "gazole": 1.009,
        "sp95": 1.009,
        "e10": 1.009
      }
    },
    {
      "id": "e9e4fbe0-5e51-43b1-a43a-38a2e693f8e3",
      "cp": "23769",
      "ville": "Burg",
      "adresse": "Landkirchener Weg 49",
      "brand": "Esso",
      "lat": 54.44236553,
      "lng": 11.18437159,
      "fuels": {
        "gazole": 1.009,
        "sp95": 1.009,
        "e10": 1.009
      }
    },
    {
      "id": "005056ba-7cb6-1ed2-bceb-63004f2a4d1d",
      "cp": "25712",
      "ville": "Burg",
      "adresse": "Lindenstraße 9",
      "brand": "Star",
      "lat": 53.999406,
      "lng": 9.263104,
      "fuels": {
        "gazole": 1.009,
        "sp95": 1.009,
        "e10": 1.009
      }
    },
    {
      "id": "3a5bc2d0-63b6-49e6-a471-356ea97acce6",
      "cp": "24866",
      "ville": "Busdorf",
      "adresse": "Wittgenstein 2",
      "brand": "Shell",
      "lat": 54.477169,
      "lng": 9.544974,
      "fuels": {
        "gazole": 1.009,
        "sp95": 1.009,
        "e10": 1.009
      }
    },
    {
      "id": "90632b7c-a552-41f5-a6f2-a3c023eda072",
      "cp": "25761",
      "ville": "Büsum",
      "adresse": "Am Fischereihafen 31",
      "brand": "Schillhorn Tankstelle",
      "lat": 54.126373804891,
      "lng": 8.8606138555321,
      "fuels": {
        "gazole": 1.009,
        "sp95": 1.009,
        "e10": 1.009
      }
    },
    {
      "id": "48860966-156b-4e1f-8771-2e9a3b4a90fc",
      "cp": "25761",
      "ville": "Büsum",
      "adresse": "Heider Straße 16 A",
      "brand": "oil! (automatenstation)",
      "lat": 54.1353,
      "lng": 8.8684,
      "fuels": {
        "gazole": 1.009,
        "sp95": 1.009,
        "e10": 1.009
      }
    },
    {
      "id": "4b8aa5c9-9d34-4e4a-b83d-5e7cfa7e62db",
      "cp": "25572",
      "ville": "Büttel",
      "adresse": "Hauptstr. 7",
      "brand": "oil! (automatenstation)",
      "lat": 53.9003,
      "lng": 9.22746,
      "fuels": {
        "gazole": 1.009,
        "sp95": 1.009,
        "e10": 1.009
      }
    },
    {
      "id": "2a87fdb0-0c92-55a3-8850-6af1cbdaa374",
      "cp": "25578",
      "ville": "Dägeling",
      "adresse": "Itzehoer Str. 14",
      "brand": "Hoyer",
      "lat": 53.8897857666,
      "lng": 9.52066040039,
      "fuels": {
        "gazole": 1.009,
        "sp95": 1.009,
        "e10": 1.009
      }
    },
    {
      "id": "5bfd411e-2317-4dac-8081-4dbed736da38",
      "cp": "23747",
      "ville": "Dahme",
      "adresse": "Seestraße 5",
      "brand": "Avia",
      "lat": 54.223963,
      "lng": 11.081603,
      "fuels": {
        "gazole": 1.009,
        "sp95": 1.009,
        "e10": 1.009
      }
    },
    {
      "id": "d1860c88-ce57-4698-8232-dfed015c0b8f",
      "cp": "23942",
      "ville": "Dassow",
      "adresse": "Friedensstr. 88",
      "brand": "Totalenergies",
      "lat": 53.913089,
      "lng": 10.977469,
      "fuels": {
        "gazole": 1.009,
        "sp95": 1.009,
        "e10": 1.009
      }
    },
    {
      "id": "ff97d57d-1290-4235-91e1-44d28072acb6",
      "cp": "24589",
      "ville": "Dätgen",
      "adresse": "Grotwisch 2",
      "brand": "Aral",
      "lat": 54.180058,
      "lng": 9.94417,
      "fuels": {
        "gazole": 1.009,
        "sp95": 1.009,
        "e10": 1.009
      }
    },
    {
      "id": "e1a15081-2585-9107-e040-0b0a3dfe563c",
      "cp": "23972",
      "ville": "Dorf Mecklenburg",
      "adresse": "Akazienstr. 1",
      "brand": "Hem",
      "lat": 53.852432,
      "lng": 11.45646,
      "fuels": {
        "gazole": 1.009,
        "sp95": 1.009,
        "e10": 1.009
      }
    },
    {
      "id": "26526738-7a87-4b87-e8ec-d7c87d55125c",
      "cp": "24869",
      "ville": "Dörpstedt",
      "adresse": "Hauptstraße 24",
      "brand": "Freie Tankstelle",
      "lat": 54.441272,
      "lng": 9.359579,
      "fuels": {
        "gazole": 1.009,
        "sp95": 1.009,
        "e10": 1.009
      }
    },
    {
      "id": "51d4b6db-a095-1aa0-e100-80009459e03a",
      "cp": "24340",
      "ville": "Eckernfoerde",
      "adresse": "Berliner Str. 21",
      "brand": "Jet",
      "lat": 54.46294,
      "lng": 9.83994,
      "fuels": {
        "gazole": 1.009,
        "sp95": 1.009,
        "e10": 1.009
      }
    },
    {
      "id": "2b4118c1-3464-4a0b-84d2-2760624ede81",
      "cp": "24340",
      "ville": "Eckernförde",
      "adresse": "Flensburger Straße 1",
      "brand": "Aral",
      "lat": 54.465046,
      "lng": 9.834287,
      "fuels": {
        "gazole": 1.009,
        "sp95": 1.009,
        "e10": 1.009
      }
    },
    {
      "id": "005056ba-7cb6-1ed2-bceb-5704c31fcd16",
      "cp": "24340",
      "ville": "Eckernförde",
      "adresse": "Mühlenberg 2",
      "brand": "Star",
      "lat": 54.47481,
      "lng": 9.833493,
      "fuels": {
        "gazole": 1.009,
        "sp95": 1.009,
        "e10": 1.009
      }
    },
    {
      "id": "005056ba-7cb6-1ed2-bceb-62c21e1eed1d",
      "cp": "24340",
      "ville": "Eckernförde",
      "adresse": "Ostlandstraße 101",
      "brand": "Sonstige",
      "lat": 54.48715,
      "lng": 9.82259,
      "fuels": {
        "gazole": 1.009,
        "sp95": 1.009,
        "e10": 1.009
      }
    },
    {
      "id": "005056ba-7cb6-1ed2-bceb-cc63144c0d54",
      "cp": "24340",
      "ville": "Eckernförde",
      "adresse": "Rendsburger Straße 111",
      "brand": "Orlen",
      "lat": 54.454738,
      "lng": 9.83513,
      "fuels": {
        "gazole": 1.009,
        "sp95": 1.009,
        "e10": 1.009
      }
    },
    {
      "id": "68b9f88b-7999-4d22-bcf2-902d53cfa928",
      "cp": "24340",
      "ville": "Eckernförde",
      "adresse": "Rendsburger Straße 125",
      "brand": "Nordoel",
      "lat": 54.452001,
      "lng": 9.832695,
      "fuels": {
        "gazole": 1.009,
        "sp95": 1.009,
        "e10": 1.009
      }
    },
    {
      "id": "618f05b4-1125-484a-b747-373882165ff1",
      "cp": "25715",
      "ville": "Eddelak",
      "adresse": "Bahnhofstraße 109",
      "brand": "Schillhorn Tankstelle",
      "lat": 53.951157195696,
      "lng": 9.1525742047918,
      "fuels": {
        "gazole": 1.009,
        "sp95": 1.009,
        "e10": 1.009
      }
    },
    {
      "id": "6b4448f2-82b3-4605-ad45-ceb716192876",
      "cp": "25715",
      "ville": "Eddelak",
      "adresse": "Norderstr. 11",
      "brand": "Nordoel",
      "lat": 53.946523,
      "lng": 9.136388,
      "fuels": {
        "gazole": 1.009,
        "sp95": 1.009,
        "e10": 1.009
      }
    },
    {
      "id": "dc5f6d3a-0709-469f-89c2-4077a7885948",
      "cp": "24852",
      "ville": "Eggebek",
      "adresse": "Stapelholmer Weg 1a",
      "brand": "Team",
      "lat": 54.6215,
      "lng": 9.37943,
      "fuels": {
        "gazole": 1.009,
        "sp95": 1.009,
        "e10": 1.009
      }
    },
    {
      "id": "8e119d96-31aa-4614-8492-cc28ca3f284a",
      "cp": "24870",
      "ville": "Ellingstedt",
      "adresse": "Dorfstr. 22",
      "brand": "Team",
      "lat": 54.4768,
      "lng": 9.4104,
      "fuels": {
        "gazole": 1.009,
        "sp95": 1.009,
        "e10": 1.009
      }
    },
    {
      "id": "827b3344-b755-49c2-8314-1ee459baa557",
      "cp": "23869",
      "ville": "Elmenhorst",
      "adresse": "Bundesstr. 20",
      "brand": "Shell",
      "lat": 53.76511,
      "lng": 10.263023,
      "fuels": {
        "gazole": 1.009,
        "sp95": 1.009,
        "e10": 1.009
      }
    },
    {
      "id": "a9d0aa8f-9089-4c52-b29c-dcf45783c9a6",
      "cp": "25335",
      "ville": "Elmshorn",
      "adresse": "Friedensallee 92",
      "brand": "Aral",
      "lat": 53.763847,
      "lng": 9.662711,
      "fuels": {
        "gazole": 1.009,
        "sp95": 1.009,
        "e10": 1.009
      }
    },
    {
      "id": "1ceea95b-d46e-4159-91f6-71f57d612bdb",
      "cp": "25337",
      "ville": "Elmshorn",
      "adresse": "Hamburger Str. 100",
      "brand": "Nordoel",
      "lat": 53.74892,
      "lng": 9.6777,
      "fuels": {
        "gazole": 1.009,
        "sp95": 1.009,
        "e10": 1.009
      }
    },
    {
      "id": "51d4b69e-a095-1aa0-e100-80009459e03a",
      "cp": "25337",
      "ville": "Elmshorn",
      "adresse": "Hamburger Str. 110",
      "brand": "Jet",
      "lat": 53.7494,
      "lng": 9.67901,
      "fuels": {
        "gazole": 1.009,
        "sp95": 1.009,
        "e10": 1.009
      }
    },
    {
      "id": "5e9a0aaf-c0ad-4670-a58e-617be7dce409",
      "cp": "25337",
      "ville": "Elmshorn",
      "adresse": "Hamburger Str. 211",
      "brand": "Esso",
      "lat": 53.748216,
      "lng": 9.694017,
      "fuels": {
        "gazole": 1.009,
        "sp95": 1.009,
        "e10": 1.009
      }
    },
    {
      "id": "005056ba-7cb6-1ed2-bceb-bc577a5e6d4e",
      "cp": "25337",
      "ville": "Elmshorn",
      "adresse": "Hamburger Straße 141",
      "brand": "Orlen",
      "lat": 53.749915,
      "lng": 9.681535,
      "fuels": {
        "gazole": 1.009,
        "sp95": 1.009,
        "e10": 1.009
      }
    },
    {
      "id": "005056ba-7cb6-1ed2-bceb-65ef408c0d1d",
      "cp": "25337",
      "ville": "Elmshorn",
      "adresse": "Köllner Chaussee 98",
      "brand": "Orlen",
      "lat": 53.755285,
      "lng": 9.680767,
      "fuels": {
        "gazole": 1.009,
        "sp95": 1.009,
        "e10": 1.009
      }
    },
    {
      "id": "e1a15081-24e2-9107-e040-0b0a3dfe563c",
      "cp": "25337",
      "ville": "Elmshorn",
      "adresse": "Ramskamp 67",
      "brand": "Hem",
      "lat": 53.741504,
      "lng": 9.697177,
      "fuels": {
        "gazole": 1.009,
        "sp95": 1.009,
        "e10": 1.009
      }
    },
    {
      "id": "6b97eb19-d5b1-41eb-b473-b13095351395",
      "cp": "25336",
      "ville": "Elmshorn",
      "adresse": "Reichenstr. 12-14",
      "brand": "Esso",
      "lat": 53.748865,
      "lng": 9.657759,
      "fuels": {
        "gazole": 1.009,
        "sp95": 1.009,
        "e10": 1.009
      }
    },
    {
      "id": "600fc84e-4c77-4aee-bead-d2e0de96aba6",
      "cp": "25335",
      "ville": "Elmshorn",
      "adresse": "Turnstr. 3",
      "brand": "Totalenergies",
      "lat": 53.754605,
      "lng": 9.641849,
      "fuels": {
        "gazole": 1.009,
        "sp95": 1.009,
        "e10": 1.009
      }
    },
    {
      "id": "42d8402c-7f2b-4c41-84bf-ef867d40f3c5",
      "cp": "25337",
      "ville": "Elmshorn",
      "adresse": "Werner-Von-Siemens-Straße 1",
      "brand": "Aral",
      "lat": 53.745525,
      "lng": 9.705794,
      "fuels": {
        "gazole": 1.009,
        "sp95": 1.009,
        "e10": 1.009
      }
    },
    {
      "id": "f14d0bea-b10f-464c-8cd5-156250eb3ea0",
      "cp": "24800",
      "ville": "Elsdorf - Westermühlen ?",
      "adresse": "Hauptstr. 18",
      "brand": "Classic",
      "lat": 54.2515,
      "lng": 9.53257,
      "fuels": {
        "gazole": 1.009,
        "sp95": 1.009,
        "e10": 1.009
      }
    },
    {
      "id": "2afcfc87-942e-4fd6-8ed3-2739a9e2fd4b",
      "cp": "24803",
      "ville": "Erfde",
      "adresse": "Landstr. 10",
      "brand": "Classic",
      "lat": 54.3095,
      "lng": 9.32313,
      "fuels": {
        "gazole": 1.009,
        "sp95": 1.009,
        "e10": 1.009
      }
    },
    {
      "id": "00061903-357e-4444-8888-acdc00000001",
      "cp": "24803",
      "ville": "Erfde",
      "adresse": "Süderende 27",
      "brand": "Schillhorn Tankstellen",
      "lat": 54.305269,
      "lng": 9.318611,
      "fuels": {
        "gazole": 1.009,
        "sp95": 1.009,
        "e10": 1.009
      }
    },
    {
      "id": "a659f6c1-06ba-4ef6-9d92-dd984a626601",
      "cp": "23701",
      "ville": "Eutin",
      "adresse": "Bgm.-Steenbock-Str. 39",
      "brand": "Aral",
      "lat": 54.12886,
      "lng": 10.624868,
      "fuels": {
        "gazole": 1.009,
        "sp95": 1.009,
        "e10": 1.009
      }
    },
    {
      "id": "90b485bb-e2a0-4a2b-8148-16b0de1db7f2",
      "cp": "23701",
      "ville": "Eutin",
      "adresse": "Lübecker Landstr 36",
      "brand": "Shell",
      "lat": 54.125069,
      "lng": 10.629098,
      "fuels": {
        "gazole": 1.009,
        "sp95": 1.009,
        "e10": 1.009
      }
    },
    {
      "id": "678282dd-2b24-46ca-b74f-b0d703f9d60e",
      "cp": "23701",
      "ville": "Eutin",
      "adresse": "Ploener Landstraße 7",
      "brand": "Aral",
      "lat": 54.12896,
      "lng": 10.58002,
      "fuels": {
        "gazole": 1.009,
        "sp95": 1.009,
        "e10": 1.009
      }
    },
    {
      "id": "005056ba-7cb6-1ed2-bceb-624c2b586d1d",
      "cp": "23701",
      "ville": "Eutin",
      "adresse": "Plöner Landstraße 8-10",
      "brand": "Famila",
      "lat": 54.12927,
      "lng": 10.57951,
      "fuels": {
        "gazole": 1.009,
        "sp95": 1.009,
        "e10": 1.009
      }
    },
    {
      "id": "005056ba-7cb6-1ed2-bceb-811439044d2d",
      "cp": "24857",
      "ville": "Fahrdorf",
      "adresse": "An Der B 76",
      "brand": "Star",
      "lat": 54.495491,
      "lng": 9.61367,
      "fuels": {
        "gazole": 1.009,
        "sp95": 1.009,
        "e10": 1.009
      }
    },
    {
      "id": "cdb5e44c-6766-4e8e-b409-f47a8031a43f",
      "cp": "23769",
      "ville": "Fehmarn",
      "adresse": "Hauptstraße 61",
      "brand": "Raiffeisen",
      "lat": 54.45252,
      "lng": 11.14582,
      "fuels": {
        "gazole": 1.009,
        "sp95": 1.009,
        "e10": 1.009
      }
    },
    {
      "id": "28bbb5ac-cb67-43af-adb9-110dbca059e6",
      "cp": "23769",
      "ville": "Fehmarn (burg)",
      "adresse": "Landkirchener Weg 38",
      "brand": "Bft-Willer",
      "lat": 54.4424,
      "lng": 11.182,
      "fuels": {
        "gazole": 1.009,
        "sp95": 1.009,
        "e10": 1.009
      }
    },
    {
      "id": "d7a41125-36ca-40c9-bd8c-7e5510f623ed",
      "cp": "24242",
      "ville": "Felde",
      "adresse": "Klein Nordseer Str. 35-37",
      "brand": "Bft-Willer",
      "lat": 54.3166,
      "lng": 9.958,
      "fuels": {
        "gazole": 1.009,
        "sp95": 1.009,
        "e10": 1.009
      }
    },
    {
      "id": "298611ee-c944-4de1-a2b8-124e18f7ff9c",
      "cp": "24357",
      "ville": "Fleckeby",
      "adresse": "Am Holm 1",
      "brand": "Bft-Willer",
      "lat": 54.4834,
      "lng": 9.7021,
      "fuels": {
        "gazole": 1.009,
        "sp95": 1.009,
        "e10": 1.009
      }
    },
    {
      "id": "3ecad341-4d68-4f06-adad-04bcf483596d",
      "cp": "24941",
      "ville": "Flensburg",
      "adresse": "Am Friedenshügel 39",
      "brand": "Team",
      "lat": 54.77585,
      "lng": 9.407981,
      "fuels": {
        "gazole": 1.009,
        "sp95": 1.009,
        "e10": 1.009
      }
    },
    {
      "id": "7c7de396-0c53-42f9-8d5d-1e9d7e8e0a10",
      "cp": "24941",
      "ville": "Flensburg",
      "adresse": "Am Sophienhof 2",
      "brand": "Wiking",
      "lat": 54.762856,
      "lng": 9.416483,
      "fuels": {
        "gazole": 1.009,
        "sp95": 1.009,
        "e10": 1.009
      }
    },
    {
      "id": "d1aab9e0-d758-497a-bab1-6c351fa2e860",
      "cp": "24939",
      "ville": "Flensburg",
      "adresse": "Apenrader Str. 109",
      "brand": "oil!",
      "lat": 54.8086,
      "lng": 9.42204,
      "fuels": {
        "gazole": 1.009,
        "sp95": 1.009,
        "e10": 1.009
      }
    },
    {
      "id": "005056ba-7cb6-1ed2-bceb-ade90e34cd45",
      "cp": "24944",
      "ville": "Flensburg",
      "adresse": "Fördestraße 80",
      "brand": "Star",
      "lat": 54.816574,
      "lng": 9.474506,
      "fuels": {
        "gazole": 1.009,
        "sp95": 1.009,
        "e10": 1.009
      }
    },
    {
      "id": "2d946631-f38b-403e-88f5-99d4ace480df",
      "cp": "24937",
      "ville": "Flensburg",
      "adresse": "Friesische Str. 191",
      "brand": "Shell",
      "lat": 54.778006,
      "lng": 9.41502,
      "fuels": {
        "gazole": 1.009,
        "sp95": 1.009,
        "e10": 1.009
      }
    },
    {
      "id": "aab6d7fb-288e-4f29-95d4-081e9035c1b5",
      "cp": "24939",
      "ville": "Flensburg",
      "adresse": "Harrisleer Str. 98",
      "brand": "Shell",
      "lat": 54.799073,
      "lng": 9.412012,
      "fuels": {
        "gazole": 1.009,
        "sp95": 1.009,
        "e10": 1.009
      }
    },
    {
      "id": "eccc877c-c260-4131-8fe8-327982249189",
      "cp": "24941",
      "ville": "Flensburg",
      "adresse": "Husumer Straße 29",
      "brand": "oil!",
      "lat": 54.7775,
      "lng": 9.43135,
      "fuels": {
        "gazole": 1.009,
        "sp95": 1.009,
        "e10": 1.009
      }
    },
    {
      "id": "2883825f-bbcb-489a-bbb2-045d2600cd2c",
      "cp": "24941",
      "ville": "Flensburg",
      "adresse": "Husumer Straße 30",
      "brand": "Aral",
      "lat": 54.775036,
      "lng": 9.426041,
      "fuels": {
        "gazole": 1.009,
        "sp95": 1.009,
        "e10": 1.009
      }
    },
    {
      "id": "95cf43d0-b21a-480f-8dc4-4eb75e48d9c9",
      "cp": "24937",
      "ville": "Flensburg",
      "adresse": "Kielseng 1",
      "brand": "Shell",
      "lat": 54.80138,
      "lng": 9.44182,
      "fuels": {
        "gazole": 1.009,
        "sp95": 1.009,
        "e10": 1.009
      }
    },
    {
      "id": "fcb60aff-baf5-11ec-8ab7-005056a27fa7",
      "cp": "24941",
      "ville": "Flensburg",
      "adresse": "Liebigstr 10",
      "brand": "Classic",
      "lat": 54.76696,
      "lng": 9.42599,
      "fuels": {
        "gazole": 1.009,
        "sp95": 1.009,
        "e10": 1.009
      }
    },
    {
      "id": "005056ba-7cb6-1ed2-bceb-911ab4eccd35",
      "cp": "24941",
      "ville": "Flensburg",
      "adresse": "Lilienthalstraße 4",
      "brand": "Orlen",
      "lat": 54.77443,
      "lng": 9.39436,
      "fuels": {
        "gazole": 1.009,
        "sp95": 1.009,
        "e10": 1.009
      }
    },
    {
      "id": "d6f70fe0-2778-4e8b-9395-e0f48dd22d06",
      "cp": "24941",
      "ville": "Flensburg",
      "adresse": "Lise-Meitner-Str. 31",
      "brand": "Wiking",
      "lat": 54.760808,
      "lng": 9.436532,
      "fuels": {
        "gazole": 1.009,
        "sp95": 1.009,
        "e10": 1.009
      }
    },
    {
      "id": "f50a465d-0a04-4131-845f-fe2e96d54f4d",
      "cp": "24941",
      "ville": "Flensburg",
      "adresse": "Marie-Curie-Ring 45",
      "brand": "Team",
      "lat": 54.7631,
      "lng": 9.44895,
      "fuels": {
        "gazole": 1.009,
        "sp95": 1.009,
        "e10": 1.009
      }
    },
    {
      "id": "005056ba-7cb6-1ed2-bceb-763b4a24cd25",
      "cp": "24937",
      "ville": "Flensburg",
      "adresse": "Marienallee 60",
      "brand": "Orlen",
      "lat": 54.778744,
      "lng": 9.414377,
      "fuels": {
        "gazole": 1.009,
        "sp95": 1.009,
        "e10": 1.009
      }
    },
    {
      "id": "f9ea25a3-9351-494d-94ed-5aa4cc06b044",
      "cp": "24943",
      "ville": "Flensburg",
      "adresse": "Muerwiker Str. 120",
      "brand": "Shell",
      "lat": 54.803235,
      "lng": 9.456434,
      "fuels": {
        "gazole": 1.009,
        "sp95": 1.009,
        "e10": 1.009
      }
    },
    {
      "id": "1ad457e8-7dad-40bd-88f1-756233d6596b",
      "cp": "24939",
      "ville": "Flensburg",
      "adresse": "Neustadt 14",
      "brand": "Wiking",
      "lat": 54.79669,
      "lng": 9.42907,
      "fuels": {
        "gazole": 1.009,
        "sp95": 1.009,
        "e10": 1.009
      }
    },
    {
      "id": "5c8d864e-2f19-466d-9ed6-3725c0331fec",
      "cp": "24943",
      "ville": "Flensburg",
      "adresse": "Nordstraße 20",
      "brand": "Aral",
      "lat": 54.79709,
      "lng": 9.476214,
      "fuels": {
        "gazole": 1.009,
        "sp95": 1.009,
        "e10": 1.009
      }
    },
    {
      "id": "677eb940-74a9-4027-889e-30c69bad4b67",
      "cp": "24941",
      "ville": "Flensburg",
      "adresse": "Ochsenweg 18",
      "brand": "Shell",
      "lat": 54.756387,
      "lng": 9.401834,
      "fuels": {
        "gazole": 1.009,
        "sp95": 1.009,
        "e10": 1.009
      }
    },
    {
      "id": "31c5f556-4f9c-4cbb-a8fd-fc1518978e9a",
      "cp": "24944",
      "ville": "Flensburg",
      "adresse": "Osterallee 207",
      "brand": "oil!",
      "lat": 54.8032,
      "lng": 9.48798,
      "fuels": {
        "gazole": 1.009,
        "sp95": 1.009,
        "e10": 1.009
      }
    },
    {
      "id": "4e108d2b-f820-4dcd-b64f-8c86667eff71",
      "cp": "24944",
      "ville": "Flensburg",
      "adresse": "Schottweg 96",
      "brand": "Team",
      "lat": 54.799,
      "lng": 9.47569,
      "fuels": {
        "gazole": 1.009,
        "sp95": 1.009,
        "e10": 1.009
      }
    },
    {
      "id": "005056ba-7cb6-1ed2-bceb-63e36c0b4d1d",
      "cp": "24220",
      "ville": "Flintbek",
      "adresse": "Max-Planck-Straße 2",
      "brand": "Orlen",
      "lat": 54.239907,
      "lng": 10.054633,
      "fuels": {
        "gazole": 1.009,
        "sp95": 1.009,
        "e10": 1.009
      }
    },
    {
      "id": "34803f1c-821f-477e-a6e0-4aaf2a1700c9",
      "cp": "24787",
      "ville": "Fockbek",
      "adresse": "Harald-Striewski-Straße 11",
      "brand": "Raiffeisen",
      "lat": 54.31105,
      "lng": 9.597997,
      "fuels": {
        "gazole": 1.009,
        "sp95": 1.009,
        "e10": 1.009
      }
    },
    {
      "id": "e000fe06-65a0-4c06-9927-6d1eb8b075df",
      "cp": "24787",
      "ville": "Fockbek",
      "adresse": "Rendsburger Str. 8",
      "brand": "Bft-Willer",
      "lat": 54.3086,
      "lng": 9.6109,
      "fuels": {
        "gazole": 1.009,
        "sp95": 1.009,
        "e10": 1.009
      }
    },
    {
      "id": "005056ba-7cb6-1ed2-bceb-8c08d8140d33",
      "cp": "24787",
      "ville": "Fockbek",
      "adresse": "Rendsburger Straße 17",
      "brand": "Star",
      "lat": 54.308216,
      "lng": 9.608853,
      "fuels": {
        "gazole": 1.009,
        "sp95": 1.009,
        "e10": 1.009
      }
    },
    {
      "id": "cdaa1ef5-9c3d-499d-869a-1c970beba775",
      "cp": "25718",
      "ville": "Friedrichskoog",
      "adresse": "Koogstr. 16",
      "brand": "oil! (automatenstation)",
      "lat": 53.9921,
      "lng": 8.94069,
      "fuels": {
        "gazole": 1.009,
        "sp95": 1.009,
        "e10": 1.009
      }
    },
    {
      "id": "047bee14-f86e-495a-84cd-5b849d57c742",
      "cp": "25840",
      "ville": "Friedrichstadt",
      "adresse": "Toenninger Str. 1",
      "brand": "Nordoel",
      "lat": 54.376398,
      "lng": 9.102173,
      "fuels": {
        "gazole": 1.009,
        "sp95": 1.009,
        "e10": 1.009
      }
    },
    {
      "id": "f46c6381-b105-45c8-8fa8-2bc7d114b52d",
      "cp": "25840",
      "ville": "Friedrichstadt",
      "adresse": "Tönninger Str. 2",
      "brand": "Team",
      "lat": 54.3758,
      "lng": 9.08178,
      "fuels": {
        "gazole": 1.009,
        "sp95": 1.009,
        "e10": 1.009
      }
    },
    {
      "id": "e1a15081-24e5-9107-e040-0b0a3dfe563c",
      "cp": "23968",
      "ville": "Gägelow",
      "adresse": "Chausseestr. A 1",
      "brand": "Hem",
      "lat": 53.902647,
      "lng": 11.37718,
      "fuels": {
        "gazole": 1.009,
        "sp95": 1.009,
        "e10": 1.009
      }
    },
    {
      "id": "005056ba-7cb6-1ed2-bceb-9b980ce26d3b",
      "cp": "25836",
      "ville": "Garding",
      "adresse": "Tönninger Straße 12",
      "brand": "Star",
      "lat": 54.329687,
      "lng": 8.789743,
      "fuels": {
        "gazole": 1.009,
        "sp95": 1.009,
        "e10": 1.009
      }
    },
    {
      "id": "005056ba-7cb6-1ed2-bceb-b7b5970ccd4a",
      "cp": "24395",
      "ville": "Gelting",
      "adresse": "Nordstraße 6-8",
      "brand": "Star",
      "lat": 54.746338,
      "lng": 9.894532,
      "fuels": {
        "gazole": 1.009,
        "sp95": 1.009,
        "e10": 1.009
      }
    },
    {
      "id": "3837aa59-a657-4623-a67d-ddf2d837e4be",
      "cp": "23815",
      "ville": "Geschendorf",
      "adresse": "Dorfstr. 95",
      "brand": "Shell",
      "lat": 53.922521,
      "lng": 10.453186,
      "fuels": {
        "gazole": 1.009,
        "sp95": 1.009,
        "e10": 1.009
      }
    },
    {
      "id": "22058993-886f-465b-bcd3-3b2d8f2f0c28",
      "cp": "24214",
      "ville": "Gettorf",
      "adresse": "Hasselrott 11",
      "brand": "Team",
      "lat": 54.4058,
      "lng": 9.97109,
      "fuels": {
        "gazole": 1.009,
        "sp95": 1.009,
        "e10": 1.009
      }
    },
    {
      "id": "05d469d3-ab70-413f-a4a5-2a011827e8aa",
      "cp": "24214",
      "ville": "Gettorf",
      "adresse": "Kieler Chaussee 55",
      "brand": "Bft-Willer",
      "lat": 54.4046,
      "lng": 9.9929,
      "fuels": {
        "gazole": 1.009,
        "sp95": 1.009,
        "e10": 1.009
      }
    },
    {
      "id": "aad53218-26b0-4eba-a7bf-585634edd6f5",
      "cp": "23992",
      "ville": "Glasin",
      "adresse": "Bab  A 20 - Fuchsberg Nor",
      "brand": "Aral",
      "lat": 53.910786,
      "lng": 11.758571,
      "fuels": {
        "gazole": 1.009,
        "sp95": 1.009,
        "e10": 1.009
      }
    },
    {
      "id": "3db8ca9d-41dd-4f54-9f2c-647010e64413",
      "cp": "23992",
      "ville": "Glasin",
      "adresse": "Bab A 20 - Fuchsberg Süd",
      "brand": "Aral",
      "lat": 53.908978,
      "lng": 11.756738,
      "fuels": {
        "gazole": 1.009,
        "sp95": 1.009,
        "e10": 1.009
      }
    },
    {
      "id": "078419f8-6aea-456e-a29a-501bf5d696f0",
      "cp": "24960",
      "ville": "Glücksburg",
      "adresse": "Flensburger Str. 15 B",
      "brand": "oil!",
      "lat": 54.8272,
      "lng": 9.53672,
      "fuels": {
        "gazole": 1.009,
        "sp95": 1.009,
        "e10": 1.009
      }
    },
    {
      "id": "79adf220-e74c-46e7-b4b6-e18c7fbc805c",
      "cp": "25348",
      "ville": "Glückstadt",
      "adresse": "Stadtstraße 31",
      "brand": "Aral",
      "lat": 53.78092,
      "lng": 9.430447,
      "fuels": {
        "gazole": 1.009,
        "sp95": 1.009,
        "e10": 1.009
      }
    },
    {
      "id": "005056ba-7cb6-1ed2-bceb-54849de84d15",
      "cp": "25348",
      "ville": "Glückstadt",
      "adresse": "Wiebeke-Kruse-Straße 1",
      "brand": "Star",
      "lat": 53.797944,
      "lng": 9.436347,
      "fuels": {
        "gazole": 1.009,
        "sp95": 1.009,
        "e10": 1.009
      }
    },
    {
      "id": "d3b9b368-c704-46d0-afa3-6e657c472727",
      "cp": "25862",
      "ville": "Goldelund",
      "adresse": "Hauptstraße 1",
      "brand": "",
      "lat": 54.678659,
      "lng": 9.108179,
      "fuels": {
        "gazole": 1.009,
        "sp95": 1.009,
        "e10": 1.009
      }
    },
    {
      "id": "7f4d3f6f-8d39-44f1-907a-2b5f052f6455",
      "cp": "23758",
      "ville": "Gremersdorf",
      "adresse": "Bankendorfer Weg 1",
      "brand": "Bft-Willer",
      "lat": 54.3321,
      "lng": 10.9302,
      "fuels": {
        "gazole": 1.009,
        "sp95": 1.009,
        "e10": 1.009
      }
    },
    {
      "id": "4b8e31b9-645f-41f5-9852-45be238b5199",
      "cp": "23936",
      "ville": "Grevesmuehlen",
      "adresse": "Luebecker Str. 25",
      "brand": "Shell",
      "lat": 53.864679,
      "lng": 11.171871,
      "fuels": {
        "gazole": 1.009,
        "sp95": 1.009,
        "e10": 1.009
      }
    },
    {
      "id": "93489447-3db9-41fa-94a6-43abcae6bc33",
      "cp": "23936",
      "ville": "Grevesmuehlen",
      "adresse": "Wismarsche Str. 153a",
      "brand": "Totalenergies",
      "lat": 53.865385,
      "lng": 11.2095,
      "fuels": {
        "gazole": 1.009,
        "sp95": 1.009,
        "e10": 1.009
      }
    },
    {
      "id": "70cfdfa4-8a9a-4235-b836-010573e65ff1",
      "cp": "23936",
      "ville": "Grevesmühlen",
      "adresse": "Lübecker Straße 19",
      "brand": "Nordoel",
      "lat": 53.8647,
      "lng": 11.17514,
      "fuels": {
        "gazole": 1.009,
        "sp95": 1.009,
        "e10": 1.009
      }
    },
    {
      "id": "39fa96d8-4524-4e54-bfe4-8cefb44725e8",
      "cp": "23743",
      "ville": "Groemitz",
      "adresse": "Neustaedter Str 47",
      "brand": "Shell",
      "lat": 54.150735,
      "lng": 10.949399,
      "fuels": {
        "gazole": 1.009,
        "sp95": 1.009,
        "e10": 1.009
      }
    },
    {
      "id": "b82fcc84-bb50-4881-875a-6d38b9ee7282",
      "cp": "23743",
      "ville": "Grönwohldshorst",
      "adresse": "Op De Horst 23-25",
      "brand": "Avia",
      "lat": 54.19743,
      "lng": 11.01777,
      "fuels": {
        "gazole": 1.009,
        "sp95": 1.009,
        "e10": 1.009
      }
    },
    {
      "id": "4d9dbc3d-5e40-468c-bf37-8c76cb4bd43b",
      "cp": "23627",
      "ville": "Groß Sarau",
      "adresse": "Hauptstraße 24",
      "brand": "Nordoel",
      "lat": 53.77213,
      "lng": 10.737901,
      "fuels": {
        "gazole": 1.009,
        "sp95": 1.009,
        "e10": 1.009
      }
    },
    {
      "id": "78fedb20-616c-4149-958f-bc1b28e98792",
      "cp": "23775",
      "ville": "Großenbrode",
      "adresse": "An Der E 47 -Landseite-",
      "brand": "Aral",
      "lat": 54.383293,
      "lng": 11.093269,
      "fuels": {
        "gazole": 1.009,
        "sp95": 1.009,
        "e10": 1.009
      }
    },
    {
      "id": "3f4d041f-29ac-46b8-adca-847dbab543fa",
      "cp": "23775",
      "ville": "Großenbrode",
      "adresse": "An Der E 47 -Seeseite-",
      "brand": "Aral",
      "lat": 54.381325,
      "lng": 11.09432,
      "fuels": {
        "gazole": 1.009,
        "sp95": 1.009,
        "e10": 1.009
      }
    },
    {
      "id": "f895fedd-0a97-4e08-aae4-1650a133bf1b",
      "cp": "24969",
      "ville": "Großenwiehe",
      "adresse": "Hauptstraße 7",
      "brand": "Wiking",
      "lat": 54.70461,
      "lng": 9.2482,
      "fuels": {
        "gazole": 1.009,
        "sp95": 1.009,
        "e10": 1.009
      }
    },
    {
      "id": "005056ba-7cb6-1ed2-bceb-6139e99bcd1b",
      "cp": "24992",
      "ville": "Großjörl",
      "adresse": "Paulsgabe 1",
      "brand": "Star",
      "lat": 54.621839,
      "lng": 9.241311,
      "fuels": {
        "gazole": 1.009,
        "sp95": 1.009,
        "e10": 1.009
      }
    },
    {
      "id": "e855a67b-cadf-2714-d67c-ecde84abd18b",
      "cp": "25693",
      "ville": "Gudendorf",
      "adresse": "Hauptstraße 31",
      "brand": "Schillhorn Tankstelle",
      "lat": 54.030351327776,
      "lng": 9.1039830921028,
      "fuels": {
        "gazole": 1.009,
        "sp95": 1.009,
        "e10": 1.009
      }
    },
    {
      "id": "3f7bad4c-8e6b-4c6c-955d-6bbca6e0593e",
      "cp": "23899",
      "ville": "Gudow",
      "adresse": "a24 Gudow Nord",
      "brand": "Shell",
      "lat": 53.520846,
      "lng": 10.806413,
      "fuels": {
        "gazole": 1.009,
        "sp95": 1.009,
        "e10": 1.009
      }
    },
    {
      "id": "cfe8958d-722d-49db-80f3-2c466142e5b3",
      "cp": "25469",
      "ville": "Halstenbek",
      "adresse": "Hartkirchener Ch. 8",
      "brand": "Shell",
      "lat": 53.632028,
      "lng": 9.838015,
      "fuels": {
        "gazole": 1.009,
        "sp95": 1.009,
        "e10": 1.009
      }
    },
    {
      "id": "e1a15081-24fc-9107-e040-0b0a3dfe563c",
      "cp": "24805",
      "ville": "Hamdorf",
      "adresse": "Poggensteert 6",
      "brand": "Hem",
      "lat": 54.226662,
      "lng": 9.514116,
      "fuels": {
        "gazole": 1.009,
        "sp95": 1.009,
        "e10": 1.009
      }
    },
    {
      "id": "7abe5a10-1d6e-408a-af77-f8553e2c68e2",
      "cp": "24983",
      "ville": "Handewitt",
      "adresse": "An Der B 199 199",
      "brand": "Shell",
      "lat": 54.77799,
      "lng": 9.325244,
      "fuels": {
        "gazole": 1.009,
        "sp95": 1.009,
        "e10": 1.009
      }
    },
    {
      "id": "4f593b78-9bce-45bb-a402-ab43b6bdd212",
      "cp": "24983",
      "ville": "Handewitt",
      "adresse": "Raiffeisenstr. 3d",
      "brand": "Team",
      "lat": 54.7691,
      "lng": 9.3242,
      "fuels": {
        "gazole": 1.009,
        "sp95": 1.009,
        "e10": 1.009
      }
    },
    {
      "id": "ce8a1a55-a954-4f95-b773-b4122dc80fba",
      "cp": "24983",
      "ville": "Handewitt",
      "adresse": "Scandinavian Park 1",
      "brand": "Team",
      "lat": 54.7776,
      "lng": 9.33409,
      "fuels": {
        "gazole": 1.009,
        "sp95": 1.009,
        "e10": 1.009
      }
    },
    {
      "id": "3aacd52d-f232-4424-9142-ef86a1275032",
      "cp": "25557",
      "ville": "Hanerau-Hademarschen",
      "adresse": "Mannhardtstraße 8a",
      "brand": "Schillhorn Tankstelle",
      "lat": 54.121777072554,
      "lng": 9.4281793866884,
      "fuels": {
        "gazole": 1.009,
        "sp95": 1.009,
        "e10": 1.009
      }
    },
    {
      "id": "005056ba-7cb6-1ed2-bceb-96e2f80dcd38",
      "cp": "25557",
      "ville": "Hanerau-Hademarschen",
      "adresse": "Theodor-Storm-Straße 23a",
      "brand": "Star",
      "lat": 54.12544,
      "lng": 9.41855,
      "fuels": {
        "gazole": 1.009,
        "sp95": 1.009,
        "e10": 1.009
      }
    },
    {
      "id": "005056ba-7cb6-1ed2-bceb-b029e97acd45",
      "cp": "24955",
      "ville": "Harrislee",
      "adresse": "Industrieweg 40",
      "brand": "Wiking",
      "lat": 54.7941,
      "lng": 9.37233,
      "fuels": {
        "gazole": 1.009,
        "sp95": 1.009,
        "e10": 1.009
      }
    },
    {
      "id": "af3be87a-e9d8-4a62-b7c8-5b3e9d3d50d3",
      "cp": "25856",
      "ville": "Hattstedt",
      "adresse": "Bundesstr. 16",
      "brand": "Bft-Willer",
      "lat": 54.5251,
      "lng": 9.0275,
      "fuels": {
        "gazole": 1.009,
        "sp95": 1.009,
        "e10": 1.009
      }
    },
    {
      "id": "d5c6a7e6-ce23-4650-a8d8-00f50dc13f7e",
      "cp": "25746",
      "ville": "Heide",
      "adresse": "Alfred-Dührssen-Str. 30",
      "brand": "Team",
      "lat": 54.2019,
      "lng": 9.0876,
      "fuels": {
        "gazole": 1.009,
        "sp95": 1.009,
        "e10": 1.009
      }
    },
    {
      "id": "f37267d6-c8b2-480e-b9d0-1768c40fb68c",
      "cp": "25746",
      "ville": "Heide",
      "adresse": "Hamburger Str. 115",
      "brand": "Classic",
      "lat": 54.197417,
      "lng": 9.114975,
      "fuels": {
        "gazole": 1.009,
        "sp95": 1.009,
        "e10": 1.009
      }
    },
    {
      "id": "ba911f03-5026-4f38-8348-e8d76266cb24",
      "cp": "25746",
      "ville": "Heide",
      "adresse": "Hamburger Str. 85",
      "brand": "Shell",
      "lat": 54.196961,
      "lng": 9.110313,
      "fuels": {
        "gazole": 1.009,
        "sp95": 1.009,
        "e10": 1.009
      }
    },
    {
      "id": "d17ba98f-2cb7-4a61-830e-05bdc65ba8c7",
      "cp": "25746",
      "ville": "Heide",
      "adresse": "Husumer Str. 5",
      "brand": "Esso",
      "lat": 54.196685,
      "lng": 9.090287,
      "fuels": {
        "gazole": 1.009,
        "sp95": 1.009,
        "e10": 1.009
      }
    },
    {
      "id": "5f49cd98-8ccd-4978-af58-879af91f1331",
      "cp": "25746",
      "ville": "Heide",
      "adresse": "Meldorfer Str. 143",
      "brand": "Access",
      "lat": 54.184383,
      "lng": 9.090378,
      "fuels": {
        "gazole": 1.009,
        "sp95": 1.009,
        "e10": 1.009
      }
    },
    {
      "id": "3a17ce41-4292-4c29-944e-a557416c695b",
      "cp": "25746",
      "ville": "Heide",
      "adresse": "Meldorfer Str. 219",
      "brand": "Shell",
      "lat": 54.17788,
      "lng": 9.092413,
      "fuels": {
        "gazole": 1.009,
        "sp95": 1.009,
        "e10": 1.009
      }
    },
    {
      "id": "b97a5eea-0b9a-409b-a835-067c540f3794",
      "cp": "25746",
      "ville": "Heide",
      "adresse": "Vogelweide 6",
      "brand": "Bft-Willer",
      "lat": 54.184877,
      "lng": 9.108254,
      "fuels": {
        "gazole": 1.009,
        "sp95": 1.009,
        "e10": 1.009
      }
    },
    {
      "id": "ee5bf10a-1c15-4fe4-9b48-12fb39758738",
      "cp": "25746",
      "ville": "Heide",
      "adresse": "Waldschlößchenstr. 95",
      "brand": "Bft-Willer",
      "lat": 54.2088,
      "lng": 9.1097,
      "fuels": {
        "gazole": 1.009,
        "sp95": 1.009,
        "e10": 1.009
      }
    },
    {
      "id": "c50ee0fa-0c28-4704-a0c4-c4a43fbcd599",
      "cp": "24226",
      "ville": "Heikendorf",
      "adresse": "Dorfstr. 1",
      "brand": "Classic",
      "lat": 54.36941,
      "lng": 10.20181,
      "fuels": {
        "gazole": 1.009,
        "sp95": 1.009,
        "e10": 1.009
      }
    },
    {
      "id": "53fbbc24-9bf2-4664-bef3-516da91a7b4d",
      "cp": "23774",
      "ville": "Heiligenhafen",
      "adresse": "Bergstr. 41",
      "brand": "",
      "lat": 54.371987,
      "lng": 10.973864,
      "fuels": {
        "gazole": 1.009,
        "sp95": 1.009,
        "e10": 1.009
      }
    },
    {
      "id": "b4cd7c49-7fd0-47fd-87a4-3ae1d0e8abeb",
      "cp": "23774",
      "ville": "Heiligenhafen",
      "adresse": "Sundweg 99",
      "brand": "Avia",
      "lat": 54.36539,
      "lng": 11.00237,
      "fuels": {
        "gazole": 1.009,
        "sp95": 1.009,
        "e10": 1.009
      }
    },
    {
      "id": "ddca3e16-3562-44c2-bede-e2c6a0e446db",
      "cp": "25774",
      "ville": "Hemme",
      "adresse": "Dorfstr. 40",
      "brand": "Frei",
      "lat": 54.281229,
      "lng": 9.011455,
      "fuels": {
        "gazole": 1.009,
        "sp95": 1.009,
        "e10": 1.009
      }
    },
    {
      "id": "3264c223-e223-4795-ab9d-c6e2c5275ece",
      "cp": "25774",
      "ville": "Hemme",
      "adresse": "Dorfstraße 53",
      "brand": "Schillhorn Tankstelle",
      "lat": 54.280766486128,
      "lng": 9.0117421208856,
      "fuels": {
        "gazole": 1.009,
        "sp95": 1.009,
        "e10": 1.009
      }
    },
    {
      "id": "7bfa26f1-e1ca-4582-8d19-b5ae796c1054",
      "cp": "25779",
      "ville": "Hennstedt",
      "adresse": "Tellingstedter Str. 12",
      "brand": "Shell",
      "lat": 54.28324,
      "lng": 9.17277,
      "fuels": {
        "gazole": 1.009,
        "sp95": 1.009,
        "e10": 1.009
      }
    },
    {
      "id": "51d4b4c0-a095-1aa0-e100-80009459e03a",
      "cp": "24558",
      "ville": "Henstedt Ulzburg",
      "adresse": "Gutenbergstr. 7a",
      "brand": "Supermarkt-Tankstelle",
      "lat": 53.80277,
      "lng": 9.98111,
      "fuels": {
        "gazole": 1.009,
        "sp95": 1.009,
        "e10": 1.009
      }
    },
    {
      "id": "167804fa-e116-4ee7-a287-35634c1d47ac",
      "cp": "24558",
      "ville": "Henstedt-Ulzburg",
      "adresse": "Hamburger Str. /Edisonstr. 13",
      "brand": "Shell",
      "lat": 53.763352,
      "lng": 9.980336,
      "fuels": {
        "gazole": 1.009,
        "sp95": 1.009,
        "e10": 1.009
      }
    },
    {
      "id": "51d4b5a5-a095-1aa0-e100-80009459e03a",
      "cp": "24558",
      "ville": "Henstedt-Ulzburg",
      "adresse": "Hamburger Str. 48",
      "brand": "Jet",
      "lat": 53.78584,
      "lng": 9.9773,
      "fuels": {
        "gazole": 1.009,
        "sp95": 1.009,
        "e10": 1.009
      }
    },
    {
      "id": "51a467c6-1ca2-4bf4-81e2-945a6973ac94",
      "cp": "24558",
      "ville": "Henstedt-Ulzburg",
      "adresse": "Hamburger Straße 123",
      "brand": "Aral",
      "lat": 53.786987,
      "lng": 9.979266,
      "fuels": {
        "gazole": 1.009,
        "sp95": 1.009,
        "e10": 1.009
      }
    },
    {
      "id": "2e89d443-d2a8-45a7-b161-04134b3a7419",
      "cp": "24558",
      "ville": "Henstedt-Ulzburg",
      "adresse": "Middelweg 1",
      "brand": "Shell",
      "lat": 53.753946,
      "lng": 9.996171,
      "fuels": {
        "gazole": 1.009,
        "sp95": 1.009,
        "e10": 1.009
      }
    },
    {
      "id": "b54c85ea-b5e2-4443-b5aa-bca723ad8705",
      "cp": "24558",
      "ville": "Henstedt-Ulzburg",
      "adresse": "Rudolf-Diesel-Straße 2",
      "brand": "Aral",
      "lat": 53.80396,
      "lng": 9.939107,
      "fuels": {
        "gazole": 1.009,
        "sp95": 1.009,
        "e10": 1.009
      }
    },
    {
      "id": "e3193a95-3129-4ad9-94db-203b7770047d",
      "cp": "23777",
      "ville": "Heringsdorf",
      "adresse": "An Der Bäderstraße 17",
      "brand": "Avia Xpress",
      "lat": 54.30166,
      "lng": 11.00929,
      "fuels": {
        "gazole": 1.009,
        "sp95": 1.009,
        "e10": 1.009
      }
    },
    {
      "id": "ed38b424-01bb-4ca0-bc3f-db5eb32f0351",
      "cp": "25927",
      "ville": "Hesbüll",
      "adresse": "Raiffeisenweg 1",
      "brand": "Raiffeisen",
      "lat": 54.9009,
      "lng": 8.8106,
      "fuels": {
        "gazole": 1.009,
        "sp95": 1.009,
        "e10": 1.009
      }
    },
    {
      "id": "70fae32a-5b8b-42e1-964a-d02308935c78",
      "cp": "25551",
      "ville": "Hohenlockstedt",
      "adresse": "Kieler Str. 112",
      "brand": "Team",
      "lat": 53.969,
      "lng": 9.6264,
      "fuels": {
        "gazole": 1.009,
        "sp95": 1.009,
        "e10": 1.009
      }
    },
    {
      "id": "005056ba-7cb6-1ed2-bceb-520e74b10d12",
      "cp": "25551",
      "ville": "Hohenlockstedt",
      "adresse": "Kieler Straße 2",
      "brand": "Star",
      "lat": 53.957207,
      "lng": 9.611447,
      "fuels": {
        "gazole": 1.009,
        "sp95": 1.009,
        "e10": 1.009
      }
    },
    {
      "id": "550a6665-a57f-4b77-a30a-36c4e72db74d",
      "cp": "24594",
      "ville": "Hohenwestedt",
      "adresse": "Itzehoer Str. 38",
      "brand": "Nordoel",
      "lat": 54.08603,
      "lng": 9.65002,
      "fuels": {
        "gazole": 1.009,
        "sp95": 1.009,
        "e10": 1.009
      }
    },
    {
      "id": "47e4cc7d-d57d-4d98-a0c1-500181dd3e61",
      "cp": "24594",
      "ville": "Hohenwestedt",
      "adresse": "Rendsburger Str. 2",
      "brand": "Bft-Willer",
      "lat": 54.0916,
      "lng": 9.649,
      "fuels": {
        "gazole": 1.009,
        "sp95": 1.009,
        "e10": 1.009
      }
    },
    {
      "id": "005056ba-7cb6-1ed2-bceb-791957ee6d26",
      "cp": "24806",
      "ville": "Hohn",
      "adresse": "Hauptstraße 34",
      "brand": "Star",
      "lat": 54.299352,
      "lng": 9.50395,
      "fuels": {
        "gazole": 1.009,
        "sp95": 1.009,
        "e10": 1.009
      }
    },
    {
      "id": "23535fc0-279c-4c0b-bdfe-6b0daba98770",
      "cp": "24217",
      "ville": "Höhndorf Bei Schönberg",
      "adresse": "Lindenplatz 17",
      "brand": "Team",
      "lat": 54.3733,
      "lng": 10.3725,
      "fuels": {
        "gazole": 1.009,
        "sp95": 1.009,
        "e10": 1.009
      }
    },
    {
      "id": "05bc07bb-401e-4aeb-8435-46e505128e9a",
      "cp": "25488",
      "ville": "Holm",
      "adresse": "Wedeler Str. 8",
      "brand": "Esso",
      "lat": 53.616193,
      "lng": 9.675329,
      "fuels": {
        "gazole": 1.009,
        "sp95": 1.009,
        "e10": 1.009
      }
    },
    {
      "id": "450457dd-f5a1-4f87-a3b9-019c13bdbbca",
      "cp": "24361",
      "ville": "Holzbunge",
      "adresse": "Hauptstr. 9",
      "brand": "Avia",
      "lat": 54.37994,
      "lng": 9.70755,
      "fuels": {
        "gazole": 1.009,
        "sp95": 1.009,
        "e10": 1.009
      }
    },
    {
      "id": "c7b4f91e-728a-5b35-a37c-9f3846bd6776",
      "cp": "23974",
      "ville": "Hornstorf",
      "adresse": "Hauptstr. 1a",
      "brand": "Hoyer",
      "lat": 53.90561294556,
      "lng": 11.52983379364,
      "fuels": {
        "gazole": 1.009,
        "sp95": 1.009,
        "e10": 1.009
      }
    },
    {
      "id": "71a68eb8-e248-417c-9433-ed67c261e992",
      "cp": "25358",
      "ville": "Horst",
      "adresse": "Elmshorner Str. 33",
      "brand": "oil!",
      "lat": 53.8086,
      "lng": 9.62202,
      "fuels": {
        "gazole": 1.009,
        "sp95": 1.009,
        "e10": 1.009
      }
    },
    {
      "id": "6238b606-2054-4ba4-3468-82266bd41332",
      "cp": "25358",
      "ville": "Horst-Hahnenkamp",
      "adresse": "Kiebitzreiher Chaussee 4",
      "brand": "Tanklager Baack",
      "lat": 53.781569,
      "lng": 9.639424,
      "fuels": {
        "gazole": 1.009,
        "sp95": 1.009,
        "e10": 1.009
      }
    },
    {
      "id": "760df05e-bdb8-4b48-a5ed-78498dafb8bc",
      "cp": "24975",
      "ville": "Husby",
      "adresse": "Flensburger Str. 37",
      "brand": "Bft-Willer",
      "lat": 54.7648,
      "lng": 9.5783,
      "fuels": {
        "gazole": 1.009,
        "sp95": 1.009,
        "e10": 1.009
      }
    },
    {
      "id": "17b96972-c63c-4afc-9b6c-ada1584b3608",
      "cp": "25813",
      "ville": "Husum",
      "adresse": "Andreas-Clausen-Str. 3",
      "brand": "Team",
      "lat": 54.494,
      "lng": 9.0789,
      "fuels": {
        "gazole": 1.009,
        "sp95": 1.009,
        "e10": 1.009
      }
    },
    {
      "id": "0cf9123b-76a7-4924-b290-614df367e456",
      "cp": "25813",
      "ville": "Husum",
      "adresse": "Bredstedter Str. 2-8",
      "brand": "oil!",
      "lat": 54.4863,
      "lng": 9.04634,
      "fuels": {
        "gazole": 1.009,
        "sp95": 1.009,
        "e10": 1.009
      }
    },
    {
      "id": "0ac4ea4d-c07d-4bef-a08d-166f83e8c020",
      "cp": "25813",
      "ville": "Husum",
      "adresse": "Flensburger Chaussee 44",
      "brand": "Aral",
      "lat": 54.487644,
      "lng": 9.077271,
      "fuels": {
        "gazole": 1.009,
        "sp95": 1.009,
        "e10": 1.009
      }
    },
    {
      "id": "005056ba-7cb6-1ed2-bceb-74a6f3fccd25",
      "cp": "25813",
      "ville": "Husum",
      "adresse": "Nordseestraße 23",
      "brand": "Star",
      "lat": 54.506026,
      "lng": 9.007791,
      "fuels": {
        "gazole": 1.009,
        "sp95": 1.009,
        "e10": 1.009
      }
    },
    {
      "id": "d7c26f87-cf32-4830-8d1c-208d8c9f83d5",
      "cp": "25813",
      "ville": "Husum",
      "adresse": "Robert-Koch-Str. 28",
      "brand": "Shell",
      "lat": 54.493177,
      "lng": 9.085132,
      "fuels": {
        "gazole": 1.009,
        "sp95": 1.009,
        "e10": 1.009
      }
    },
    {
      "id": "3e8b54ba-efd2-48ea-b948-7104f540d930",
      "cp": "25813",
      "ville": "Husum",
      "adresse": "Schleswiger Chaussee 90",
      "brand": "Shell",
      "lat": 54.48263,
      "lng": 9.08104,
      "fuels": {
        "gazole": 1.009,
        "sp95": 1.009,
        "e10": 1.009
      }
    },
    {
      "id": "fce6e1be-59e4-4c14-96a6-7feb95b8cbc3",
      "cp": "25524",
      "ville": "Itzehoe",
      "adresse": "Adenauer Allee 10",
      "brand": "Access",
      "lat": 53.92171,
      "lng": 9.512394,
      "fuels": {
        "gazole": 1.009,
        "sp95": 1.009,
        "e10": 1.009
      }
    },
    {
      "id": "96ed3144-b4ab-4afe-b7d9-33a2c74ad754",
      "cp": "25524",
      "ville": "Itzehoe",
      "adresse": "De Vos Str. 24",
      "brand": "Nordoel",
      "lat": 53.9034,
      "lng": 9.49167,
      "fuels": {
        "gazole": 1.009,
        "sp95": 1.009,
        "e10": 1.009
      }
    },
    {
      "id": "51d4b611-a095-1aa0-e100-80009459e03a",
      "cp": "25524",
      "ville": "Itzehoe",
      "adresse": "Edendorferstr. 127",
      "brand": "Jet",
      "lat": 53.9411,
      "lng": 9.49679,
      "fuels": {
        "gazole": 1.009,
        "sp95": 1.009,
        "e10": 1.009
      }
    },
    {
      "id": "a5ba054c-633b-40d2-9ac1-d9176c04c586",
      "cp": "25524",
      "ville": "Itzehoe",
      "adresse": "Gasstr. 30",
      "brand": "Team",
      "lat": 53.9306,
      "lng": 9.4931,
      "fuels": {
        "gazole": 1.009,
        "sp95": 1.009,
        "e10": 1.009
      }
    },
    {
      "id": "913e375b-57e1-4403-bdfb-a4c00a4eaabb",
      "cp": "25524",
      "ville": "Itzehoe",
      "adresse": "Lindenstr. 253",
      "brand": "Shell",
      "lat": 53.932732,
      "lng": 9.483208,
      "fuels": {
        "gazole": 1.009,
        "sp95": 1.009,
        "e10": 1.009
      }
    },
    {
      "id": "005056ba-7cb6-1ed2-bceb-ac11b3ba0d43",
      "cp": "25524",
      "ville": "Itzehoe",
      "adresse": "Lindenstrasse 164",
      "brand": "Star",
      "lat": 53.932482,
      "lng": 9.491462,
      "fuels": {
        "gazole": 1.009,
        "sp95": 1.009,
        "e10": 1.009
      }
    },
    {
      "id": "1d59222b-6ad7-4ed7-8f45-e0ca62810538",
      "cp": "25524",
      "ville": "Itzehoe",
      "adresse": "Lindenstraße 24",
      "brand": "Aral",
      "lat": 53.92919,
      "lng": 9.509999,
      "fuels": {
        "gazole": 1.009,
        "sp95": 1.009,
        "e10": 1.009
      }
    },
    {
      "id": "8e527130-e9be-40a9-8250-a303c17d3bef",
      "cp": "25524",
      "ville": "Itzehoe",
      "adresse": "Sandberg 142 A",
      "brand": "Esso",
      "lat": 53.930362,
      "lng": 9.531713,
      "fuels": {
        "gazole": 1.009,
        "sp95": 1.009,
        "e10": 1.009
      }
    },
    {
      "id": "e4260d7a-595a-4882-b60b-c83144cb7878",
      "cp": "23845",
      "ville": "Itzstedt",
      "adresse": "Segeberger Str. 29",
      "brand": "Nordoel",
      "lat": 53.808611,
      "lng": 10.159084,
      "fuels": {
        "gazole": 1.009,
        "sp95": 1.009,
        "e10": 1.009
      }
    },
    {
      "id": "1ecfe208-39ba-44e8-8d40-3b7cc9c35008",
      "cp": "24878",
      "ville": "Jagel",
      "adresse": "Bundesstr. (b77) 51",
      "brand": "Bft-Willer",
      "lat": 54.4594,
      "lng": 9.5382,
      "fuels": {
        "gazole": 1.009,
        "sp95": 1.009,
        "e10": 1.009
      }
    },
    {
      "id": "a574fa5b-dc86-4e69-bfc1-b271e7a29c6f",
      "cp": "24808",
      "ville": "Jevenstedt",
      "adresse": "Itzehoer Chaussee 61",
      "brand": "Shell",
      "lat": 54.234445,
      "lng": 9.668902,
      "fuels": {
        "gazole": 1.009,
        "sp95": 1.009,
        "e10": 1.009
      }
    },
    {
      "id": "5b34d27e-4ccb-44c9-93de-de0337797a04",
      "cp": "24855",
      "ville": "Jübek",
      "adresse": "Neuwerk 5",
      "brand": "Team",
      "lat": 54.5589,
      "lng": 9.406,
      "fuels": {
        "gazole": 1.009,
        "sp95": 1.009,
        "e10": 1.009
      }
    },
    {
      "id": "e1a15081-2583-9107-e040-0b0a3dfe563c",
      "cp": "25582",
      "ville": "Kaaks",
      "adresse": "Kaaksburg 1",
      "brand": "Sb",
      "lat": 53.997271,
      "lng": 9.488935,
      "fuels": {
        "gazole": 1.009,
        "sp95": 1.009,
        "e10": 1.009
      }
    },
    {
      "id": "02edb62c-c4a7-4406-98be-2927b7619c53",
      "cp": "24568",
      "ville": "Kaltenkirchen",
      "adresse": "Kieler Str. 40",
      "brand": "Shell",
      "lat": 53.840706,
      "lng": 9.948806,
      "fuels": {
        "gazole": 1.009,
        "sp95": 1.009,
        "e10": 1.009
      }
    },
    {
      "id": "6b154047-f80c-46c9-93b4-7632f019be6f",
      "cp": "24568",
      "ville": "Kaltenkirchen",
      "adresse": "Kieler Straße 51-53",
      "brand": "Aral",
      "lat": 53.840725,
      "lng": 9.947619,
      "fuels": {
        "gazole": 1.009,
        "sp95": 1.009,
        "e10": 1.009
      }
    },
    {
      "id": "005056ba-7cb6-1ed2-bceb-5fa30d83cd1b",
      "cp": "24568",
      "ville": "Kaltenkirchen",
      "adresse": "Kisdorfer Weg 13",
      "brand": "Famila",
      "lat": 53.82952,
      "lng": 9.97833,
      "fuels": {
        "gazole": 1.009,
        "sp95": 1.009,
        "e10": 1.009
      }
    },
    {
      "id": "2c605f32-8a1a-4124-9a55-ee191697ec9d",
      "cp": "24376",
      "ville": "Kappeln",
      "adresse": "Bundesstraße 1",
      "brand": "Bft-Willer",
      "lat": 54.659027,
      "lng": 9.92583,
      "fuels": {
        "gazole": 1.009,
        "sp95": 1.009,
        "e10": 1.009
      }
    },
    {
      "id": "5a26eccb-b4da-45e9-8d7f-25076aac3362",
      "cp": "24376",
      "ville": "Kappeln",
      "adresse": "Eckernförder Straße 9 B",
      "brand": "Aral",
      "lat": 54.657238,
      "lng": 9.946128,
      "fuels": {
        "gazole": 1.009,
        "sp95": 1.009,
        "e10": 1.009
      }
    },
    {
      "id": "476b0352-9635-43b9-ba58-883167b2234a",
      "cp": "24376",
      "ville": "Kappeln",
      "adresse": "Nordstr. 3",
      "brand": "Bft-Willer",
      "lat": 54.6652,
      "lng": 9.9207,
      "fuels": {
        "gazole": 1.009,
        "sp95": 1.009,
        "e10": 1.009
      }
    },
    {
      "id": "005056ba-7cb6-1ed2-bceb-6209bf03ad1d",
      "cp": "23847",
      "ville": "Kastorf",
      "adresse": "An Der Bäk 2",
      "brand": "Orlen",
      "lat": 53.748323,
      "lng": 10.566121,
      "fuels": {
        "gazole": 1.009,
        "sp95": 1.009,
        "e10": 1.009
      }
    },
    {
      "id": "7d588c41-e3e9-487f-9271-2bc0d2879840",
      "cp": "23863",
      "ville": "Kayhude",
      "adresse": "Segeberger Str. 26",
      "brand": "Shell",
      "lat": 53.75297,
      "lng": 10.12811,
      "fuels": {
        "gazole": 1.009,
        "sp95": 1.009,
        "e10": 1.009
      }
    },
    {
      "id": "e63cfef7-5ce2-465d-91a5-bafa82c07fb7",
      "cp": "25548",
      "ville": "Kellinghusen",
      "adresse": "Mühlenbeker Str. 2",
      "brand": "Classic",
      "lat": 53.944,
      "lng": 9.72832,
      "fuels": {
        "gazole": 1.009,
        "sp95": 1.009,
        "e10": 1.009
      }
    },
    {
      "id": "98f1cd50-9c6b-4692-b205-d32000f18bee",
      "cp": "25548",
      "ville": "Kellinghusen",
      "adresse": "Overndorfer Str. 32",
      "brand": "Nordoel",
      "lat": 53.951528,
      "lng": 9.706699,
      "fuels": {
        "gazole": 1.009,
        "sp95": 1.009,
        "e10": 1.009
      }
    },
    {
      "id": "f39054b4-97e4-4e1f-93a2-191ea6e9b3c6",
      "cp": "24103",
      "ville": "Kiel",
      "adresse": "Adelheidstr. 15",
      "brand": "Shell",
      "lat": 54.320174,
      "lng": 10.124323,
      "fuels": {
        "gazole": 1.009,
        "sp95": 1.009,
        "e10": 1.009
      }
    },
    {
      "id": "1d7526ce-4398-494f-8b7b-239b13b43964",
      "cp": "24105",
      "ville": "Kiel",
      "adresse": "Brunswiker Straße 46-48",
      "brand": "oil!",
      "lat": 54.329,
      "lng": 10.1365,
      "fuels": {
        "gazole": 1.009,
        "sp95": 1.009,
        "e10": 1.009
      }
    },
    {
      "id": "d9dde48d-655a-5241-1ca1-d4937e52413a",
      "cp": "24145",
      "ville": "Kiel",
      "adresse": "Edisonstr. 44",
      "brand": "Esso",
      "lat": 54.277424,
      "lng": 10.160841,
      "fuels": {
        "gazole": 1.009,
        "sp95": 1.009,
        "e10": 1.009
      }
    },
    {
      "id": "8b630533-c850-424a-b2c9-40ee66eae461",
      "cp": "24159",
      "ville": "Kiel",
      "adresse": "Gravensteiner Str. 2",
      "brand": "Nordoel",
      "lat": 54.37336,
      "lng": 10.13205,
      "fuels": {
        "gazole": 1.009,
        "sp95": 1.009,
        "e10": 1.009
      }
    },
    {
      "id": "83aa41b1-9a90-11ef-8aa0-005056a27fa7",
      "cp": "24145",
      "ville": "Kiel",
      "adresse": "Grot Steenbusch 35",
      "brand": "Famila",
      "lat": 54.28186,
      "lng": 10.13294,
      "fuels": {
        "gazole": 1.009,
        "sp95": 1.009,
        "e10": 1.009
      }
    },
    {
      "id": "cad0d6d1-b55f-4cbd-9511-4371f7944f6e",
      "cp": "24118",
      "ville": "Kiel",
      "adresse": "Gutenbergstr. 80-86",
      "brand": "Bft-Willer",
      "lat": 54.3333,
      "lng": 10.1142,
      "fuels": {
        "gazole": 1.009,
        "sp95": 1.009,
        "e10": 1.009
      }
    },
    {
      "id": "1ba25b61-4028-47fc-b6a3-b5baf7c09987",
      "cp": "24113",
      "ville": "Kiel",
      "adresse": "Hamburger Chaussee 161",
      "brand": "Shell",
      "lat": 54.30076,
      "lng": 10.108207,
      "fuels": {
        "gazole": 1.009,
        "sp95": 1.009,
        "e10": 1.009
      }
    },
    {
      "id": "89c023c3-b028-468c-8107-7987d3b62c02",
      "cp": "24113",
      "ville": "Kiel",
      "adresse": "Hamburger Landstraße 56",
      "brand": "Bft",
      "lat": 54.282064,
      "lng": 10.080368,
      "fuels": {
        "gazole": 1.009,
        "sp95": 1.009,
        "e10": 1.009
      }
    },
    {
      "id": "13bdabea-afbe-4663-a5c4-8b1108e5c502",
      "cp": "24118",
      "ville": "Kiel",
      "adresse": "Knooper Weg 137-139",
      "brand": "Bft-Willer",
      "lat": 54.3341,
      "lng": 10.1289,
      "fuels": {
        "gazole": 1.009,
        "sp95": 1.009,
        "e10": 1.009
      }
    },
    {
      "id": "33af3d73-ce63-4b7d-a871-55a522b19ecb",
      "cp": "24105",
      "ville": "Kiel",
      "adresse": "Knooper Weg 170",
      "brand": "Shell",
      "lat": 54.336425,
      "lng": 10.131848,
      "fuels": {
        "gazole": 1.009,
        "sp95": 1.009,
        "e10": 1.009
      }
    },
    {
      "id": "826b3acc-d800-41ba-9ead-76bc0d1dba20",
      "cp": "24143",
      "ville": "Kiel",
      "adresse": "Konrad-Adenauer Damm 2",
      "brand": "Shell",
      "lat": 54.300756,
      "lng": 10.144167,
      "fuels": {
        "gazole": 1.009,
        "sp95": 1.009,
        "e10": 1.009
      }
    },
    {
      "id": "182af7a3-bc66-44e3-ba2e-d4f121726591",
      "cp": "24143",
      "ville": "Kiel",
      "adresse": "Konrad-Adenauer-Damm 100",
      "brand": "Aral",
      "lat": 54.296963,
      "lng": 10.164891,
      "fuels": {
        "gazole": 1.009,
        "sp95": 1.009,
        "e10": 1.009
      }
    },
    {
      "id": "51d4b6d5-a095-1aa0-e100-80009459e03a",
      "cp": "24143",
      "ville": "Kiel",
      "adresse": "Konrad-Adenauer-Damm 101",
      "brand": "Jet",
      "lat": 54.29731,
      "lng": 10.16593,
      "fuels": {
        "gazole": 1.009,
        "sp95": 1.009,
        "e10": 1.009
      }
    },
    {
      "id": "c6fe1450-6f99-44d5-9405-40c3478749e4",
      "cp": "24113",
      "ville": "Kiel",
      "adresse": "Mühlendamm 1",
      "brand": "Citti",
      "lat": 54.312189,
      "lng": 10.099303,
      "fuels": {
        "gazole": 1.009,
        "sp95": 1.009,
        "e10": 1.009
      }
    },
    {
      "id": "8c274f7a-a717-4a5c-99ad-2daf04e3c67b",
      "cp": "24148",
      "ville": "Kiel",
      "adresse": "Ostring 250-254",
      "brand": "Aral",
      "lat": 54.313557,
      "lng": 10.162886,
      "fuels": {
        "gazole": 1.009,
        "sp95": 1.009,
        "e10": 1.009
      }
    },
    {
      "id": "51d4b674-a095-1aa0-e100-80009459e03a",
      "cp": "24148",
      "ville": "Kiel",
      "adresse": "Ostring 500",
      "brand": "Jet",
      "lat": 54.32407,
      "lng": 10.18788,
      "fuels": {
        "gazole": 1.009,
        "sp95": 1.009,
        "e10": 1.009
      }
    },
    {
      "id": "5696b8c8-9a90-11ef-8aa0-005056a27fa7",
      "cp": "24106",
      "ville": "Kiel",
      "adresse": "Prinz-Heinrich-Str. 20",
      "brand": "Famila",
      "lat": 54.3603,
      "lng": 10.13245,
      "fuels": {
        "gazole": 1.009,
        "sp95": 1.009,
        "e10": 1.009
      }
    },
    {
      "id": "e1a15081-261a-9107-e040-0b0a3dfe563c",
      "cp": "24113",
      "ville": "Kiel",
      "adresse": "Ratzeburger Str. 1",
      "brand": "Hem",
      "lat": 54.303882,
      "lng": 10.129957,
      "fuels": {
        "gazole": 1.009,
        "sp95": 1.009,
        "e10": 1.009
      }
    },
    {
      "id": "1758764f-d692-4054-8440-b97e4eea6727",
      "cp": "24113",
      "ville": "Kiel",
      "adresse": "Rendsburger Landstraße 205",
      "brand": "Aral",
      "lat": 54.300465,
      "lng": 10.092195,
      "fuels": {
        "gazole": 1.009,
        "sp95": 1.009,
        "e10": 1.009
      }
    },
    {
      "id": "a9d81e6b-eb78-4432-bac7-a29e92a21010",
      "cp": "24114",
      "ville": "Kiel",
      "adresse": "Ringstr. 25",
      "brand": "Shell",
      "lat": 54.315387,
      "lng": 10.126746,
      "fuels": {
        "gazole": 1.009,
        "sp95": 1.009,
        "e10": 1.009
      }
    },
    {
      "id": "005056ba-7cb6-1ed2-bceb-5113f4c1cd12",
      "cp": "24149",
      "ville": "Kiel",
      "adresse": "Schönkirchener Strasse 80",
      "brand": "Famila",
      "lat": 54.32964,
      "lng": 10.19645,
      "fuels": {
        "gazole": 1.009,
        "sp95": 1.009,
        "e10": 1.009
      }
    },
    {
      "id": "4aa9b4ea-baf1-4fd0-ac2b-55ef366dd51f",
      "cp": "24143",
      "ville": "Kiel",
      "adresse": "Schwedendamm 21",
      "brand": "Aral",
      "lat": 54.307358,
      "lng": 10.136729,
      "fuels": {
        "gazole": 1.009,
        "sp95": 1.009,
        "e10": 1.009
      }
    },
    {
      "id": "8ffc7456-6e92-4fc5-808f-4dec7cdd17cc",
      "cp": "24159",
      "ville": "Kiel",
      "adresse": "Seestr. 2",
      "brand": "Sb",
      "lat": 54.421944,
      "lng": 10.168333,
      "fuels": {
        "gazole": 1.009,
        "sp95": 1.009,
        "e10": 1.009
      }
    },
    {
      "id": "e1a15081-256a-9107-e040-0b0a3dfe563c",
      "cp": "24109",
      "ville": "Kiel",
      "adresse": "Skandinaviendamm 301",
      "brand": "Hem",
      "lat": 54.320431,
      "lng": 10.051192,
      "fuels": {
        "gazole": 1.009,
        "sp95": 1.009,
        "e10": 1.009
      }
    },
    {
      "id": "f52c2c22-ed5a-4623-8f73-639b789ead47",
      "cp": "24106",
      "ville": "Kiel",
      "adresse": "Steenbeker Weg 58",
      "brand": "Bft-Willer",
      "lat": 54.3558,
      "lng": 10.105,
      "fuels": {
        "gazole": 1.009,
        "sp95": 1.009,
        "e10": 1.009
      }
    },
    {
      "id": "4b8d0f13-6ded-48a6-8e2c-8a20bfd9a8fd",
      "cp": "24109",
      "ville": "Kiel",
      "adresse": "Stockholmstraße 2",
      "brand": "Aral",
      "lat": 54.32611,
      "lng": 10.058283,
      "fuels": {
        "gazole": 1.009,
        "sp95": 1.009,
        "e10": 1.009
      }
    },
    {
      "id": "51d4b713-a095-1aa0-e100-80009459e03a",
      "cp": "24143",
      "ville": "Kiel",
      "adresse": "Werftstr. 245",
      "brand": "Jet",
      "lat": 54.30823,
      "lng": 10.13888,
      "fuels": {
        "gazole": 1.009,
        "sp95": 1.009,
        "e10": 1.009
      }
    },
    {
      "id": "1503f381-f7bd-4b1e-9b97-c479b4af4b0d",
      "cp": "24118",
      "ville": "Kiel",
      "adresse": "Westring 341 A",
      "brand": "Esso",
      "lat": 54.33392,
      "lng": 10.122363,
      "fuels": {
        "gazole": 1.009,
        "sp95": 1.009,
        "e10": 1.009
      }
    },
    {
      "id": "f866a492-5c16-4f30-96da-8cd37d404d80",
      "cp": "24106",
      "ville": "Kiel",
      "adresse": "Westring 500",
      "brand": "Shell",
      "lat": 54.349322,
      "lng": 10.126178,
      "fuels": {
        "gazole": 1.009,
        "sp95": 1.009,
        "e10": 1.009
      }
    },
    {
      "id": "86d053dc-4c26-4815-abbd-43768dec3e93",
      "cp": "24114",
      "ville": "Kiel",
      "adresse": "Winterbeker Weg 44",
      "brand": "Express Tank",
      "lat": 54.3097,
      "lng": 10.1076,
      "fuels": {
        "gazole": 1.009,
        "sp95": 1.009,
        "e10": 1.009
      }
    },
    {
      "id": "fd502876-0c1e-4828-97d0-499bb51064fc",
      "cp": "24159",
      "ville": "Kiel-Friedrichsort",
      "adresse": "Koppelberg 1",
      "brand": "Aral",
      "lat": 54.403286,
      "lng": 10.166145,
      "fuels": {
        "gazole": 1.009,
        "sp95": 1.009,
        "e10": 1.009
      }
    },
    {
      "id": "9cb41758-4229-4ce3-bc13-efca8c4192ee",
      "cp": "24245",
      "ville": "Kirchbarkau",
      "adresse": "Ewerweg 12",
      "brand": "Esso",
      "lat": 54.212662,
      "lng": 10.14841,
      "fuels": {
        "gazole": 1.009,
        "sp95": 1.009,
        "e10": 1.009
      }
    },
    {
      "id": "820d5015-a497-4f26-9bc8-94ffce14a31f",
      "cp": "24629",
      "ville": "Kisdorf",
      "adresse": "Henstedter Straße 2",
      "brand": "Avia Xpress",
      "lat": 53.806347,
      "lng": 10.003867,
      "fuels": {
        "gazole": 1.009,
        "sp95": 1.009,
        "e10": 1.009
      }
    },
    {
      "id": "8aa6742b-62f2-497f-a144-f9f447013bd5",
      "cp": "23948",
      "ville": "Kluetz",
      "adresse": "Boltenhagener Str. 11b",
      "brand": "Totalenergies",
      "lat": 53.970639,
      "lng": 11.17414,
      "fuels": {
        "gazole": 1.009,
        "sp95": 1.009,
        "e10": 1.009
      }
    },
    {
      "id": "ec3e7f45-7e94-4ba2-5866-02f10e5424a8",
      "cp": "25569",
      "ville": "Kremperheide",
      "adresse": "Dorfstr. 6",
      "brand": "Tanktreff Kremperheide",
      "lat": 53.881573,
      "lng": 9.479583,
      "fuels": {
        "gazole": 1.009,
        "sp95": 1.009,
        "e10": 1.009
      }
    },
    {
      "id": "e1a15081-250b-9107-e040-0b0a3dfe563c",
      "cp": "23970",
      "ville": "Kritzow",
      "adresse": "Karpendiek 1",
      "brand": "Hem",
      "lat": 53.889972,
      "lng": 11.530833,
      "fuels": {
        "gazole": 1.009,
        "sp95": 1.009,
        "e10": 1.009
      }
    },
    {
      "id": "0dc62176-d04e-4e98-8add-01bd7fe1ca77",
      "cp": "24119",
      "ville": "Kronshagen",
      "adresse": "Eckernförder Str. 207",
      "brand": "Team",
      "lat": 54.3376,
      "lng": 10.1063,
      "fuels": {
        "gazole": 1.009,
        "sp95": 1.009,
        "e10": 1.009
      }
    },
    {
      "id": "51cc1271-c299-4905-9425-3979a1330f97",
      "cp": "24119",
      "ville": "Kronshagen",
      "adresse": "Eckernförder Str. 290",
      "brand": "Bft-Willer",
      "lat": 54.3461,
      "lng": 10.0966,
      "fuels": {
        "gazole": 1.009,
        "sp95": 1.009,
        "e10": 1.009
      }
    },
    {
      "id": "41446b95-a3f2-4f26-a2f5-60509e43d1f2",
      "cp": "24119",
      "ville": "Kronshagen",
      "adresse": "Kieler Str. 114",
      "brand": "Bft-Willer",
      "lat": 54.3322,
      "lng": 10.0783,
      "fuels": {
        "gazole": 1.009,
        "sp95": 1.009,
        "e10": 1.009
      }
    },
    {
      "id": "ce82583c-032a-47de-818a-d3d3f57ae200",
      "cp": "24848",
      "ville": "Kropp",
      "adresse": "Am Markt 6",
      "brand": "Team",
      "lat": 54.411934,
      "lng": 9.507998,
      "fuels": {
        "gazole": 1.009,
        "sp95": 1.009,
        "e10": 1.009
      }
    },
    {
      "id": "c5d9bcf7-b264-4cb9-ad21-5d2d9e18995c",
      "cp": "24848",
      "ville": "Kropp",
      "adresse": "Heidbunge 3",
      "brand": "Bft",
      "lat": 54.3756,
      "lng": 9.54714,
      "fuels": {
        "gazole": 1.009,
        "sp95": 1.009,
        "e10": 1.009
      }
    },
    {
      "id": "e1a15081-2567-9107-e040-0b0a3dfe563c",
      "cp": "25495",
      "ville": "Kummerfeld",
      "adresse": "Bundesstr. 32",
      "brand": "Hem",
      "lat": 53.6868,
      "lng": 9.792267,
      "fuels": {
        "gazole": 1.009,
        "sp95": 1.009,
        "e10": 1.009
      }
    },
    {
      "id": "b415b788-1e0e-4ff5-8a99-5e89f37abca6",
      "cp": "24235",
      "ville": "Laboe",
      "adresse": "Brodersdorfer Weg 29",
      "brand": "Shell",
      "lat": 54.400584,
      "lng": 10.229785,
      "fuels": {
        "gazole": 1.009,
        "sp95": 1.009,
        "e10": 1.009
      }
    },
    {
      "id": "39171395-d89c-458c-8df9-9c2635f84fa4",
      "cp": "25926",
      "ville": "Ladelund",
      "adresse": "Dorfstraße 24",
      "brand": "oil! (automatenstation)",
      "lat": 54.8404,
      "lng": 9.02778,
      "fuels": {
        "gazole": 1.009,
        "sp95": 1.009,
        "e10": 1.009
      }
    },
    {
      "id": "106bd84c-d65a-40ef-b24f-d86833956294",
      "cp": "24977",
      "ville": "Langballig",
      "adresse": "Poststr. 5",
      "brand": "Classic",
      "lat": 54.7976,
      "lng": 9.63537,
      "fuels": {
        "gazole": 1.009,
        "sp95": 1.009,
        "e10": 1.009
      }
    },
    {
      "id": "4040137a-35a2-4398-a704-d3054f46882b",
      "cp": "24977",
      "ville": "Langballig",
      "adresse": "Raiffeisenstr. 4-6",
      "brand": "Team",
      "lat": 54.7973,
      "lng": 9.6389,
      "fuels": {
        "gazole": 1.009,
        "sp95": 1.009,
        "e10": 1.009
      }
    },
    {
      "id": "d3d740d0-6bd0-4e07-9395-171d64fed0b6",
      "cp": "25842",
      "ville": "Langenhorn",
      "adresse": "An Der b5 13",
      "brand": "Team",
      "lat": 54.682979,
      "lng": 8.957178,
      "fuels": {
        "gazole": 1.009,
        "sp95": 1.009,
        "e10": 1.009
      }
    },
    {
      "id": "f059c970-6882-45ed-97c0-eb544f70b02c",
      "cp": "25842",
      "ville": "Langenhorn",
      "adresse": "An Der b5 14",
      "brand": "Bft-Willer",
      "lat": 54.685213,
      "lng": 8.957183,
      "fuels": {
        "gazole": 1.009,
        "sp95": 1.009,
        "e10": 1.009
      }
    },
    {
      "id": "b44f5bd3-104d-4f61-8e5f-598de9bc7eec",
      "cp": "25917",
      "ville": "Leck",
      "adresse": "Flensburger Str. 2",
      "brand": "Classic",
      "lat": 54.77,
      "lng": 8.97692,
      "fuels": {
        "gazole": 1.009,
        "sp95": 1.009,
        "e10": 1.009
      }
    },
    {
      "id": "1cdf2d5b-b4ab-4802-b61b-c2d646d1cc2a",
      "cp": "25917",
      "ville": "Leck",
      "adresse": "Flensburger Str. 37",
      "brand": "Elan",
      "lat": 54.765466,
      "lng": 8.979009,
      "fuels": {
        "gazole": 1.009,
        "sp95": 1.009,
        "e10": 1.009
      }
    },
    {
      "id": "0203bfc3-ad22-43b9-89c9-728d54d7d597",
      "cp": "25917",
      "ville": "Leck",
      "adresse": "Georg-Ohm-Straße 12a",
      "brand": "Schillhorn Tankstellen",
      "lat": 54.780399494772,
      "lng": 8.9833678471521,
      "fuels": {
        "gazole": 1.009,
        "sp95": 1.009,
        "e10": 1.009
      }
    },
    {
      "id": "005056ba-7cb6-1ed2-bceb-cb7450104d54",
      "cp": "23816",
      "ville": "Leezen",
      "adresse": "Hamburger Straße 20",
      "brand": "Star",
      "lat": 53.868964,
      "lng": 10.253076,
      "fuels": {
        "gazole": 1.009,
        "sp95": 1.009,
        "e10": 1.009
      }
    },
    {
      "id": "8717678b-d006-497c-9e66-5746ca7d26eb",
      "cp": "24816",
      "ville": "Legan",
      "adresse": "Legan 10b",
      "brand": "Classic",
      "lat": 54.1818,
      "lng": 9.63598,
      "fuels": {
        "gazole": 1.009,
        "sp95": 1.009,
        "e10": 1.009
      }
    },
    {
      "id": "a0e2f12c-a9c2-4dc7-9da4-86f87d657e4d",
      "cp": "23883",
      "ville": "Lehmrade",
      "adresse": "Möllner Str. 3",
      "brand": "oil!",
      "lat": 53.5948,
      "lng": 10.7512,
      "fuels": {
        "gazole": 1.009,
        "sp95": 1.009,
        "e10": 1.009
      }
    },
    {
      "id": "5cde342b-85bd-42a0-946c-bd21fa70b055",
      "cp": "23738",
      "ville": "Lensahn",
      "adresse": "Dieselstraße 1",
      "brand": "Aral",
      "lat": 54.21759,
      "lng": 10.896773,
      "fuels": {
        "gazole": 1.009,
        "sp95": 1.009,
        "e10": 1.009
      }
    },
    {
      "id": "005056ba-7cb6-1ed2-bceb-76ac288c4d25",
      "cp": "25992",
      "ville": "List",
      "adresse": "Listlandstraße 16",
      "brand": "Orlen",
      "lat": 55.015942,
      "lng": 8.429659,
      "fuels": {
        "gazole": 1.009,
        "sp95": 1.009,
        "e10": 1.009
      }
    },
    {
      "id": "2848ba4c-fe32-48c6-939b-5fd411205550",
      "cp": "24366",
      "ville": "Loose",
      "adresse": "Schwansenstr. 80",
      "brand": "Bft-Willer",
      "lat": 54.524,
      "lng": 9.8876,
      "fuels": {
        "gazole": 1.009,
        "sp95": 1.009,
        "e10": 1.009
      }
    },
    {
      "id": "0f7a816f-c2c2-4023-8117-c0677140bf8b",
      "cp": "23554",
      "ville": "Lübeck",
      "adresse": "Bei Der Lohmühle 19",
      "brand": "Avia",
      "lat": 53.88033,
      "lng": 10.67222,
      "fuels": {
        "gazole": 1.009,
        "sp95": 1.009,
        "e10": 1.009
      }
    },
    {
      "id": "005056ba-7cb6-1ed2-bceb-671ad0278d1f",
      "cp": "23554",
      "ville": "Lübeck",
      "adresse": "Bei Der Lohmühle 54",
      "brand": "Star",
      "lat": 53.878569,
      "lng": 10.669885,
      "fuels": {
        "gazole": 1.009,
        "sp95": 1.009,
        "e10": 1.009
      }
    },
    {
      "id": "bb4034bf-5e28-43e7-b4fd-84a5e56d5a2d",
      "cp": "23566",
      "ville": "Lübeck",
      "adresse": "Brandenbaumer Landstr. 117",
      "brand": "Shell",
      "lat": 53.857762,
      "lng": 10.734188,
      "fuels": {
        "gazole": 1.009,
        "sp95": 1.009,
        "e10": 1.009
      }
    },
    {
      "id": "58dc24ca-beae-4bfc-bed6-6d6b57bbd5c3",
      "cp": "23554",
      "ville": "Lübeck",
      "adresse": "Fackenburger Allee 20",
      "brand": "Aral",
      "lat": 53.87046,
      "lng": 10.670016,
      "fuels": {
        "gazole": 1.009,
        "sp95": 1.009,
        "e10": 1.009
      }
    },
    {
      "id": "348d35c0-0816-4b62-8e98-ad001b20b51c",
      "cp": "23564",
      "ville": "Lübeck",
      "adresse": "Falkenstraße 62",
      "brand": "Avia",
      "lat": 53.8748,
      "lng": 10.69486,
      "fuels": {
        "gazole": 1.009,
        "sp95": 1.009,
        "e10": 1.009
      }
    },
    {
      "id": "44eb291f-06e6-4d55-8ad3-9d98ba21011f",
      "cp": "23568",
      "ville": "Lübeck",
      "adresse": "Forstmeisterweg 85",
      "brand": "Avia",
      "lat": 53.88888,
      "lng": 10.71044,
      "fuels": {
        "gazole": 1.009,
        "sp95": 1.009,
        "e10": 1.009
      }
    },
    {
      "id": "e1a15081-2510-9107-e040-0b0a3dfe563c",
      "cp": "23560",
      "ville": "Lübeck",
      "adresse": "Geniner Str. - 7274",
      "brand": "Hem",
      "lat": 53.848777,
      "lng": 10.675396,
      "fuels": {
        "gazole": 1.009,
        "sp95": 1.009,
        "e10": 1.009
      }
    },
    {
      "id": "005056ba-7cb6-1ed2-bceb-adb01a608d45",
      "cp": "23560",
      "ville": "Lübeck",
      "adresse": "Geniner Straße 137",
      "brand": "Star",
      "lat": 53.848279,
      "lng": 10.67628,
      "fuels": {
        "gazole": 1.009,
        "sp95": 1.009,
        "e10": 1.009
      }
    },
    {
      "id": "86dedb16-0695-48bf-81e0-21962df8e78d",
      "cp": "23570",
      "ville": "Lübeck",
      "adresse": "Gneversdorfer Weg 12-14",
      "brand": "Aral",
      "lat": 53.95933,
      "lng": 10.861492,
      "fuels": {
        "gazole": 1.009,
        "sp95": 1.009,
        "e10": 1.009
      }
    },
    {
      "id": "6fdb7e09-f0ec-49d7-b4dd-bcf51639e70a",
      "cp": "23556",
      "ville": "Lübeck",
      "adresse": "Herrenholz 14",
      "brand": "Citti",
      "lat": 53.857068,
      "lng": 10.628232,
      "fuels": {
        "gazole": 1.009,
        "sp95": 1.009,
        "e10": 1.009
      }
    },
    {
      "id": "a52ed4b1-c2bd-4fb5-a9bb-569d2a47b263",
      "cp": "23556",
      "ville": "Lübeck",
      "adresse": "Krempelsdorfer Allee 63",
      "brand": "Aral",
      "lat": 53.884476,
      "lng": 10.653804,
      "fuels": {
        "gazole": 1.009,
        "sp95": 1.009,
        "e10": 1.009
      }
    },
    {
      "id": "005056ba-7cb6-1ed2-bceb-7435f6734d25",
      "cp": "23560",
      "ville": "Lübeck",
      "adresse": "Kronsforder Allee 124",
      "brand": "Star",
      "lat": 53.842351,
      "lng": 10.67886,
      "fuels": {
        "gazole": 1.009,
        "sp95": 1.009,
        "e10": 1.009
      }
    },
    {
      "id": "38adf5ce-bdad-4008-96f5-ee6b7044acbf",
      "cp": "23566",
      "ville": "Lübeck",
      "adresse": "Marlistraße 38",
      "brand": "Avia",
      "lat": 53.87043,
      "lng": 10.71144,
      "fuels": {
        "gazole": 1.009,
        "sp95": 1.009,
        "e10": 1.009
      }
    },
    {
      "id": "ecf6291e-3d8f-4c40-8002-b4848d5099ba",
      "cp": "23558",
      "ville": "Lübeck",
      "adresse": "Moislinger Allee 220",
      "brand": "oil!",
      "lat": 53.8503,
      "lng": 10.6476,
      "fuels": {
        "gazole": 1.009,
        "sp95": 1.009,
        "e10": 1.009
      }
    },
    {
      "id": "65f46a98-b588-5187-8da7-c12f8b32f6eb",
      "cp": "23569",
      "ville": "Lübeck",
      "adresse": "Möllerung 11-13",
      "brand": "Hoyer",
      "lat": 53.90187835693,
      "lng": 10.80628013611,
      "fuels": {
        "gazole": 1.009,
        "sp95": 1.009,
        "e10": 1.009
      }
    },
    {
      "id": "e1a15081-2582-9107-e040-0b0a3dfe563c",
      "cp": "23560",
      "ville": "Lübeck",
      "adresse": "Oslostr. 2",
      "brand": "Hem",
      "lat": 53.832215,
      "lng": 10.650969,
      "fuels": {
        "gazole": 1.009,
        "sp95": 1.009,
        "e10": 1.009
      }
    },
    {
      "id": "e1056745-8d5b-4c19-adc2-7ed1d040e39d",
      "cp": "23554",
      "ville": "Lübeck",
      "adresse": "Posener Str. 20a",
      "brand": "Avia Xpress",
      "lat": 53.888863,
      "lng": 10.691372,
      "fuels": {
        "gazole": 1.009,
        "sp95": 1.009,
        "e10": 1.009
      }
    },
    {
      "id": "d2ba52c2-6f83-45bd-abdc-660a878976df",
      "cp": "23554",
      "ville": "Lübeck",
      "adresse": "Posener Straße 5",
      "brand": "",
      "lat": 53.885615,
      "lng": 10.687823,
      "fuels": {
        "gazole": 1.009,
        "sp95": 1.009,
        "e10": 1.009
      }
    },
    {
      "id": "9aa6795c-5058-4a9b-b117-e4bf6b6b9fcf",
      "cp": "23566",
      "ville": "Lübeck",
      "adresse": "Schlutuper Str. 33",
      "brand": "Team",
      "lat": 53.8656,
      "lng": 10.7301,
      "fuels": {
        "gazole": 1.009,
        "sp95": 1.009,
        "e10": 1.009
      }
    },
    {
      "id": "4e7368d9-21b7-44d6-8ca5-53920bc6cb73",
      "cp": "23556",
      "ville": "Lübeck",
      "adresse": "Taschenmacherstr. 18",
      "brand": "Avia",
      "lat": 53.8661,
      "lng": 10.60304,
      "fuels": {
        "gazole": 1.009,
        "sp95": 1.009,
        "e10": 1.009
      }
    },
    {
      "id": "005056ba-7cb6-1ed2-bceb-735179714d23",
      "cp": "23566",
      "ville": "Lübeck",
      "adresse": "Walderseestraße 19-29",
      "brand": "Star",
      "lat": 53.863945,
      "lng": 10.713036,
      "fuels": {
        "gazole": 1.009,
        "sp95": 1.009,
        "e10": 1.009
      }
    },
    {
      "id": "cd0f78be-864b-5c39-a069-b437a3bb2b94",
      "cp": "23556",
      "ville": "Lübeck",
      "adresse": "Ziegelstr. 232",
      "brand": "Hoyer",
      "lat": 53.85368728638,
      "lng": 10.63258457184,
      "fuels": {
        "gazole": 1.009,
        "sp95": 1.009,
        "e10": 1.009
      }
    },
    {
      "id": "7bbf76d4-7012-4097-bfae-44ac2d2ad183",
      "cp": "23569",
      "ville": "Luebeck",
      "adresse": "Borstelweg 21",
      "brand": "Shell",
      "lat": 53.912282,
      "lng": 10.792612,
      "fuels": {
        "gazole": 1.009,
        "sp95": 1.009,
        "e10": 1.009
      }
    },
    {
      "id": "392d376c-3a92-4b90-9e31-97c54ba84312",
      "cp": "23564",
      "ville": "Luebeck",
      "adresse": "Falkenstr. 33",
      "brand": "Esso",
      "lat": 53.870975,
      "lng": 10.69781,
      "fuels": {
        "gazole": 1.009,
        "sp95": 1.009,
        "e10": 1.009
      }
    },