{
  "code": "04",
  "name": "Almería",
  "regionCode": "AND",
  "regionName": "Andalucía",
  "asOf": "2026-06-18T09:09:53.969Z",
  "source": "https://sedeaplicaciones.minetur.gob.es/ServiciosRESTCarburantes/PreciosCarburantes/EstacionesTerrestres/",
  "stationCount": 229,
  "fuels": {
    "gazole": {
      "count": 229,
      "mean": 1.5649,
      "median": 1.589,
      "min": 1.359,
      "max": 1.829
    },
    "sp95": {
      "count": 217,
      "mean": 1.4652,
      "median": 1.489,
      "min": 1.299,
      "max": 1.719
    },
    "sp98": {
      "count": 95,
      "mean": 1.6626,
      "median": 1.655,
      "min": 1.439,
      "max": 1.889
    },
    "e10": {
      "count": 1,
      "mean": 1.559,
      "median": 1.559,
      "min": 1.559,
      "max": 1.559
    },
    "gplc": {
      "count": 21,
      "mean": 1.0495,
      "median": 1.069,
      "min": 0.9,
      "max": 1.179
    }
  },
  "stations": [
    {
      "id": "10241",
      "cp": "04510",
      "ville": "Abla",
      "adresse": "Carretera Carretera Nacional 324 km. 268,1",
      "brand": "Cepsa",
      "lat": 37.14475,
      "lng": -2.772778,
      "fuels": {
        "gazole": 1.639,
        "sp95": 1.559,
        "sp98": 1.789
      }
    },
    {
      "id": "12113",
      "cp": "04770",
      "ville": "Adra",
      "adresse": "Autovia A-7 km. 391",
      "brand": "Cepsa",
      "lat": 36.765444,
      "lng": -2.985778,
      "fuels": {
        "gazole": 1.689,
        "sp95": 1.599
      }
    },
    {
      "id": "11926",
      "cp": "04770",
      "ville": "Adra",
      "adresse": "Carretera La Alqueria nº125 Salida Autovia 389 km. 389",
      "brand": "Repsol",
      "lat": 36.756139,
      "lng": -3.001889,
      "fuels": {
        "gazole": 1.689,
        "sp95": 1.599
      }
    },
    {
      "id": "5797",
      "cp": "04770",
      "ville": "Adra",
      "adresse": "Carretera N-340 km. 389,6",
      "brand": "Repsol",
      "lat": 36.748056,
      "lng": -3.003944,
      "fuels": {
        "gazole": 1.639,
        "sp95": 1.499,
        "sp98": 1.609
      }
    },
    {
      "id": "5627",
      "cp": "04720",
      "ville": "Aguadulce",
      "adresse": "Avenida Calos iii, 82",
      "brand": "Cepsa",
      "lat": 36.809278,
      "lng": -2.592917,
      "fuels": {
        "gazole": 1.639,
        "sp95": 1.499,
        "sp98": 1.629,
        "gplc": 1.049
      }
    },
    {
      "id": "6926",
      "cp": "04720",
      "ville": "Aguadulce",
      "adresse": "Avenida Carlos Iii (as), 305",
      "brand": "Bp Aguadulce",
      "lat": 36.811083,
      "lng": -2.584861,
      "fuels": {
        "gazole": 1.619,
        "sp95": 1.499,
        "sp98": 1.639
      }
    },
    {
      "id": "11946",
      "cp": "04720",
      "ville": "Aguadulce",
      "adresse": "Calle Jose Maria molina, S/N",
      "brand": "Repsol",
      "lat": 36.822694,
      "lng": -2.582556,
      "fuels": {
        "gazole": 1.655,
        "sp95": 1.525,
        "sp98": 1.635
      }
    },
    {
      "id": "6673",
      "cp": "04857",
      "ville": "Albanchez",
      "adresse": "Carretera Al-3325, 15,2 km. 15,2",
      "brand": "Carburantes Filabres",
      "lat": 37.292667,
      "lng": -2.181194,
      "fuels": {
        "gazole": 1.589,
        "sp95": 1.509
      }
    },
    {
      "id": "11829",
      "cp": "04800",
      "ville": "Albox",
      "adresse": "Carretera A-334 km. 72,300",
      "brand": "Carburantes Almanzora Sl",
      "lat": 37.369472,
      "lng": -2.121083,
      "fuels": {
        "gazole": 1.48,
        "sp95": 1.415
      }
    },
    {
      "id": "14442",
      "cp": "04800",
      "ville": "Albox",
      "adresse": "Carretera Lorca- baza, Paraje Los chorlitos, parc. 426, pol. 41 km. 426",
      "brand": "Raspa-Oil (serv. atendido)",
      "lat": 37.378139,
      "lng": -2.133194,
      "fuels": {
        "gazole": 1.498,
        "sp95": 1.417,
        "gplc": 0.987
      }
    },
    {
      "id": "6937",
      "cp": "04800",
      "ville": "Albox",
      "adresse": "Cr Huercal-Overa-villac. Km  70,1",
      "brand": "Bp San Jose",
      "lat": 37.379556,
      "lng": -2.1355,
      "fuels": {
        "gazole": 1.639,
        "sp95": 1.519,
        "sp98": 1.659
      }
    },
    {
      "id": "10382",
      "cp": "04800",
      "ville": "Albox",
      "adresse": "Poligono Industrial albox, Apartado 148, S/N",
      "brand": "e.s.terdiguera",
      "lat": 37.384472,
      "lng": -2.176278,
      "fuels": {
        "gazole": 1.489,
        "sp95": 1.419
      }
    },
    {
      "id": "14462",
      "cp": "04661",
      "ville": "Alfoquia (la)",
      "adresse": "Avenida andalucia, S/N",
      "brand": "Oil Barol Sl",
      "lat": 37.361889,
      "lng": -2.044917,
      "fuels": {
        "gazole": 1.449,
        "sp95": 1.399
      }
    },
    {
      "id": "8944",
      "cp": "04400",
      "ville": "Alhama De Almeria",
      "adresse": "Carretera A-348 km. 138,830",
      "brand": "Repsol",
      "lat": 36.949944,
      "lng": -2.555722,
      "fuels": {
        "gazole": 1.669,
        "sp95": 1.569,
        "sp98": 1.799
      }
    },
    {
      "id": "5746",
      "cp": "04007",
      "ville": "Almeria",
      "adresse": "Avenida Cabo De gata, 280",
      "brand": "Repsol",
      "lat": 36.816083,
      "lng": -2.432944,
      "fuels": {
        "gazole": 1.709,
        "sp95": 1.589,
        "sp98": 1.729
      }
    },
    {
      "id": "5619",
      "cp": "04007",
      "ville": "Almeria",
      "adresse": "Avenida Cabo De gata, 4",
      "brand": "Cepsa",
      "lat": 36.8335,
      "lng": -2.462528,
      "fuels": {
        "gazole": 1.664,
        "sp95": 1.519
      }
    },
    {
      "id": "9131",
      "cp": "04006",
      "ville": "Almeria",
      "adresse": "Avenida Del mediterraneo, S/N",
      "brand": "Alcampo",
      "lat": 36.852444,
      "lng": -2.446806,
      "fuels": {
        "gazole": 1.459,
        "sp95": 1.339,
        "sp98": 1.479
      }
    },
    {
      "id": "6964",
      "cp": "04008",
      "ville": "Almeria",
      "adresse": "Avenida Federico Garcia lorca, S/N",
      "brand": "Repsol",
      "lat": 36.852083,
      "lng": -2.467333,
      "fuels": {
        "gazole": 1.645,
        "sp95": 1.525,
        "sp98": 1.635,
        "gplc": 1.079
      }
    },
    {
      "id": "14879",
      "cp": "04008",
      "ville": "Almeria",
      "adresse": "Avenida mediterraneo, 184",
      "brand": "Plenergy",
      "lat": 36.837778,
      "lng": -2.447139,
      "fuels": {
        "gazole": 1.469,
        "sp95": 1.349
      }
    },
    {
      "id": "11493",
      "cp": "04007",
      "ville": "Almeria",
      "adresse": "Avenida mediterraneo, S/N",
      "brand": "Repsol",
      "lat": 36.827333,
      "lng": -2.445028,
      "fuels": {
        "gazole": 1.635,
        "sp95": 1.515,
        "sp98": 1.675
      }
    },
    {
      "id": "15858",
      "cp": "04006",
      "ville": "Almeria",
      "adresse": "Avenida Nuestra Señora De montserrat, 160",
      "brand": "Petroprix",
      "lat": 36.838694,
      "lng": -2.444528,
      "fuels": {
        "gazole": 1.469,
        "sp95": 1.349
      }
    },
    {
      "id": "14241",
      "cp": "04007",
      "ville": "Almeria",
      "adresse": "Avenida Sierra alhamilla, 310",
      "brand": "La Torre",
      "lat": 36.841972,
      "lng": -2.439056,
      "fuels": {
        "gazole": 1.499,
        "sp95": 1.399
      }
    },
    {
      "id": "10168",
      "cp": "04009",
      "ville": "Almeria",
      "adresse": "Calle Carretera De nijar, S/N",
      "brand": "Cepsa",
      "lat": 36.845861,
      "lng": -2.450111,
      "fuels": {
        "gazole": 1.629,
        "sp95": 1.509,
        "sp98": 1.659
      }
    },
    {
      "id": "13023",
      "cp": "04009",
      "ville": "Almeria",
      "adresse": "Calle cobre, 26",
      "brand": "Sectoroil",
      "lat": 36.85325,
      "lng": -2.431333,
      "fuels": {
        "gazole": 1.499,
        "sp95": 1.399,
        "gplc": 1.029
      }
    },
    {
      "id": "10829",
      "cp": "04009",
      "ville": "Almeria",
      "adresse": "Calle Cuesta De Los callejones, 0",
      "brand": " Bp Rambla Iniesta",
      "lat": 36.865528,
      "lng": -2.448639,
      "fuels": {
        "gazole": 1.609,
        "sp95": 1.499,
        "sp98": 1.639
      }
    },
    {
      "id": "12812",
      "cp": "04006",
      "ville": "Almeria",
      "adresse": "Calle Jorge guillen, S/N",
      "brand": "Carrefour",
      "lat": 36.842167,
      "lng": -2.442972,
      "fuels": {
        "gazole": 1.589,
        "sp95": 1.459,
        "sp98": 1.619
      }
    },
    {
      "id": "15440",
      "cp": "04009",
      "ville": "Almeria",
      "adresse": "Calle mica, 62",
      "brand": "Ciudad Del Taxi",
      "lat": 36.854778,
      "lng": -2.432556,
      "fuels": {
        "gazole": 1.548,
        "sp95": 1.438,
        "gplc": 0.95
      }
    },
    {
      "id": "10433",
      "cp": "04006",
      "ville": "Almeria",
      "adresse": "Calle monserrat, 0",
      "brand": "Bp Montserrat  Almeria",
      "lat": 36.840028,
      "lng": -2.445611,
      "fuels": {
        "gazole": 1.609,
        "sp95": 1.499,
        "sp98": 1.639
      }
    },
    {
      "id": "14876",
      "cp": "04008",
      "ville": "Almeria",
      "adresse": "Calle Olula Del rio, 1",
      "brand": "Plenergy",
      "lat": 36.836222,
      "lng": -2.448361,
      "fuels": {
        "gazole": 1.469,
        "sp95": 1.349
      }
    },
    {
      "id": "14916",
      "cp": "04001",
      "ville": "Almeria",
      "adresse": "Calle rosita, 25",
      "brand": "Sectoroil",
      "lat": 36.867972,
      "lng": -2.441389,
      "fuels": {
        "gazole": 1.499,
        "sp95": 1.399
      }
    },
    {
      "id": "15821",
      "cp": "04009",
      "ville": "Almeria",
      "adresse": "Camino Los almendros, 18",
      "brand": "Plenergy",
      "lat": 36.865139,
      "lng": -2.449472,
      "fuels": {
        "gazole": 1.469,
        "sp95": 1.349
      }
    },
    {
      "id": "12615",
      "cp": "04120",
      "ville": "Almeria",
      "adresse": "Carretera Al-12 km. 3.6",
      "brand": "Moeve",
      "lat": 36.843083,
      "lng": -2.422972,
      "fuels": {
        "gazole": 1.669,
        "sp95": 1.529,
        "sp98": 1.665,
        "gplc": 1.055
      }
    },
    {
      "id": "15129",
      "cp": "04120",
      "ville": "Almeria",
      "adresse": "Carretera Al-3117 - Al-3110 km. 0+925",
      "brand": "Petroprix",
      "lat": 36.854333,
      "lng": -2.420194,
      "fuels": {
        "gazole": 1.469,
        "sp95": 1.349
      }
    },
    {
      "id": "5806",
      "cp": "04009",
      "ville": "Almeria",
      "adresse": "Carretera Alp 201 km. 1,60",
      "brand": "Repsol",
      "lat": 36.853639,
      "lng": -2.420722,
      "fuels": {
        "gazole": 1.649,
        "sp95": 1.539,
        "sp98": 1.669
      }
    },
    {
      "id": "6524",
      "cp": "04120",
      "ville": "Almeria",
      "adresse": "Carretera Carretera Almeria km. 201",
      "brand": "Bp Los Partidores",
      "lat": 36.840833,
      "lng": -2.419722,
      "fuels": {
        "gazole": 1.659,
        "sp95": 1.549,
        "sp98": 1.689
      }
    },
    {
      "id": "15729",
      "cp": "04009",
      "ville": "Almeria",
      "adresse": "Carretera De granada, 2 Tramos 55.57 km. S/N",
      "brand": "Plenergy",
      "lat": 36.863833,
      "lng": -2.448917,
      "fuels": {
        "gazole": 1.469,
        "sp95": 1.349
      }
    },
    {
      "id": "16467",
      "cp": "04009",
      "ville": "Almeria",
      "adresse": "Carretera Del Mami Km 0,4 Al-3117 km. 0,4",
      "brand": "Raspaoil Almeria",
      "lat": 36.851222,
      "lng": -2.452167,
      "fuels": {
        "gazole": 1.469,
        "sp95": 1.349,
        "gplc": 0.9
      }
    },
    {
      "id": "5641",
      "cp": "04002",
      "ville": "Almeria",
      "adresse": "Carretera N-340a km. 438,5",
      "brand": "Ballenoil",
      "lat": 36.829444,
      "lng": -2.492667,
      "fuels": {
        "gazole": 1.469,
        "sp95": 1.349
      }
    },
    {
      "id": "5620",
      "cp": "04009",
      "ville": "Almeria",
      "adresse": "Carretera N-340a km. 444",
      "brand": "Cepsa",
      "lat": 36.857778,
      "lng": -2.447278,
      "fuels": {
        "gazole": 1.645,
        "sp95": 1.515,
        "sp98": 1.659
      }
    },
    {
      "id": "14598",
      "cp": "04001",
      "ville": "Almeria",
      "adresse": "Carretera Nijar Los Molinos km. 396",
      "brand": "Plenergy",
      "lat": 36.843556,
      "lng": -2.436333,
      "fuels": {
        "gazole": 1.469,
        "sp95": 1.349
      }
    },
    {
      "id": "6826",
      "cp": "04006",
      "ville": "Almeria",
      "adresse": "Cl Padre mendez, s.n.",
      "brand": "Repsol",
      "lat": 36.839444,
      "lng": -2.446722,
      "fuels": {
        "gazole": 1.635,
        "sp95": 1.515,
        "sp98": 1.675
      }
    },
    {
      "id": "16019",
      "cp": "04008",
      "ville": "Almeria",
      "adresse": "Zona Norte De La Rambla Calle José Manuel Gómez angulo, S/N",
      "brand": "Plenergy",
      "lat": 36.854611,
      "lng": -2.469694,
      "fuels": {
        "gazole": 1.469,
        "sp95": 1.349
      }
    },
    {
      "id": "12687",
      "cp": "04130",
      "ville": "Alquian (el)",
      "adresse": "Autovia a7 km. 460,000",
      "brand": "Repsol",
      "lat": 36.875028,
      "lng": -2.336444,
      "fuels": {
        "gazole": 1.679,
        "sp95": 1.569,
        "sp98": 1.699
      }
    },
    {
      "id": "13518",
      "cp": "04130",
      "ville": "Alquian (el)",
      "adresse": "Carretera Nijar-La Cañada km. 7,500",
      "brand": "e.s. Alvamar",
      "lat": 36.850889,
      "lng": -2.371972,
      "fuels": {
        "gazole": 1.559,
        "sp95": 1.469
      }
    },
    {
      "id": "12261",
      "cp": "04628",
      "ville": "Antas",
      "adresse": "Autovia Autovia Del Mediterraneo km. 529",
      "brand": "Shell",
      "lat": 37.21375,
      "lng": -1.898028,
      "fuels": {
        "gazole": 1.606,
        "sp95": 1.515,
        "gplc": 1.1
      }
    },
    {
      "id": "6438",
      "cp": "04628",
      "ville": "Antas",
      "adresse": "Autovia Murcia-Almeria Salida 537 km. 537",
      "brand": "Bp",
      "lat": 37.285833,
      "lng": -1.934556,
      "fuels": {
        "gazole": 1.679,
        "sp95": 1.549,
        "sp98": 1.689,
        "gplc": 1.089
      }
    },
    {
      "id": "8869",
      "cp": "04628",
      "ville": "Antas",
      "adresse": "Carretera Nacional 340 km. 436",
      "brand": "hnos.martinez",
      "lat": 37.266222,
      "lng": -1.913639,
      "fuels": {
        "gazole": 1.519,
        "sp95": 1.389
      }
    },
    {
      "id": "15831",
      "cp": "04628",
      "ville": "Antas",
      "adresse": "Carretera Nacional 340 km. 537",
      "brand": "Isabel Alonso",
      "lat": 37.270556,
      "lng": -1.922472,
      "fuels": {
        "gazole": 1.493,
        "sp95": 1.371
      }
    },
    {
      "id": "9462",
      "cp": "04628",
      "ville": "Antas",
      "adresse": "Poligono p.i. El real, S/N",
      "brand": "Cepsa-Moeve",
      "lat": 37.260306,
      "lng": -1.900306,
      "fuels": {
        "gazole": 1.639,
        "sp95": 1.509,
        "sp98": 1.639
      }
    },
    {
      "id": "13896",
      "cp": "04660",
      "ville": "Arboleas",
      "adresse": "Poligono Los llanos, 17",
      "brand": "e.s.arboleas",
      "lat": 37.353056,
      "lng": -2.096806,
      "fuels": {
        "gazole": 1.449,
        "sp95": 1.399
      }
    },
    {
      "id": "14066",
      "cp": "04660",
      "ville": "Arboleas",
      "adresse": "Poligono Servicio Los Llanos (ll), 34",
      "brand": "Mora Oil ",
      "lat": 37.354,
      "lng": -2.094778,
      "fuels": {
        "gazole": 1.499,
        "sp95": 1.409
      }
    },
    {
      "id": "10571",
      "cp": "04712",
      "ville": "Balerma",
      "adresse": "Avenida La Redonda S/n, S/N",
      "brand": "e.s.balermamar s.c.a",
      "lat": 36.733306,
      "lng": -2.884444,
      "fuels": {
        "gazole": 1.399,
        "sp95": 1.349
      }
    },
    {
      "id": "16199",
      "cp": "04700",
      "ville": "Balerma",
      "adresse": "Calle pérgola, S/N",
      "brand": "Plenergy",
      "lat": 36.759278,
      "lng": -2.806444,
      "fuels": {
        "gazole": 1.385,
        "sp95": 1.299
      }
    },
    {
      "id": "6919",
      "cp": "04117",
      "ville": "Barranquete (el)",
      "adresse": "Carretera Al-3201 km. 6,5",
      "brand": "Repsol",
      "lat": 36.815778,
      "lng": -2.160972,
      "fuels": {
        "gazole": 1.629,
        "sp95": 1.515
      }
    },
    {
      "id": "6856",
      "cp": "04410",
      "ville": "Benahadux",
      "adresse": "Carrera A-92 km.391, 40",
      "brand": "Repsol",
      "lat": 36.924639,
      "lng": -2.461556,
      "fuels": {
        "gazole": 1.629,
        "sp95": 1.549,
        "sp98": 1.669
      }
    },
    {
      "id": "6954",
      "cp": "04760",
      "ville": "Berja",
      "adresse": "Avenida Jose Barrionuevo peña, S/N",
      "brand": "Repsol",
      "lat": 36.841667,
      "lng": -2.945833,
      "fuels": {
        "gazole": 1.609,
        "sp95": 1.489,
        "sp98": 1.649
      }
    },
    {
      "id": "13161",
      "cp": "04760",
      "ville": "Berja",
      "adresse": "Calle Los iberos, 13",
      "brand": "Es Vefruber",
      "lat": 36.83325,
      "lng": -2.9275,
      "fuels": {
        "gazole": 1.45,
        "sp95": 1.44
      }
    },
    {
      "id": "11701",
      "cp": "04760",
      "ville": "Berja",
      "adresse": "Camino Olivo gordo, S/N",
      "brand": "Bp",
      "lat": 36.831889,
      "lng": -2.959944,
      "fuels": {
        "gazole": 1.689,
        "sp95": 1.719,
        "sp98": 1.879
      }
    },
    {
      "id": "5764",
      "cp": "04760",
      "ville": "Berja",
      "adresse": "Carretera A-358 km. 3",
      "brand": "Truckstop",
      "lat": 36.834389,
      "lng": -2.930361,
      "fuels": {
        "gazole": 1.399,
        "sp95": 1.399
      }
    },
    {
      "id": "14538",
      "cp": "04110",
      "ville": "Campohermoso",
      "adresse": "Calle Villa Maria surtidor, S/N",
      "brand": "Petroprix",
      "lat": 36.925778,
      "lng": -2.143944,
      "fuels": {
        "gazole": 1.519,
        "sp95": 1.379
      }
    },
    {
      "id": "8788",
      "cp": "04110",
      "ville": "Campohermoso",
      "adresse": "Carretera De Las Negras km. 149",
      "brand": "Eni",
      "lat": 36.940667,
      "lng": -2.138694,
      "fuels": {
        "gazole": 1.629,
        "sp95": 1.509,
        "sp98": 1.679
      }
    },
    {
      "id": "5640",
      "cp": "04110",
      "ville": "Campohermoso",
      "adresse": "Carretera Irida km. 15,6",
      "brand": "Cepsa",
      "lat": 36.927306,
      "lng": -2.143667,
      "fuels": {
        "gazole": 1.665,
        "sp95": 1.509,
        "sp98": 1.669
      }
    },
    {
      "id": "14870",
      "cp": "04110",
      "ville": "Campohermoso",
      "adresse": "Carretera Los Gallardos km. 40",
      "brand": "Plenergy",
      "lat": 36.935694,
      "lng": -2.133694,
      "fuels": {
        "gazole": 1.519,
        "sp95": 1.379
      }
    },
    {
      "id": "13560",
      "cp": "04869",
      "ville": "Cañada De Las Cruces (la)",
      "adresse": "Calle Argentina (cañ), 34",
      "brand": "Gonzalez Cañabate Carburantes",
      "lat": 37.363417,
      "lng": -2.266972,
      "fuels": {
        "gazole": 1.449,
        "sp95": 1.375
      }
    },
    {
      "id": "5618",
      "cp": "04120",
      "ville": "Cañada De San Urbano (la)",
      "adresse": "Carretera Nijar (alquian) km. 6,9",
      "brand": "Moeve",
      "lat": 36.845,
      "lng": -2.390944,
      "fuels": {
        "gazole": 1.669,
        "sp95": 1.558
      }
    },
    {
      "id": "11825",
      "cp": "04450",
      "ville": "Canjayar",
      "adresse": "Carretera A-348 km. 105,500",
      "brand": "Agla",
      "lat": 37.001583,
      "lng": -2.713944,
      "fuels": {
        "gazole": 1.699,
        "sp95": 1.639,
        "sp98": 1.889
      }
    },
    {
      "id": "13828",
      "cp": "04850",
      "ville": "Cantoria",
      "adresse": "Diseminado El llano, 1",
      "brand": "Carburantes De Cantoria",
      "lat": 37.358833,
      "lng": -2.20225,
      "fuels": {
        "gazole": 1.525
      }
    },
    {
      "id": "6852",
      "cp": "04140",
      "ville": "Carboneras",
      "adresse": "Plaza Poligono industrial, 16",
      "brand": "Bp Oil España ",
      "lat": 36.987694,
      "lng": -1.909861,
      "fuels": {
        "gazole": 1.669,
        "sp95": 1.529,
        "sp98": 1.669
      }
    },
    {
      "id": "11569",
      "cp": "04825",
      "ville": "Chirivel",
      "adresse": "Autovia A-92 km. 385",
      "brand": "Repsol",
      "lat": 37.595778,
      "lng": -2.281028,
      "fuels": {
        "gazole": 1.599,
        "sp95": 1.509,
        "sp98": 1.609
      }
    },
    {
      "id": "15919",
      "cp": "04890",
      "ville": "Claveros (los)",
      "adresse": "Calle Mina Leona 1, 1",
      "brand": "Hafesa",
      "lat": 37.360417,
      "lng": -2.508722,
      "fuels": {
        "gazole": 1.479,
        "sp95": 1.429
      }
    },
    {
      "id": "14554",
      "cp": "04610",
      "ville": "Cuevas Del Almanzora",
      "adresse": "Avenida A-332 Carlos herrera, 10",
      "brand": "Plenergy",
      "lat": 37.289139,
      "lng": -1.877417,
      "fuels": {
        "gazole": 1.529,
        "sp95": 1.379
      }
    },
    {
      "id": "5638",
      "cp": "04610",
      "ville": "Cuevas Del Almanzora",
      "adresse": "Avenida De atrales, 34",
      "brand": "Cepsa",
      "lat": 37.292556,
      "lng": -1.878833,
      "fuels": {
        "gazole": 1.647,
        "sp95": 1.521
      }
    },
    {
      "id": "9257",
      "cp": "04610",
      "ville": "Cuevas Del Almanzora",
      "adresse": "Carretera A-332 km. 11",
      "brand": "Es Borja - e.s.sobrado De picato, s.l.u",
      "lat": 37.296361,
      "lng": -1.823944,
      "fuels": {
        "gazole": 1.789,
        "sp95": 1.499
      }
    },
    {
      "id": "10926",
      "cp": "04750",
      "ville": "Dalias",
      "adresse": "Avenida De Las alpujarras, S/N",
      "brand": "e.s. Campejido Dalias",
      "lat": 36.814722,
      "lng": -2.868306,
      "fuels": {
        "gazole": 1.385,
        "sp95": 1.303
      }
    },
    {
      "id": "9740",
      "cp": "04750",
      "ville": "Dalias",
      "adresse": "ctra. El Ejido-Berja Km 10,200",
      "brand": "Truck Stop Dalias",
      "lat": 36.81125,
      "lng": -2.863444,
      "fuels": {
        "gazole": 1.399,
        "sp95": 1.399,
        "sp98": 1.699
      }
    },
    {
      "id": "6838",
      "cp": "04700",
      "ville": "Ejido (el)",
      "adresse": "Avenida Del treinta, 121",
      "brand": "Repsol",
      "lat": 36.777611,
      "lng": -2.792222,
      "fuels": {
        "gazole": 1.639,
        "sp95": 1.515
      }
    },
    {
      "id": "5795",
      "cp": "04700",
      "ville": "Ejido (el)",
      "adresse": "Avenida oasis, 260",
      "brand": "Repsol",
      "lat": 36.758556,
      "lng": -2.805444,
      "fuels": {
        "gazole": 1.619,
        "sp95": 1.585,
        "sp98": 1.659,
        "gplc": 1.109
      }
    },
    {
      "id": "11807",
      "cp": "04700",
      "ville": "Ejido (el)",
      "adresse": "Calle arquimedes, S/N",
      "brand": "Ciudad ejido,s.l",
      "lat": 36.758028,
      "lng": -2.801167,
      "fuels": {
        "gazole": 1.538
      }
    },
    {
      "id": "5561",
      "cp": "04700",
      "ville": "Ejido (el)",
      "adresse": "Calle avellano, 492",
      "brand": "Gasolinera El Ejido",
      "lat": 36.774722,
      "lng": -2.802306,
      "fuels": {
        "gazole": 1.399,
        "sp95": 1.309
      }
    },
    {
      "id": "5765",
      "cp": "04700",
      "ville": "Ejido (el)",
      "adresse": "Calle bulevar, 74",
      "brand": "Repsol La Costa",
      "lat": 36.771278,
      "lng": -2.826111,
      "fuels": {
        "gazole": 1.659,
        "sp95": 1.519
      }
    },
    {
      "id": "13415",
      "cp": "04700",
      "ville": "Ejido (el)",
      "adresse": "Calle Camino De Adra S/N Esquina Calle La parra, 0",
      "brand": "Bp El Ejido - Coop Santa Maria",
      "lat": 36.769278,
      "lng": -2.827583,
      "fuels": {
        "gazole": 1.481,
        "sp95": 1.439
      }
    },
    {
      "id": "8985",
      "cp": "04700",
      "ville": "Ejido (el)",
      "adresse": "Calle Camino De roquetas, 6",
      "brand": "e.s. Coop Santa Maria Del Aguila - El Ejido",
      "lat": 36.778167,
      "lng": -2.772639,
      "fuels": {
        "gazole": 1.388,
        "sp95": 1.314
      }
    },
    {
      "id": "10910",
      "cp": "04700",
      "ville": "Ejido (el)",
      "adresse": "Calle Cuatro Vientos 228, S/N",
      "brand": "e.s Campoejido Las Peñas",
      "lat": 36.768917,
      "lng": -2.831861,
      "fuels": {
        "gazole": 1.385,
        "sp95": 1.303
      }
    },
    {
      "id": "16414",
      "cp": "04700",
      "ville": "Ejido (el)",
      "adresse": "Calle Juan De La cierva, 1",
      "brand": "Beroil",
      "lat": 36.758083,
      "lng": -2.800389,
      "fuels": {
        "gazole": 1.359,
        "sp95": 1.299
      }
    },
    {
      "id": "13874",
      "cp": "04700",
      "ville": "Ejido (el)",
      "adresse": "Calle marsella, S/N",
      "brand": "Agroponiente",
      "lat": 36.782944,
      "lng": -2.756139,
      "fuels": {
        "gazole": 1.596,
        "sp95": 1.469
      }
    },
    {
      "id": "14955",
      "cp": "04700",
      "ville": "Ejido (el)",
      "adresse": "Calle Sierra De atalaya, 2",
      "brand": "Plenergy",
      "lat": 36.776889,
      "lng": -2.794083,
      "fuels": {
        "gazole": 1.385,
        "sp95": 1.299
      }
    },
    {
      "id": "5605",
      "cp": "04700",
      "ville": "Ejido (el)",
      "adresse": "Carrera almerimar, 5",
      "brand": "Bahia De Almerimar ",
      "lat": 36.720917,
      "lng": -2.799917,
      "fuels": {
        "gazole": 1.619,
        "sp95": 1.519,
        "sp98": 1.649
      }
    },
    {
      "id": "10925",
      "cp": "04700",
      "ville": "Ejido (el)",
      "adresse": "Carretera Al-9008 km. 4,593",
      "brand": "e.s Campoejido Tierras Almeria",
      "lat": 36.723944,
      "lng": -2.795139,
      "fuels": {
        "gazole": 1.385,
        "sp95": 1.303
      }
    },
    {
      "id": "6872",
      "cp": "04700",
      "ville": "Ejido (el)",
      "adresse": "Carretera Almerimar km. S/N",
      "brand": "Hafesa",
      "lat": 36.754056,
      "lng": -2.806056,
      "fuels": {
        "gazole": 1.459,
        "sp95": 1.419
      }
    },
    {
      "id": "5621",
      "cp": "04700",
      "ville": "Ejido (el)",
      "adresse": "Carretera Carretera De Berja km. 16",
      "brand": "Campoejido  ",
      "lat": 36.78425,
      "lng": -2.834417,
      "fuels": {
        "gazole": 1.385,
        "sp95": 1.303,
        "gplc": 0.984
      }
    },
    {
      "id": "5622",
      "cp": "04700",
      "ville": "Ejido (el)",
      "adresse": "Carretera Carretera De Berja km. 16",
      "brand": "Campoejido",
      "lat": 36.780778,
      "lng": -2.831333,
      "fuels": {
        "gazole": 1.385,
        "sp95": 1.303,
        "sp98": 1.503
      }
    },
    {
      "id": "5623",
      "cp": "04700",
      "ville": "Ejido (el)",
      "adresse": "Carretera De Almerimar km. 3",
      "brand": "e.s. Campoejido Ctra Almerimar",
      "lat": 36.727361,
      "lng": -2.802194,
      "fuels": {
        "gazole": 1.385,
        "sp95": 1.303
      }
    },
    {
      "id": "8918",
      "cp": "04700",
      "ville": "Ejido (el)",
      "adresse": "Cra De La Mojonera Norias 155",
      "brand": "Es Norias",
      "lat": 36.757417,
      "lng": -2.748222,
      "fuels": {
        "gazole": 1.619,
        "sp95": 1.519,
        "sp98": 1.649
      }
    },
    {
      "id": "14743",
      "cp": "04700",
      "ville": "Ejido (el)",
      "adresse": "Diseminado Los majales, 39",
      "brand": "Estacion De Servicio Vicasol s.l.",
      "lat": 36.737778,
      "lng": -2.816667,
      "fuels": {
        "gazole": 1.5,
        "sp95": 1.4
      }
    },
    {
      "id": "8919",
      "cp": "04700",
      "ville": "Ejido (el)",
      "adresse": "Paraje Derramadero De Cabriles",
      "brand": "Ejido Oeste",
      "lat": 36.768306,
      "lng": -2.828556,
      "fuels": {
        "gazole": 1.619,
        "sp95": 1.519,
        "sp98": 1.649
      }
    },
    {
      "id": "12661",
      "cp": "04700",
      "ville": "Ejido (el)",
      "adresse": "Paraje Los aljibillos, S/N",
      "brand": "Indasol",
      "lat": 36.788611,
      "lng": -2.825111,
      "fuels": {
        "gazole": 1.7,
        "sp95": 1.6
      }
    },
    {
      "id": "15462",
      "cp": "04710",
      "ville": "Ejido (el)",
      "adresse": "Poligono Industrial La Redonda S/n, S/N",
      "brand": "Gasoleos vilomore,s.l.",
      "lat": 36.785444,
      "lng": -2.742972,
      "fuels": {
        "gazole": 1.498
      }
    },
    {
      "id": "10562",
      "cp": "04700",
      "ville": "Ejido (el)",
      "adresse": "Rambla bernal, 19",
      "brand": "Transportes Bearca s.l.",
      "lat": 36.797944,
      "lng": -2.727306,
      "fuels": {
        "gazole": 1.499
      }
    },
    {
      "id": "13771",
      "cp": "04869",
      "ville": "Estacion (la)",
      "adresse": "Paraje mojon. Poligono 5. parcela, 44",
      "brand": "Suimasa",
      "lat": 37.358167,
      "lng": -2.282472,
      "fuels": {
        "gazole": 1.449,
        "sp95": 1.375
      }
    },
    {
      "id": "5624",
      "cp": "04500",
      "ville": "Fiñana",
      "adresse": "A-92a Km 333",
      "brand": "Cepsa",
      "lat": 37.160889,
      "lng": -2.832778,
      "fuels": {
        "gazole": 1.639,
        "sp95": 1.559,
        "sp98": 1.789
      }
    },
    {
      "id": "12695",
      "cp": "04869",
      "ville": "Fines",
      "adresse": "Carretera De Baza A Huercal Overa km. 58,000",
      "brand": "Repsol",
      "lat": 37.363194,
      "lng": -2.268139,
      "fuels": {
        "gazole": 1.679,
        "sp95": 1.549
      }
    },
    {
      "id": "10711",
      "cp": "04869",
      "ville": "Fines",
      "adresse": "Poligono Las cruces,, 4",
      "brand": "coop. Tracomar",
      "lat": 37.364889,
      "lng": -2.266167,
      "fuels": {
        "gazole": 1.437
      }
    },
    {
      "id": "5625",
      "cp": "04560",
      "ville": "Gador",
      "adresse": "Barrio ruini, 16",
      "brand": "Cepsa",
      "lat": 36.945361,
      "lng": -2.475083,
      "fuels": {
        "gazole": 1.634,
        "sp95": 1.545
      }
    },
    {
      "id": "6865",
      "cp": "04280",
      "ville": "Gallardos (los)",
      "adresse": "Carretera ctra. Nacional 340 km. 520,700",
      "brand": "Repsol",
      "lat": 37.168139,
      "lng": -1.932611,
      "fuels": {
        "gazole": 1.659,
        "sp95": 1.529
      }
    },
    {
      "id": "15365",
      "cp": "04280",
      "ville": "Gallardos (los)",
      "adresse": "Carretera Nacional 340 Poligono Industrial El Apolo km. S/N",
      "brand": "Coaltrans S Coop And",
      "lat": 37.169917,
      "lng": -1.9305,
      "fuels": {
        "gazole": 1.5
      }
    },
    {
      "id": "11934",
      "cp": "04738",
      "ville": "Gangosa (la)",
      "adresse": "Avenida Sierra De gador, 6",
      "brand": "Campo Roquetas",
      "lat": 36.803278,
      "lng": -2.625167,
      "fuels": {
        "gazole": 1.505,
        "sp95": 1.415
      }
    },
    {
      "id": "16079",
      "cp": "04630",
      "ville": "Garrucha",
      "adresse": "Avenida andalucia, S/N",
      "brand": "Plenergy",
      "lat": 37.184694,
      "lng": -1.825583,
      "fuels": {
        "gazole": 1.509,
        "sp95": 1.379
      }
    },
    {
      "id": "5653",
      "cp": "04550",
      "ville": "Gergal",
      "adresse": "Autovia a92 Sur km. 358",
      "brand": "Bp",
      "lat": 37.116917,
      "lng": -2.561278,
      "fuels": {
        "gazole": 1.669,
        "sp95": 1.559,
        "sp98": 1.699
      }
    },
    {
      "id": "12273",
      "cp": "04647",
      "ville": "Guazamara",
      "adresse": "Avenida andalucia, ",
      "brand": "a.s. El Artinero",
      "lat": 37.347278,
      "lng": -1.778194,
      "fuels": {
        "gazole": 1.629,
        "sp95": 1.539,
        "sp98": 1.659
      }
    },
    {
      "id": "12138",
      "cp": "04850",
      "ville": "Hojilla (la)",
      "adresse": "Poligono Industrial S/n, 1",
      "brand": "Indapak Logistics",
      "lat": 37.374167,
      "lng": -2.20575,
      "fuels": {
        "gazole": 1.489,
        "sp95": 1.419
      }
    },
    {
      "id": "6861",
      "cp": "04230",
      "ville": "Huercal De Almeria",
      "adresse": "Carretera N-340 km. 446",
      "brand": "Repsol",
      "lat": 36.874972,
      "lng": -2.444778,
      "fuels": {
        "gazole": 1.659,
        "sp95": 1.529,
        "sp98": 1.629,
        "gplc": 1.055
      }
    },
    {
      "id": "13892",
      "cp": "04230",
      "ville": "Huercal De Almeria",
      "adresse": "Carretera Nacional 340, Paraje Zamarula km. 449",
      "brand": "Cepsa",
      "lat": 36.898972,
      "lng": -2.445167,
      "fuels": {
        "gazole": 1.649,
        "sp95": 1.529
      }
    },
    {
      "id": "16143",
      "cp": "04230",
      "ville": "Huercal De Almeria",
      "adresse": "Carretera Torrecárdenas km. 16",
      "brand": "Plenergy",
      "lat": 36.865194,
      "lng": -2.442806,
      "fuels": {
        "gazole": 1.469,
        "sp95": 1.349
      }
    },
    {
      "id": "14985",
      "cp": "04230",
      "ville": "Huercal De Almeria",
      "adresse": "Carretera Torrecárdenas nº 167 km. 8",
      "brand": "Plenergy",
      "lat": 36.866694,
      "lng": -2.440944,
      "fuels": {
        "gazole": 1.469,
        "sp95": 1.349
      }
    },
    {
      "id": "13182",
      "cp": "04662",
      "ville": "Huercal-Overa",
      "adresse": "Autovia a7 Salida 559 km. 559",
      "brand": "Cepsa",
      "lat": 37.434583,
      "lng": -1.910667,
      "fuels": {
        "gazole": 1.699,
        "sp95": 1.599,
        "sp98": 1.699
      }
    },
    {
      "id": "6869",
      "cp": "04662",
      "ville": "Huercal-Overa",
      "adresse": "Autovia Murcia - Almeria e15 Salida 682 km. ",
      "brand": "Repsol",
      "lat": 37.352056,
      "lng": -1.970917,
      "fuels": {
        "gazole": 1.699,
        "sp95": 1.589,
        "sp98": 1.749
      }
    },
    {
      "id": "13417",
      "cp": "04600",
      "ville": "Huercal-Overa",
      "adresse": "Calle Miguel Uribe gómez, 4",
      "brand": "Oil Jcj",
      "lat": 37.415528,
      "lng": -1.967222,
      "fuels": {
        "gazole": 1.569,
        "sp95": 1.429
      }
    },
    {
      "id": "11110",
      "cp": "04600",
      "ville": "Huercal-Overa",
      "adresse": "Carrera A-327, 32",
      "brand": "Oil Huercal-Overa  ",
      "lat": 37.411111,
      "lng": -1.963028,
      "fuels": {
        "gazole": 1.549,
        "sp95": 1.429
      }
    },
    {
      "id": "5639",
      "cp": "04600",
      "ville": "Huercal-Overa",
      "adresse": "Carretera A-350 km. 5,100",
      "brand": "e.s h8 Energys",
      "lat": 37.416778,
      "lng": -1.876222,
      "fuels": {
        "gazole": 1.539,
        "sp95": 1.429
      }
    },
    {
      "id": "6945",
      "cp": "04600",
      "ville": "Huercal-Overa",
      "adresse": "Carretera Carretera Nacional 340 km. 554,1",
      "brand": "Repsol",
      "lat": 37.386194,
      "lng": -1.940889,
      "fuels": {
        "gazole": 1.609,
        "sp95": 1.525,
        "sp98": 1.685
      }
    },
    {
      "id": "14754",
      "cp": "04600",
      "ville": "Huercal-Overa",
      "adresse": "Carretera Estación km. 159",
      "brand": "Plenergy",
      "lat": 37.399,
      "lng": -1.951444,
      "fuels": {
        "gazole": 1.509,
        "sp95": 1.417
      }
    },
    {
      "id": "5634",
      "cp": "04600",
      "ville": "Huercal-Overa",
      "adresse": "Carretera N-340 km. 542,4",
      "brand": "Cepsa",
      "lat": 37.315833,
      "lng": -1.96375,
      "fuels": {
        "gazole": 1.649,
        "sp95": 1.599
      }
    },
    {
      "id": "6848",
      "cp": "04600",
      "ville": "Huercal-Overa",
      "adresse": "Carretera Nacional 340 km. 555",
      "brand": "Cepsa",
      "lat": 37.401306,
      "lng": -1.938639,
      "fuels": {
        "gazole": 1.625,
        "sp95": 1.509,
        "sp98": 1.659
      }
    },
    {
      "id": "6535",
      "cp": "04600",
      "ville": "Huercal-Overa",
      "adresse": "Cr Autovia Del Mediterraneo Km",
      "brand": "Andamur \"el limite\"",
      "lat": 37.481194,
      "lng": -1.870111,
      "fuels": {
        "gazole": 1.589,
        "sp95": 1.499,
        "sp98": 1.638
      }
    },
    {
      "id": "13591",
      "cp": "04230",
      "ville": "Juaida (la)",
      "adresse": "Poligono Sierra De cazorla, s7n",
      "brand": "Repsol",
      "lat": 36.883306,
      "lng": -2.420694,
      "fuels": {
        "gazole": 1.719,
        "sp95": 1.699
      }
    },
    {
      "id": "6827",
      "cp": "04470",
      "ville": "Laujar De Andarax",
      "adresse": "Carretera Orgiva-Agador km. 96",
      "brand": "Repsol",
      "lat": 36.988611,
      "lng": -2.911278,
      "fuels": {
        "gazole": 1.699,
        "sp95": 1.549
      }
    },
    {
      "id": "6692",
      "cp": "04619",
      "ville": "Lobos (los)",
      "adresse": "Barriada Los lobos, 1",
      "brand": "Repsol",
      "lat": 37.307444,
      "lng": -1.770222,
      "fuels": {
        "gazole": 1.649,
        "sp95": 1.519
      }
    },
    {
      "id": "13702",
      "cp": "04271",
      "ville": "Lubrin",
      "adresse": "Poligono La redonda, 1",
      "brand": "Iniciativas Rumial",
      "lat": 37.219444,
      "lng": -2.064417,
      "fuels": {
        "gazole": 1.569,
        "sp95": 1.469
      }
    },
    {
      "id": "6437",
      "cp": "04867",
      "ville": "Macael",
      "adresse": "Carretera ctra. De Tahal km. 3",
      "brand": "Ntra Sra Del Rosario",
      "lat": 37.333306,
      "lng": -2.299139,
      "fuels": {
        "gazole": 1.449,
        "sp95": 1.375
      }
    },
    {
      "id": "11939",
      "cp": "04867",
      "ville": "Macael",
      "adresse": "Carretera Olula-Macael km. 1,7",
      "brand": "Suimasa",
      "lat": 37.341167,
      "lng": -2.294583,
      "fuels": {
        "gazole": 1.449,
        "sp95": 1.375
      }
    },
    {
      "id": "6685",
      "cp": "04838",
      "ville": "Maria",
      "adresse": "Calle Camino real, Sn",
      "brand": "Repsol",
      "lat": 37.707972,
      "lng": -2.168333,
      "fuels": {
        "gazole": 1.533,
        "sp95": 1.495,
        "sp98": 1.62
      }
    },
    {
      "id": "15465",
      "cp": "04715",
      "ville": "Matagorda",
      "adresse": "Carretera Matagorda - Guardias Viejas S/N km. S/N",
      "brand": "Gasoleos sotomontes,s.l.",
      "lat": 36.770722,
      "lng": -2.797944,
      "fuels": {
        "gazole": 1.498,
        "sp95": 1.485
      }
    },
    {
      "id": "6944",
      "cp": "04638",
      "ville": "Mojacar",
      "adresse": "Cr Al-118, 0,6",
      "brand": "Repsol",
      "lat": 37.169056,
      "lng": -1.824028,
      "fuels": {
        "gazole": 1.619,
        "sp95": 1.485,
        "sp98": 1.605
      }
    },
    {
      "id": "5631",
      "cp": "04638",
      "ville": "Mojacar",
      "adresse": "Paraje Los gurullos, S/N",
      "brand": "Cepsa",
      "lat": 37.138583,
      "lng": -1.840083,
      "fuels": {
        "gazole": 1.639,
        "sp95": 1.499,
        "sp98": 1.619
      }
    },
    {
      "id": "16034",
      "cp": "04745",
      "ville": "Mojonera (la)",
      "adresse": "Avenida De Las cantinas, S/N",
      "brand": "Plenergy",
      "lat": 36.79625,
      "lng": -2.687917,
      "fuels": {
        "gazole": 1.435,
        "sp95": 1.365
      }
    },
    {
      "id": "14975",
      "cp": "04745",
      "ville": "Mojonera (la)",
      "adresse": "Calle alhondiga, S/N",
      "brand": "Agla e.s. Cruce Los Palos",
      "lat": 36.751667,
      "lng": -2.695389,
      "fuels": {
        "gazole": 1.599,
        "sp95": 1.549
      }
    },
    {
      "id": "8569",
      "cp": "04745",
      "ville": "Mojonera (la)",
      "adresse": "Carretera N-340 km. 418",
      "brand": "Shell",
      "lat": 36.790778,
      "lng": -2.706361,
      "fuels": {
        "gazole": 1.649,
        "sp95": 1.524,
        "sp98": 1.624
      }
    },
    {
      "id": "8568",
      "cp": "04279",
      "ville": "Mojonera (la)",
      "adresse": "Carretera N-340 km. 418",
      "brand": "Shell",
      "lat": 36.791667,
      "lng": -2.706861,
      "fuels": {
        "gazole": 1.649,
        "sp95": 1.524,
        "sp98": 1.624
      }
    },
    {
      "id": "6966",
      "cp": "04745",
      "ville": "Mojonera (la)",
      "adresse": "N-340 Km 420,7",
      "brand": "Repsol",
      "lat": 36.796056,
      "lng": -2.686917,
      "fuels": {
        "gazole": 1.655,
        "sp95": 1.519,
        "sp98": 1.629
      }
    },
    {
      "id": "6718",
      "cp": "04540",
      "ville": "Nacimiento",
      "adresse": "Paraje Los navarros, S/N",
      "brand": "Repsol",
      "lat": 37.112528,
      "lng": -2.618361,
      "fuels": {
        "gazole": 1.609,
        "sp95": 1.489,
        "sp98": 1.649
      }
    },
    {
      "id": "5798",
      "cp": "04100",
      "ville": "Nijar",
      "adresse": "Autovia a7  e15   Salida 742  Nijar km. 742",
      "brand": "Repsol",
      "lat": 36.955639,
      "lng": -2.127806,
      "fuels": {
        "gazole": 1.639,
        "sp95": 1.495,
        "sp98": 1.655,
        "gplc": 1.055
      }
    },
    {
      "id": "9494",
      "cp": "04100",
      "ville": "Nijar",
      "adresse": "Autovia Almeria  Murcia Salida 494 km. ",
      "brand": "Bp Venta Del Pobre",
      "lat": 36.993861,
      "lng": -2.067056,
      "fuels": {
        "gazole": 1.619,
        "sp95": 1.489,
        "sp98": 1.629
      }
    },
    {
      "id": "5613",
      "cp": "04100",
      "ville": "Nijar",
      "adresse": "Autovia Autovia Del Mediterraneo sal.471 km. 471",
      "brand": "Bp Estacion De Servicio El 21",
      "lat": 36.869083,
      "lng": -2.229556,
      "fuels": {
        "gazole": 1.629,
        "sp95": 1.529,
        "sp98": 1.699
      }
    },
    {
      "id": "6864",
      "cp": "04100",
      "ville": "Nijar",
      "adresse": "Carretera Al-340 Almeria-Nijar km. 30",
      "brand": "Bp Nijar",
      "lat": 36.94925,
      "lng": -2.205833,
      "fuels": {
        "gazole": 1.629,
        "sp95": 1.479
      }
    },
    {
      "id": "10574",
      "cp": "04100",
      "ville": "Nijar",
      "adresse": "N-341 (nijar-carboneras) Km 0,5",
      "brand": "Shell",
      "lat": 36.992,
      "lng": -2.062944,
      "fuels": {
        "gazole": 1.649,
        "sp95": 1.519,
        "sp98": 1.619
      }
    },
    {
      "id": "15480",
      "cp": "04716",
      "ville": "Norias (las)",
      "adresse": "Calle fraile, 18",
      "brand": "Norias vilo,s.l",
      "lat": 36.759806,
      "lng": -2.757,
      "fuels": {
        "gazole": 1.545,
        "sp95": 1.507
      }
    },
    {
      "id": "15761",
      "cp": "04716",
      "ville": "Norias (las)",
      "adresse": "Carretera A-1050 km. 7,2",
      "brand": "Es Fepsa  La Palma",
      "lat": 36.752833,
      "lng": -2.704167,
      "fuels": {
        "gazole": 1.45,
        "sp95": 1.44
      }
    },
    {
      "id": "16001",
      "cp": "04716",
      "ville": "Norias (las)",
      "adresse": "Carretera Puesto Rubio km. 66",
      "brand": "Repsol",
      "lat": 36.771611,
      "lng": -2.754139,
      "fuels": {
        "gazole": 1.669,
        "e10": 1.559
      }
    },
    {
      "id": "10952",
      "cp": "04716",
      "ville": "Norias (las)",
      "adresse": "Loma Del viento,  nº 78",
      "brand": "Econorias",
      "lat": 36.74775,
      "lng": -2.735917,
      "fuels": {
        "gazole": 1.699,
        "sp95": 1.599
      }
    },
    {
      "id": "6520",
      "cp": "04860",
      "ville": "Olula Del Rio",
      "adresse": "Avenida avda. almanzora, 45",
      "brand": "ee.ss. San Sebastian",
      "lat": 37.356667,
      "lng": -2.2975,
      "fuels": {
        "gazole": 1.449,
        "sp95": 1.375
      }
    },
    {
      "id": "5633",
      "cp": "04810",
      "ville": "Oria",
      "adresse": "Avenida andalucia, 62",
      "brand": "Cepsa",
      "lat": 37.485,
      "lng": -2.287528,
      "fuels": {
        "gazole": 1.609,
        "sp95": 1.559
      }
    },
    {
      "id": "5644",
      "cp": "04618",
      "ville": "Palomares",
      "adresse": "Cr Alp-118, 58,4",
      "brand": "Repsol",
      "lat": 37.234389,
      "lng": -1.79825,
      "fuels": {
        "gazole": 1.609,
        "sp95": 1.499,
        "sp98": 1.649
      }
    },
    {
      "id": "11826",
      "cp": "04779",
      "ville": "Puente Del Rio",
      "adresse": "Avenida Legion española, 2",
      "brand": "Campoadra",
      "lat": 36.758889,
      "lng": -2.983333,
      "fuels": {
        "gazole": 1.411,
        "sp95": 1.323
      }
    },
    {
      "id": "12462",
      "cp": "04779",
      "ville": "Puente Del Rio",
      "adresse": "Calle barcelona, 2",
      "brand": "e.s Campoejido Adra",
      "lat": 36.761639,
      "lng": -2.983028,
      "fuels": {
        "gazole": 1.385,
        "sp95": 1.303
      }
    },
    {
      "id": "6911",
      "cp": "04640",
      "ville": "Pulpi",
      "adresse": "Calle La Gasolinera 5, ",
      "brand": "Repsol",
      "lat": 37.3945,
      "lng": -1.752083,
      "fuels": {
        "gazole": 1.649,
        "sp95": 1.479
      }
    },
    {
      "id": "12150",
      "cp": "04640",
      "ville": "Pulpi",
      "adresse": "Poligono Poligono Industrial pulpi, S/N",
      "brand": "e.s. Aquacenter",
      "lat": 37.393194,
      "lng": -1.760833,
      "fuels": {
        "gazole": 1.609,
        "sp95": 1.479
      }
    },
    {
      "id": "12881",
      "cp": "04640",
      "ville": "Pulpi",
      "adresse": "Poligono S-lf1, 1",
      "brand": "Europulpi",
      "lat": 37.383472,
      "lng": -1.749139,
      "fuels": {
        "gazole": 1.639,
        "sp95": 1.509,
        "gplc": 1.099
      }
    },
    {
      "id": "5763",
      "cp": "04870",
      "ville": "Purchena",
      "adresse": "Cr A-334, 50.9 (a-334 Km 50,9)",
      "brand": "Suimasa",
      "lat": 37.35825,
      "lng": -2.339556,
      "fuels": {
        "gazole": 1.449,
        "sp95": 1.375
      }
    },
    {
      "id": "9665",
      "cp": "04130",
      "ville": "Retamar",
      "adresse": "Carretera E-15/N-340 km. 471",
      "brand": "Jcarrion",
      "lat": 36.868389,
      "lng": -2.23,
      "fuels": {
        "gazole": 1.629,
        "sp95": 1.539,
        "sp98": 1.659
      }
    },
    {
      "id": "11553",
      "cp": "04131",
      "ville": "Retamar",
      "adresse": "Carretera Nijar A Retamar (diseminado) (de) km. 0",
      "brand": "Galp",
      "lat": 36.851806,
      "lng": -2.311194,
      "fuels": {
        "gazole": 1.609,
        "sp95": 1.499,
        "sp98": 1.629
      }
    },
    {
      "id": "5769",
      "cp": "04260",
      "ville": "Rioja",
      "adresse": "Cr A-92, 386",
      "brand": "Repsol",
      "lat": 36.96075,
      "lng": -2.466583,
      "fuels": {
        "gazole": 1.639,
        "sp95": 1.529,
        "sp98": 1.639
      }
    },
    {
      "id": "5573",
      "cp": "04740",
      "ville": "Roquetas De Mar",
      "adresse": "Avenida alicun, 62",
      "brand": "Cepsa",
      "lat": 36.77175,
      "lng": -2.613361,
      "fuels": {
        "gazole": 1.669,
        "sp95": 1.559,
        "sp98": 1.689
      }
    },
    {
      "id": "5574",
      "cp": "04740",
      "ville": "Roquetas De Mar",
      "adresse": "Avenida De alicun, 23 (a-391 Km 0,5)",
      "brand": "Cepsa",
      "lat": 36.769972,
      "lng": -2.613417,
      "fuels": {
        "gazole": 1.669,
        "sp95": 1.559,
        "sp98": 1.689,
        "gplc": 1.179
      }
    },
    {
      "id": "15497",
      "cp": "04740",
      "ville": "Roquetas De Mar",
      "adresse": "Camino A-1051, 10",
      "brand": "Bp Roquetas",
      "lat": 36.749444,
      "lng": -2.636944,
      "fuels": {
        "gazole": 1.619,
        "sp95": 1.499,
        "sp98": 1.639
      }
    },
    {
      "id": "10971",
      "cp": "04740",
      "ville": "Roquetas De Mar",
      "adresse": "Camino De Las Mercados nº 50",
      "brand": "Consumomar s.c.a.",
      "lat": 36.751385,
      "lng": -2.637818,
      "fuels": {
        "gazole": 1.435,
        "sp95": 1.365
      }
    },
    {
      "id": "8954",
      "cp": "04740",
      "ville": "Roquetas De Mar",
      "adresse": "Camino De Los mercados, S/N",
      "brand": "Costa De Almeria",
      "lat": 36.757167,
      "lng": -2.642528,
      "fuels": {
        "gazole": 1.587,
        "sp95": 1.489,
        "sp98": 1.647
      }
    },
    {
      "id": "5802",
      "cp": "04740",
      "ville": "Roquetas De Mar",
      "adresse": "Carretera Alicun km. 5,05",
      "brand": "Repsol",
      "lat": 36.798722,
      "lng": -2.602111,
      "fuels": {
        "gazole": 1.669,
        "sp95": 1.559,
        "sp98": 1.689
      }
    },
    {
      "id": "12965",
      "cp": "04740",
      "ville": "Roquetas De Mar",
      "adresse": "Carretera Almeria 9029 km. 1",
      "brand": "e.s Pacocalcula",
      "lat": 36.773194,
      "lng": -2.629694,
      "fuels": {
        "gazole": 1.639,
        "sp95": 1.549,
        "sp98": 1.779,
        "gplc": 1.099
      }
    },
    {
      "id": "5572",
      "cp": "04740",
      "ville": "Roquetas De Mar",
      "adresse": "Carretera crta. Alicun km. S/N",
      "brand": "Carrefour",
      "lat": 36.776111,
      "lng": -2.611944,
      "fuels": {
        "gazole": 1.549,
        "sp95": 1.449,
        "sp98": 1.629
      }
    },
    {
      "id": "8386",
      "cp": "04740",
      "ville": "Roquetas De Mar",
      "adresse": "Carretera De La Mojonera km. 285",
      "brand": "e.s. Campoejido Roquetas",
      "lat": 36.761111,
      "lng": -2.636944,
      "fuels": {
        "gazole": 1.385,
        "sp95": 1.303
      }
    },
    {
      "id": "15736",
      "cp": "04740",
      "ville": "Roquetas De Mar",
      "adresse": "Carretera La Mojonera km. 142",
      "brand": "Plenergy",
      "lat": 36.762167,
      "lng": -2.63275,
      "fuels": {
        "gazole": 1.385,
        "sp95": 1.299
      }
    },
    {
      "id": "5630",
      "cp": "04740",
      "ville": "Roquetas De Mar",
      "adresse": "Carretera Mojonera (mo) km. 37",
      "brand": "Ballenoil",
      "lat": 36.759611,
      "lng": -2.645694,
      "fuels": {
        "gazole": 1.385,
        "sp95": 1.303
      }
    },
    {
      "id": "5629",
      "cp": "04740",
      "ville": "Roquetas De Mar",
      "adresse": "Carretera Sabinal km. 337",
      "brand": "Cepsa",
      "lat": 36.741306,
      "lng": -2.616861,
      "fuels": {
        "gazole": 1.689,
        "sp95": 1.549,
        "sp98": 1.689
      }
    },
    {
      "id": "10860",
      "cp": "04740",
      "ville": "Roquetas De Mar",
      "adresse": "Cr  E-15  ,p.k. 429  (n-340 Salida",
      "brand": "Repsol",
      "lat": 36.819917,
      "lng": -2.597167,
      "fuels": {
        "gazole": 1.659,
        "sp95": 1.529,
        "sp98": 1.629,
        "gplc": 1.085
      }
    },
    {
      "id": "5801",
      "cp": "04740",
      "ville": "Roquetas De Mar",
      "adresse": "ctra. Alicun Km 5.05 (a-391 Km 3,8)",
      "brand": "Repsol",
      "lat": 36.798611,
      "lng": -2.601222,
      "fuels": {
        "gazole": 1.669,
        "sp95": 1.559,
        "sp98": 1.689
      }
    },
    {
      "id": "14026",
      "cp": "04150",
      "ville": "Ruescas",
      "adresse": "Carretera San José km. 0,000",
      "brand": "Bp Cabo De Gata",
      "lat": 36.813056,
      "lng": -2.234194,
      "fuels": {
        "gazole": 1.605,
        "sp95": 1.495,
        "sp98": 1.635
      }
    },
    {
      "id": "13428",
      "cp": "04716",
      "ville": "San Agustin",
      "adresse": "Calle agua, 60",
      "brand": "Cohorsan Sca",
      "lat": 36.709667,
      "lng": -2.691417,
      "fuels": {
        "gazole": 1.429,
        "sp95": 1.389
      }
    },
    {
      "id": "6427",
      "cp": "04700",
      "ville": "San Agustin",
      "adresse": "Carretera 223 km. 29",
      "brand": "Agla",
      "lat": 36.714472,
      "lng": -2.700944,
      "fuels": {
        "gazole": 1.549,
        "sp95": 1.499,
        "sp98": 1.699
      }
    },
    {
      "id": "14559",
      "cp": "04117",
      "ville": "San Isidro De Nijar",
      "adresse": "Calle bruselas, 60",
      "brand": "Plenergy",
      "lat": 36.911806,
      "lng": -2.166361,
      "fuels": {
        "gazole": 1.519,
        "sp95": 1.379
      }
    },
    {
      "id": "6824",
      "cp": "04117",
      "ville": "San Isidro De Nijar",
      "adresse": "Carretera De Iryda km. 5200",
      "brand": "Repsol",
      "lat": 36.898083,
      "lng": -2.186444,
      "fuels": {
        "gazole": 1.619,
        "sp95": 1.479,
        "sp98": 1.639
      }
    },
    {
      "id": "12783",
      "cp": "04117",
      "ville": "San Isidro De Nijar",
      "adresse": "Carretera Iryda (ch) km. 5",
      "brand": "Hortofrucoop s.c.a.",
      "lat": 36.922972,
      "lng": -2.149167,
      "fuels": {
        "gazole": 1.599,
        "sp95": 1.439
      }
    },
    {
      "id": "6517",
      "cp": "04117",
      "ville": "San Isidro De Nijar",
      "adresse": "crta. De Yrida Km 27",
      "brand": "Estacion De Servicio Repsol ** Casi ** ",
      "lat": 36.904333,
      "lng": -2.178361,
      "fuels": {
        "gazole": 1.619,
        "sp95": 1.479
      }
    },
    {
      "id": "14181",
      "cp": "04117",
      "ville": "San Isidro De Nijar",
      "adresse": "Paraje Cañada mena, Parcelas 10-11, 10",
      "brand": "Coprohnijar s.c.a.",
      "lat": 36.920917,
      "lng": -2.172417,
      "fuels": {
        "gazole": 1.543,
        "sp95": 1.403
      }
    },
    {
      "id": "14712",
      "cp": "04117",
      "ville": "San Isidro De Nijar",
      "adresse": "Paraje Los trances. Polígono 205 Parcelas 9-10, S/N",
      "brand": "Litoral De Nijar",
      "lat": 36.896111,
      "lng": -2.157222,
      "fuels": {
        "gazole": 1.515
      }
    },
    {
      "id": "15608",
      "cp": "04640",
      "ville": "San Juan De Terreros",
      "adresse": "Urbanización Parcela t2, Sector S-Rtu 5 ?calas De pinar?, S/N",
      "brand": "Moeve",
      "lat": 37.361361,
      "lng": -1.66425,
      "fuels": {
        "gazole": 1.669,
        "sp95": 1.529
      }
    },
    {
      "id": "15994",
      "cp": "04420",
      "ville": "Santa Fe De Mondujar",
      "adresse": "Carretera a1075 km. 1",
      "brand": "Bp e.s. Los Millares",
      "lat": 36.962778,
      "lng": -2.537194,
      "fuels": {
        "gazole": 1.689,
        "sp95": 1.585,
        "sp98": 1.819
      }
    },
    {
      "id": "12543",
      "cp": "04710",
      "ville": "Santa Maria Del Aguila",
      "adresse": "Camino Camino De roquetas, 77",
      "brand": "e.s.campoejido-La Aldeilla",
      "lat": 36.775,
      "lng": -2.752222,
      "fuels": {
        "gazole": 1.385,
        "sp95": 1.303
      }
    },
    {
      "id": "10155",
      "cp": "04700",
      "ville": "Santa Maria Del Aguila",
      "adresse": "Carretera Al-3303 km. 1",
      "brand": "Bp Santa Maria Del Aguila",
      "lat": 36.782167,
      "lng": -2.787444,
      "fuels": {
        "gazole": 1.528,
        "sp95": 1.469,
        "sp98": 1.499
      }
    },
    {
      "id": "9738",
      "cp": "04710",
      "ville": "Santa Maria Del Aguila",
      "adresse": "Carretera De La Mojonera km. 0,300",
      "brand": "Truck Stop El Ejido s.l.",
      "lat": 36.775278,
      "lng": -2.78225,
      "fuels": {
        "gazole": 1.399,
        "sp95": 1.399,
        "sp98": 1.699
      }
    },
    {
      "id": "10005",
      "cp": "04710",
      "ville": "Santa Maria Del Aguila",
      "adresse": "Carretera Iryda polig. ind. La Redonda km. S/N",
      "brand": "Moeve - Parking La Redonda",
      "lat": 36.780444,
      "lng": -2.748806,
      "fuels": {
        "gazole": 1.576,
        "sp95": 1.528
      }
    },
    {
      "id": "9742",
      "cp": "04710",
      "ville": "Santa Maria Del Aguila",
      "adresse": "Carretera N 340 km. 413",
      "brand": "Truck Stop Del Poniente ",
      "lat": 36.782917,
      "lng": -2.756222,
      "fuels": {
        "gazole": 1.399,
        "sp95": 1.399,
        "sp98": 1.699
      }
    },
    {
      "id": "10205",
      "cp": "04270",
      "ville": "Sorbas",
      "adresse": "Bo El puntal, Sn",
      "brand": "Los Filabres Sca",
      "lat": 37.169833,
      "lng": -2.128694,
      "fuels": {
        "gazole": 1.589,
        "sp95": 1.469
      }
    },
    {
      "id": "6445",
      "cp": "04270",
      "ville": "Sorbas",
      "adresse": "Carretera A-316 Ubeda-Cabra  pk. 169 km. S/N",
      "brand": "E/S  San Javier",
      "lat": 37.0975,
      "lng": -2.121306,
      "fuels": {
        "gazole": 1.669,
        "sp95": 1.559
      }
    },
    {
      "id": "15491",
      "cp": "04270",
      "ville": "Sorbas",
      "adresse": "Paraje El collaico, S/N",
      "brand": "citrasor, Sca",
      "lat": 37.095667,
      "lng": -2.119944,
      "fuels": {
        "gazole": 1.456
      }
    },
    {
      "id": "5647",
      "cp": "04200",
      "ville": "Tabernas",
      "adresse": "Autovia Cr A 92 km. 379",
      "brand": "Repsol",
      "lat": 37.016417,
      "lng": -2.446056,
      "fuels": {
        "gazole": 1.785,
        "sp95": 1.698
      }
    },
    {
      "id": "6839",
      "cp": "04200",
      "ville": "Tabernas",
      "adresse": "Avenida Ricardo fabrega, 81",
      "brand": "Bp La Era Tabernas",
      "lat": 37.057278,
      "lng": -2.387556,
      "fuels": {
        "gazole": 1.709,
        "sp95": 1.629,
        "sp98": 1.799
      }
    },
    {
      "id": "11971",
      "cp": "04200",
      "ville": "Tabernas",
      "adresse": "Carretera N-340a km. 479",
      "brand": "Repsol",
      "lat": 37.08475,
      "lng": -2.308667,
      "fuels": {
        "gazole": 1.829,
        "sp95": 1.719,
        "sp98": 1.829
      }
    },
    {
      "id": "16358",
      "cp": "04200",
      "ville": "Tabernas",
      "adresse": "Paraje Cañada Los albardinales, S/N",
      "brand": "Desert Truckers",
      "lat": 37.067806,
      "lng": -2.367361,
      "fuels": {
        "gazole": 1.829
      }
    },
    {
      "id": "5642",
      "cp": "04692",
      "ville": "Taberno",
      "adresse": "Carretera Huercal-Overa km. 19400",
      "brand": "Cepsa",
      "lat": 37.463389,
      "lng": -2.071556,
      "fuels": {
        "gazole": 1.705,
        "sp95": 1.605
      }
    },
    {
      "id": "5637",
      "cp": "04275",
      "ville": "Tahal",
      "adresse": "Carretera A-349 km. 26,6",
      "brand": "Cepsa",
      "lat": 37.231111,
      "lng": -2.296194,
      "fuels": {
        "gazole": 1.629,
        "sp95": 1.559
      }
    },
    {
      "id": "6698",
      "cp": "04880",
      "ville": "Tijola",
      "adresse": "Avenida avd.  Jose antonio, 18",
      "brand": "Repsol",
      "lat": 37.347722,
      "lng": -2.432222,
      "fuels": {
        "gazole": 1.609,
        "sp95": 1.479,
        "sp98": 1.639
      }
    },
    {
      "id": "15265",
      "cp": "04880",
      "ville": "Tijola",
      "adresse": "Poligono industrial, cl. Leonardo Da Vincci Sector ti4, 4",
      "brand": "Volacan",
      "lat": 37.347917,
      "lng": -2.427,
      "fuels": {
        "gazole": 1.449,
        "sp95": 1.375
      }
    },
    {
      "id": "6705",
      "cp": "04839",
      "ville": "Topares",
      "adresse": "Carretera Velez Blanco km. 26",
      "brand": "Topfuel",
      "lat": 37.859639,
      "lng": -2.22675,
      "fuels": {
        "gazole": 1.509,
        "sp95": 1.479
      }
    },
    {
      "id": "16027",
      "cp": "04369",
      "ville": "Turre",
      "adresse": "Calle cabrera, 0",
      "brand": "Shell",
      "lat": 37.151556,
      "lng": -1.895944,
      "fuels": {
        "gazole": 1.606,
        "sp95": 1.499,
        "gplc": 1.089
      }
    },
    {
      "id": "7985",
      "cp": "04830",
      "ville": "Velez-Blanco",
      "adresse": "Carretera A-317 km. 161",
      "brand": "Anroroil",
      "lat": 37.681861,
      "lng": -2.095889,
      "fuels": {
        "gazole": 1.529,
        "sp95": 1.399,
        "sp98": 1.599
      }
    },
    {
      "id": "10919",
      "cp": "04830",
      "ville": "Velez-Blanco",
      "adresse": "Carretera C-321, pje.cañada De Navarro Km 000000 km. 162",
      "brand": "Anroroil",
      "lat": 37.678111,
      "lng": -2.090333,
      "fuels": {
        "gazole": 1.529
      }
    },
    {
      "id": "6873",
      "cp": "04820",
      "ville": "Velez-Rubio",
      "adresse": "Av Andalucia 41",
      "brand": "Estacion De Servicio Velez Rubio",
      "lat": 37.64675,
      "lng": -2.070389,
      "fuels": {
        "gazole": 1.519,
        "sp95": 1.399,
        "sp98": 1.45
      }
    },
    {
      "id": "16040",
      "cp": "04820",
      "ville": "Velez-Rubio",
      "adresse": "Avenida De andalucia, 2",
      "brand": "Las Pepas",
      "lat": 37.645306,
      "lng": -2.069528,
      "fuels": {
        "gazole": 1.519,
        "sp95": 1.399
      }
    },
    {
      "id": "12484",
      "cp": "04820",
      "ville": "Velez-Rubio",
      "adresse": "Poligono La forja, 79/80",
      "brand": "Inv",
      "lat": 37.644861,
      "lng": -2.10075,
      "fuels": {
        "gazole": 1.79,
        "sp95": 1.59
      }
    },
    {
      "id": "14240",
      "cp": "04620",
      "ville": "Vera",
      "adresse": "Calle Carretera De cuevas, 1",
      "brand": "Plenergy",
      "lat": 37.251333,
      "lng": -1.871778,
      "fuels": {
        "gazole": 1.509,
        "sp95": 1.379
      }
    },
    {
      "id": "6521",
      "cp": "04620",
      "ville": "Vera",
      "adresse": "Carretera 337 Km 1,8 km. 1,8",
      "brand": "Estacion Servicio Bp Vera",
      "lat": 37.234583,
      "lng": -1.850611,
      "fuels": {
        "gazole": 1.589,
        "sp95": 1.469,
        "sp98": 1.609,
        "gplc": 1.079
      }
    },
    {
      "id": "13407",
      "cp": "04620",
      "ville": "Vera",
      "adresse": "Carretera C-3327 km. 1",
      "brand": "Vulco",
      "lat": 37.237806,
      "lng": -1.854528,
      "fuels": {
        "gazole": 1.539,
        "sp95": 1.389
      }
    },
    {
      "id": "14338",
      "cp": "04620",
      "ville": "Vera",
      "adresse": "Carretera crta. Nac 340a km. 533",
      "brand": "baraza+",
      "lat": 37.252778,
      "lng": -1.881333,
      "fuels": {
        "gazole": 1.539,
        "sp95": 1.386,
        "sp98": 1.839
      }
    },
    {
      "id": "11928",
      "cp": "04620",
      "ville": "Vera",
      "adresse": "Carretera De Ronda km. 97",
      "brand": "Veradiesel",
      "lat": 37.239444,
      "lng": -1.868778,
      "fuels": {
        "gazole": 1.519,
        "sp95": 1.389
      }
    },
    {
      "id": "6857",
      "cp": "04620",
      "ville": "Vera",
      "adresse": "Cl ancha, s.n.",
      "brand": "Repsol",
      "lat": 37.249083,
      "lng": -1.872667,
      "fuels": {
        "gazole": 1.609,
        "sp95": 1.485,
        "sp98": 1.645
      }
    },
    {
      "id": "5713",
      "cp": "04620",
      "ville": "Vera",
      "adresse": "Cr Al-3327, 3,8",
      "brand": "Repsol",
      "lat": 37.220833,
      "lng": -1.836806,
      "fuels": {
        "gazole": 1.615,
        "sp95": 1.505,
        "sp98": 1.665,
        "gplc": 1.069
      }
    },
    {
      "id": "15456",
      "cp": "04240",
      "ville": "Viator",
      "adresse": "Calle Sierra   atalaya, 6",
      "brand": "Energy Carburantes",
      "lat": 36.879306,
      "lng": -2.422972,
      "fuels": {
        "gazole": 1.469,
        "sp95": 1.349
      }
    },
    {
      "id": "8276",
      "cp": "04240",
      "ville": "Viator",
      "adresse": "Calle Sierra De cazorla, 23 (p.i. La juaida), 23",
      "brand": "Eni",
      "lat": 36.884611,
      "lng": -2.419472,
      "fuels": {
        "gazole": 1.629,
        "sp95": 1.519,
        "sp98": 1.619
      }
    },
    {
      "id": "16149",
      "cp": "04240",
      "ville": "Viator",
      "adresse": "Calle Sierra nevada, 90",
      "brand": "Gonzalez cañabate, s.l.",
      "lat": 36.880333,
      "lng": -2.42325,
      "fuels": {
        "gazole": 1.469,
        "sp95": 1.349,
        "sp98": 1.439
      }
    },
    {
      "id": "5799",
      "cp": "04240",
      "ville": "Viator",
      "adresse": "Carretera Viator - El Alquian km. 8,5",
      "brand": "Bp ",
      "lat": 36.878167,
      "lng": -2.423139,
      "fuels": {
        "gazole": 1.609,
        "sp95": 1.559,
        "sp98": 1.709
      }
    },
    {
      "id": "11278",
      "cp": "04240",
      "ville": "Viator",
      "adresse": "Paraje Pisaica De La Virgen S/N",
      "brand": "s.a.t. Pisaica De La Virgen",
      "lat": 36.876639,
      "lng": -2.409389,
      "fuels": {
        "gazole": 1.47,
        "sp95": 1.37,
        "gplc": 0.9
      }
    },
    {
      "id": "14715",
      "cp": "04738",
      "ville": "Vicar",
      "adresse": "Avenida Bulevar Ciudad De vícar, 715",
      "brand": "Plenergy",
      "lat": 36.804333,
      "lng": -2.623361,
      "fuels": {
        "gazole": 1.435,
        "sp95": 1.365
      }
    },
    {
      "id": "5614",
      "cp": "04738",
      "ville": "Vicar",
      "adresse": "Bulevar Bulevar Ciudad De vicar, 300",
      "brand": "Bp Vicar",
      "lat": 36.807389,
      "lng": -2.609389,
      "fuels": {
        "gazole": 1.619,
        "sp95": 1.499,
        "sp98": 1.639
      }
    },
    {
      "id": "6841",
      "cp": "04738",
      "ville": "Vicar",
      "adresse": "Bulevar Ciudad De vicar, 659",
      "brand": "Repsol",
      "lat": 36.804778,
      "lng": -2.621028,
      "fuels": {
        "gazole": 1.645,
        "sp95": 1.509,
        "sp98": 1.669
      }
    },
    {
      "id": "6428",
      "cp": "04738",
      "ville": "Vicar",
      "adresse": "Carretera Mojonera Al Solanillo km. S/N",
      "brand": "Agla",
      "lat": 36.737694,
      "lng": -2.661,
      "fuels": {
        "gazole": 1.549,
        "sp95": 1.499,
        "sp98": 1.699
      }
    },
    {
      "id": "11515",
      "cp": "04738",
      "ville": "Vicar",
      "adresse": "Carretera Roquetas km. 9",
      "brand": "Bp Viapark",
      "lat": 36.831444,
      "lng": -2.642722,
      "fuels": {
        "gazole": 1.619,
        "sp95": 1.499,
        "sp98": 1.639
      }
    },
    {
      "id": "11046",
      "cp": "04738",
      "ville": "Vicar",
      "adresse": "ctra. Nacional 340",
      "brand": "Consumomar",
      "lat": 36.799468,
      "lng": -2.653568,
      "fuels": {
        "gazole": 1.465,
        "sp95": 1.395,
        "sp98": 1.515
      }
    },
    {
      "id": "14814",
      "cp": "04738",
      "ville": "Vicar",
      "adresse": "Diseminado Carretera Zamora 2702, 2702",
      "brand": "e.s. Coop Santa Maria-Vicar-Murgiverde",
      "lat": 36.831444,
      "lng": -2.641889,
      "fuels": {
        "gazole": 1.434
      }
    },
    {
      "id": "12670",
      "cp": "04738",
      "ville": "Vicar",
      "adresse": "Paraje El Vizconde Carretera Iryda Sector iv, S/N",
      "brand": "e.s.vicasol",
      "lat": 36.782806,
      "lng": -2.675944,
      "fuels": {
        "gazole": 1.5,
        "sp95": 1.4
      }
    }
  ]
}