{
  "code": "07",
  "name": "Islas Baleares",
  "regionCode": "BAL",
  "regionName": "Islas Baleares",
  "asOf": "2026-06-13T08:17:04.283Z",
  "source": "https://sedeaplicaciones.minetur.gob.es/ServiciosRESTCarburantes/PreciosCarburantes/EstacionesTerrestres/",
  "stationCount": 222,
  "fuels": {
    "gazole": {
      "count": 215,
      "mean": 1.6921,
      "median": 1.698,
      "min": 1.569,
      "max": 1.999
    },
    "sp95": {
      "count": 215,
      "mean": 1.5965,
      "median": 1.599,
      "min": 1.459,
      "max": 1.939
    },
    "sp98": {
      "count": 126,
      "mean": 1.7174,
      "median": 1.719,
      "min": 1.629,
      "max": 1.899
    },
    "e10": {
      "count": 1,
      "mean": 1.743,
      "median": 1.743,
      "min": 1.743,
      "max": 1.743
    },
    "gplc": {
      "count": 21,
      "mean": 1.0726,
      "median": 1.089,
      "min": 0.959,
      "max": 1.119
    }
  },
  "stations": [
    {
      "id": "2669",
      "cp": "07730",
      "ville": "Alaior",
      "adresse": "Calle balmes, 55",
      "brand": "Moeve",
      "lat": 39.931667,
      "lng": 4.136528,
      "fuels": {
        "gazole": 1.769,
        "sp95": 1.679
      }
    },
    {
      "id": "2591",
      "cp": "07730",
      "ville": "Alaior",
      "adresse": "Carretera Comarcal 721 km. 7200",
      "brand": "Moeve",
      "lat": 39.908361,
      "lng": 4.186722,
      "fuels": {
        "gazole": 1.869,
        "sp95": 1.829
      }
    },
    {
      "id": "2590",
      "cp": "07730",
      "ville": "Alaior",
      "adresse": "Carretera me721 km. 7,200",
      "brand": "Moeve",
      "lat": 39.908333,
      "lng": 4.186722,
      "fuels": {
        "gazole": 1.869,
        "sp95": 1.829
      }
    },
    {
      "id": "2592",
      "cp": "07340",
      "ville": "Alaro",
      "adresse": "Avenida De La constitucio, 95",
      "brand": "Cepsa",
      "lat": 39.702167,
      "lng": 2.794917,
      "fuels": {
        "gazole": 1.739,
        "sp95": 1.669
      }
    },
    {
      "id": "2703",
      "cp": "07400",
      "ville": "Alcudia",
      "adresse": "Carretera C-713 km. 51,1",
      "brand": "Moeve",
      "lat": 39.847,
      "lng": 3.099,
      "fuels": {
        "gazole": 1.709,
        "sp95": 1.639
      }
    },
    {
      "id": "2733",
      "cp": "07400",
      "ville": "Alcudia",
      "adresse": "Cl Pollentia esq. cl. l,estel, s.n.",
      "brand": "Repsol",
      "lat": 39.850056,
      "lng": 3.127083,
      "fuels": {
        "gazole": 1.705,
        "sp95": 1.619,
        "sp98": 1.729
      }
    },
    {
      "id": "2686",
      "cp": "07210",
      "ville": "Algaida",
      "adresse": "Cr C-715, 21",
      "brand": "Repsol",
      "lat": 39.567306,
      "lng": 2.895833,
      "fuels": {
        "gazole": 1.725,
        "sp95": 1.629,
        "sp98": 1.729
      }
    },
    {
      "id": "2653",
      "cp": "07150",
      "ville": "Andratx",
      "adresse": "Carretera Palma-Pto Andratx km. 28,90",
      "brand": "Bp",
      "lat": 39.568,
      "lng": 2.423611,
      "fuels": {
        "gazole": 1.709,
        "sp95": 1.609,
        "sp98": 1.689
      }
    },
    {
      "id": "2738",
      "cp": "07199",
      "ville": "Aranjassa (s')",
      "adresse": "Carretera 10, Camino De Can capo, sžaranjassa km. 717",
      "brand": "Bp",
      "lat": 39.535306,
      "lng": 2.736056,
      "fuels": {
        "gazole": 1.709,
        "sp95": 1.619,
        "sp98": 1.699
      }
    },
    {
      "id": "2586",
      "cp": "07600",
      "ville": "Arenal (s')",
      "adresse": "Carretera Pm-602 km. 5",
      "brand": "Repsol",
      "lat": 39.483944,
      "lng": 2.831722,
      "fuels": {
        "gazole": 1.675,
        "sp95": 1.619,
        "sp98": 1.729
      }
    },
    {
      "id": "2690",
      "cp": "07570",
      "ville": "Arta",
      "adresse": "Calle ciutat, Sn",
      "brand": "Repsol",
      "lat": 39.68975,
      "lng": 3.346972,
      "fuels": {
        "gazole": 1.705,
        "sp95": 1.579,
        "sp98": 1.699
      }
    },
    {
      "id": "2652",
      "cp": "07570",
      "ville": "Arta",
      "adresse": "Carretera Ma-12 km. 11,600",
      "brand": "Repsol",
      "lat": 39.703111,
      "lng": 3.226556,
      "fuels": {
        "gazole": 1.699,
        "sp95": 1.599,
        "sp98": 1.729
      }
    },
    {
      "id": "2728",
      "cp": "07570",
      "ville": "Arta",
      "adresse": "Cl Abevradero-Esquina Cr C-715, s.n (c-715 Km 2)",
      "brand": "Petronor",
      "lat": 39.696194,
      "lng": 3.360278,
      "fuels": {
        "gazole": 1.705,
        "sp95": 1.579,
        "sp98": 1.699
      }
    },
    {
      "id": "2409",
      "cp": "07350",
      "ville": "Binissalem",
      "adresse": "Calle Rech Esq creu, S/N",
      "brand": "Repsol",
      "lat": 39.686861,
      "lng": 2.839972,
      "fuels": {
        "gazole": 1.719,
        "sp95": 1.619
      }
    },
    {
      "id": "13538",
      "cp": "07350",
      "ville": "Binissalem",
      "adresse": "Carretera Ma-13 a, Esquina Cami Agua km. S/N",
      "brand": "Eroski",
      "lat": 39.686806,
      "lng": 2.851556,
      "fuels": {
        "gazole": 1.599,
        "sp95": 1.479
      }
    },
    {
      "id": "2604",
      "cp": "07110",
      "ville": "Bunyola",
      "adresse": "Carretera C-711 km. 16,5",
      "brand": "Moeve",
      "lat": 39.712667,
      "lng": 2.69025,
      "fuels": {
        "gazole": 1.719,
        "sp95": 1.629
      }
    },
    {
      "id": "2742",
      "cp": "07110",
      "ville": "Bunyola",
      "adresse": "Carretera C-711 km. 16,5",
      "brand": "Cepsa",
      "lat": 39.712917,
      "lng": 2.68975,
      "fuels": {
        "gazole": 1.749,
        "sp95": 1.679
      }
    },
    {
      "id": "2411",
      "cp": "07458",
      "ville": "Ca'n Picafort",
      "adresse": " Carretera Arta-pto.alcudia,99, ",
      "brand": " Bp Ca Sestrella",
      "lat": 39.762,
      "lng": 3.152361,
      "fuels": {
        "gazole": 1.729,
        "sp95": 1.639,
        "sp98": 1.75
      }
    },
    {
      "id": "2699",
      "cp": "07458",
      "ville": "Ca'n Picafort",
      "adresse": "C-712 Km 22,3",
      "brand": "Repsol",
      "lat": 39.763139,
      "lng": 3.15075,
      "fuels": {
        "gazole": 1.729,
        "sp95": 1.639,
        "sp98": 1.749
      }
    },
    {
      "id": "16458",
      "cp": "07458",
      "ville": "Ca'n Picafort",
      "adresse": "Calle Ses pedreres, 7",
      "brand": "Just Fuel",
      "lat": 39.755389,
      "lng": 3.157806,
      "fuels": {
        "gazole": 1.579,
        "sp95": 1.489
      }
    },
    {
      "id": "2676",
      "cp": "07450",
      "ville": "Ca'n Picafort",
      "adresse": "Cr sta. Margarita-Petra Km  10,7",
      "brand": "Bp Munar Capo",
      "lat": 39.701556,
      "lng": 3.10075,
      "fuels": {
        "gazole": 1.729,
        "sp95": 1.6
      }
    },
    {
      "id": "14289",
      "cp": "07141",
      "ville": "Cabaneta (sa)",
      "adresse": "Carrer Camí De Muntanya Esq Carrer celleters, S/N",
      "brand": "Shell",
      "lat": 39.618611,
      "lng": 2.715056,
      "fuels": {
        "gazole": 1.629,
        "sp95": 1.529
      }
    },
    {
      "id": "2727",
      "cp": "07660",
      "ville": "Cala D'or",
      "adresse": "Avenida bienvenidos, 36",
      "brand": "Moeve",
      "lat": 39.379917,
      "lng": 3.226833,
      "fuels": {
        "gazole": 1.71,
        "sp95": 1.625,
        "sp98": 1.725
      }
    },
    {
      "id": "2589",
      "cp": "07660",
      "ville": "Cala D'or",
      "adresse": "Avinguda benvinguts, 64",
      "brand": "Repsol",
      "lat": 39.378722,
      "lng": 3.227056,
      "fuels": {
        "gazole": 1.719,
        "sp95": 1.629
      }
    },
    {
      "id": "2722",
      "cp": "07184",
      "ville": "Calvia",
      "adresse": "Calle Illes balears, 1",
      "brand": "Bp",
      "lat": 39.529306,
      "lng": 2.501889,
      "fuels": {
        "gazole": 1.649,
        "sp95": 1.529,
        "sp98": 1.629
      }
    },
    {
      "id": "2715",
      "cp": "07184",
      "ville": "Calvia",
      "adresse": "Carretera C-719 km. 7,8",
      "brand": "Repsol",
      "lat": 39.543,
      "lng": 2.591944,
      "fuels": {
        "gazole": 1.715,
        "sp95": 1.609,
        "sp98": 1.719
      }
    },
    {
      "id": "2635",
      "cp": "07184",
      "ville": "Calvia",
      "adresse": "Carretera Cala figuera, El toro, Son Ferrer km. S/N",
      "brand": "Bp",
      "lat": 39.500139,
      "lng": 2.518333,
      "fuels": {
        "gazole": 1.709,
        "sp95": 1.609,
        "sp98": 1.689
      }
    },
    {
      "id": "2583",
      "cp": "07184",
      "ville": "Calvia",
      "adresse": "Carretera Palma Nova - Calvia km. 5,5",
      "brand": "Moeve",
      "lat": 39.559833,
      "lng": 2.507667,
      "fuels": {
        "gazole": 1.679,
        "sp95": 1.589,
        "sp98": 1.669
      }
    },
    {
      "id": "12577",
      "cp": "07184",
      "ville": "Calvia",
      "adresse": "Carretera Pmv-1031 km. 1,5",
      "brand": "Repsol Butano",
      "lat": 39.5685,
      "lng": 2.490722,
      "fuels": {
        "gplc": 1.049
      }
    },
    {
      "id": "12188",
      "cp": "07184",
      "ville": "Calvia",
      "adresse": "Ronda De peguera, Sn",
      "brand": "Moeve",
      "lat": 39.544306,
      "lng": 2.451583,
      "fuels": {
        "gazole": 1.729,
        "sp95": 1.639
      }
    },
    {
      "id": "2708",
      "cp": "07310",
      "ville": "Campanet",
      "adresse": "Carretera C-713 km. 38,3",
      "brand": "Moeve",
      "lat": 39.775444,
      "lng": 2.989472,
      "fuels": {
        "gazole": 1.71,
        "sp95": 1.595,
        "sp98": 1.719
      }
    },
    {
      "id": "16416",
      "cp": "07630",
      "ville": "Campos",
      "adresse": "Camino De Ciutat vell, 40",
      "brand": "Just Fuel",
      "lat": 39.43625,
      "lng": 3.006889,
      "fuels": {
        "gazole": 1.579,
        "sp95": 1.459
      }
    },
    {
      "id": "2700",
      "cp": "07630",
      "ville": "Campos",
      "adresse": "Carretera C-717 km. 38",
      "brand": "Repsol",
      "lat": 39.426361,
      "lng": 3.02425,
      "fuels": {
        "gazole": 1.725,
        "sp95": 1.645,
        "sp98": 1.745
      }
    },
    {
      "id": "2594",
      "cp": "07630",
      "ville": "Campos",
      "adresse": "Carretera C-717 Palma - Porto Petro km. 34,5",
      "brand": "Moeve",
      "lat": 39.437611,
      "lng": 3.004667,
      "fuels": {
        "gazole": 1.66,
        "sp95": 1.599
      }
    },
    {
      "id": "16146",
      "cp": "07630",
      "ville": "Campos",
      "adresse": "Carretera Ma-19 km. 9",
      "brand": "Plenergy",
      "lat": 39.437111,
      "lng": 3.011639,
      "fuels": {
        "gazole": 1.575,
        "sp95": 1.459
      }
    },
    {
      "id": "2677",
      "cp": "07610",
      "ville": "Can Pastilla",
      "adresse": "Calle Manuela De Los herreros, 15",
      "brand": "Bp Playa De Palma",
      "lat": 39.532722,
      "lng": 2.72725,
      "fuels": {
        "gazole": 1.709,
        "sp95": 1.619,
        "sp98": 1.759
      }
    },
    {
      "id": "2606",
      "cp": "07610",
      "ville": "Can Pastilla",
      "adresse": "Calle tramuntana, S/N",
      "brand": "Bp",
      "lat": 39.536722,
      "lng": 2.719972,
      "fuels": {
        "gazole": 1.709,
        "sp95": 1.609,
        "sp98": 1.689
      }
    },
    {
      "id": "13569",
      "cp": "07580",
      "ville": "Capdepera",
      "adresse": "Avenida Juan Carlos i, 68",
      "brand": "Galp",
      "lat": 39.703889,
      "lng": 3.446389,
      "fuels": {
        "gazole": 1.658,
        "sp95": 1.578
      }
    },
    {
      "id": "2713",
      "cp": "07580",
      "ville": "Capdepera",
      "adresse": "Avenida Juan Carlos i, S/N",
      "brand": "Repsol",
      "lat": 39.705278,
      "lng": 3.451667,
      "fuels": {
        "gazole": 1.679,
        "sp95": 1.595,
        "sp98": 1.695
      }
    },
    {
      "id": "11995",
      "cp": "07198",
      "ville": "Casa Blanca (sa)",
      "adresse": "Calle manacor, 309",
      "brand": "Repsol",
      "lat": 39.572528,
      "lng": 2.714194,
      "fuels": {
        "gazole": 1.689,
        "sp95": 1.589,
        "sp98": 1.719
      }
    },
    {
      "id": "9871",
      "cp": "07198",
      "ville": "Casa Blanca (sa)",
      "adresse": "cta. Manacor C-715 Km 6.7",
      "brand": "Shell",
      "lat": 39.570556,
      "lng": 2.735833,
      "fuels": {
        "gazole": 1.689,
        "sp95": 1.589,
        "sp98": 1.699
      }
    },
    {
      "id": "2667",
      "cp": "07760",
      "ville": "Ciutadella De Menorca",
      "adresse": "Autovia ctra. Mahon - Ciudadela km. 43,9",
      "brand": "Bp Energia España Sau",
      "lat": 40.004639,
      "lng": 3.850583,
      "fuels": {
        "gazole": 1.739,
        "sp95": 1.629
      }
    },
    {
      "id": "2668",
      "cp": "07760",
      "ville": "Ciutadella De Menorca",
      "adresse": "Calle Cautivos De constantinipla, S/N",
      "brand": "Moeve Comercial Sau",
      "lat": 40.001389,
      "lng": 3.843556,
      "fuels": {
        "gazole": 1.829,
        "sp95": 1.779
      }
    },
    {
      "id": "13041",
      "cp": "07760",
      "ville": "Ciutadella De Menorca",
      "adresse": "Calle ferrers, 1",
      "brand": "Galp",
      "lat": 40.005611,
      "lng": 3.853444,
      "fuels": {
        "gazole": 1.679,
        "sp95": 1.629
      }
    },
    {
      "id": "13088",
      "cp": "07760",
      "ville": "Ciutadella De Menorca",
      "adresse": "Calle ferrers, 12",
      "brand": "Autonetoil",
      "lat": 40.007139,
      "lng": 3.853361,
      "fuels": {
        "gazole": 1.649,
        "sp95": 1.599
      }
    },
    {
      "id": "2569",
      "cp": "07760",
      "ville": "Ciutadella De Menorca",
      "adresse": "Calle Pintor torrent, 10",
      "brand": "Repsol",
      "lat": 40.007833,
      "lng": 3.833056,
      "fuels": {
        "gazole": 1.679,
        "sp95": 1.645,
        "gplc": 1.089
      }
    },
    {
      "id": "2624",
      "cp": "07638",
      "ville": "Colonia De Sant Jordi",
      "adresse": "Calle Gabriel roca, 129",
      "brand": "Repsol",
      "lat": 39.320111,
      "lng": 3.000056,
      "fuels": {
        "gazole": 1.699,
        "sp95": 1.609,
        "sp98": 1.779
      }
    },
    {
      "id": "2721",
      "cp": "07183",
      "ville": "Costa De La Calma",
      "adresse": "Carretera Palma-Andratx km, 18 km. 18",
      "brand": "Repsol",
      "lat": 39.526472,
      "lng": 2.486528,
      "fuels": {
        "gazole": 1.709,
        "sp95": 1.619,
        "sp98": 1.699,
        "gplc": 1.079
      }
    },
    {
      "id": "2720",
      "cp": "07183",
      "ville": "Costa De La Calma",
      "adresse": "Carretera Palma-Puerto Andratx km. 19",
      "brand": "Repsol",
      "lat": 39.526472,
      "lng": 2.486722,
      "fuels": {
        "gazole": 1.649,
        "sp95": 1.559,
        "sp98": 1.639
      }
    },
    {
      "id": "2694",
      "cp": "07800",
      "ville": "Eivissa",
      "adresse": "Avenida Ignacio wallis, 58",
      "brand": "Shell",
      "lat": 38.914444,
      "lng": 1.429222,
      "fuels": {
        "gazole": 1.719,
        "sp95": 1.629,
        "sp98": 1.739
      }
    },
    {
      "id": "2620",
      "cp": "07800",
      "ville": "Eivissa",
      "adresse": "Avenida Sant Jusep De Sa talaya, 42",
      "brand": "Galp",
      "lat": 38.905194,
      "lng": 1.412806,
      "fuels": {
        "gazole": 1.625,
        "sp95": 1.549
      }
    },
    {
      "id": "15229",
      "cp": "07800",
      "ville": "Eivissa",
      "adresse": "Calle Des jondal, 73",
      "brand": "Carburantes ibiza, s.l.",
      "lat": 38.908806,
      "lng": 1.410306,
      "fuels": {
        "gazole": 1.599,
        "sp95": 1.539
      }
    },
    {
      "id": "2588",
      "cp": "07800",
      "ville": "Eivissa",
      "adresse": "Carrer Alcalde Bartolome Rosello sala, 2",
      "brand": "Cepsa ",
      "lat": 38.918833,
      "lng": 1.437167,
      "fuels": {
        "gazole": 1.689,
        "sp95": 1.619,
        "sp98": 1.749
      }
    },
    {
      "id": "15609",
      "cp": "07800",
      "ville": "Eivissa",
      "adresse": "Carrer Alcalde Bartomeu Rosello sala, 9",
      "brand": "Autonetoil",
      "lat": 38.919917,
      "lng": 1.436083,
      "fuels": {
        "gazole": 1.569,
        "sp95": 1.489
      }
    },
    {
      "id": "2626",
      "cp": "07800",
      "ville": "Eivissa",
      "adresse": "Carretera Ibiza - San Juan km. 1,7",
      "brand": "Repsol",
      "lat": 38.922694,
      "lng": 1.440778,
      "fuels": {
        "gazole": 1.699,
        "sp95": 1.625,
        "sp98": 1.735
      }
    },
    {
      "id": "2627",
      "cp": "07800",
      "ville": "Eivissa",
      "adresse": "Carretera Ibiza - San Juan km. 1,7",
      "brand": "Repsol",
      "lat": 38.922167,
      "lng": 1.440139,
      "fuels": {
        "gazole": 1.699,
        "sp95": 1.625
      }
    },
    {
      "id": "2570",
      "cp": "07800",
      "ville": "Eivissa",
      "adresse": "Carretera Pm-808 km. 1,25",
      "brand": "Repsol",
      "lat": 38.905583,
      "lng": 1.417972,
      "fuels": {
        "gazole": 1.705,
        "sp95": 1.629,
        "sp98": 1.739,
        "gplc": 1.085
      }
    },
    {
      "id": "2625",
      "cp": "07315",
      "ville": "Escorca",
      "adresse": "Carretera Pm - 213 km. 14,8",
      "brand": "Repsol",
      "lat": 39.812444,
      "lng": 2.89,
      "fuels": {
        "gazole": 1.699,
        "sp95": 1.599,
        "sp98": 1.729
      }
    },
    {
      "id": "2617",
      "cp": "07190",
      "ville": "Esporles",
      "adresse": "Carretera pm104 km. 12,8",
      "brand": "Repsol",
      "lat": 39.659278,
      "lng": 2.58825,
      "fuels": {
        "gazole": 1.686,
        "sp95": 1.583,
        "sp98": 1.719
      }
    },
    {
      "id": "15093",
      "cp": "07200",
      "ville": "Felanitx",
      "adresse": "Calle Puig De Sant nicolau, 1",
      "brand": "Just Fuel",
      "lat": 39.465111,
      "lng": 3.140944,
      "fuels": {
        "gazole": 1.599,
        "sp95": 1.489
      }
    },
    {
      "id": "2710",
      "cp": "07200",
      "ville": "Felanitx",
      "adresse": "Carretera Campos km. 11,1",
      "brand": "Repsol",
      "lat": 39.465639,
      "lng": 3.138222,
      "fuels": {
        "gazole": 1.719,
        "sp95": 1.579,
        "sp98": 1.689
      }
    },
    {
      "id": "2647",
      "cp": "07200",
      "ville": "Felanitx",
      "adresse": "Carretera Carretera Felanitx-Porto colom, km.8,200 km. 8,200",
      "brand": "Repsol",
      "lat": 39.443611,
      "lng": 3.235472,
      "fuels": {
        "gazole": 1.689,
        "sp95": 1.589,
        "sp98": 1.719
      }
    },
    {
      "id": "2596",
      "cp": "07200",
      "ville": "Felanitx",
      "adresse": "Cr Pm-401, 0,4",
      "brand": "Petronor",
      "lat": 39.473667,
      "lng": 3.158722,
      "fuels": {
        "gazole": 1.729,
        "sp95": 1.629,
        "sp98": 1.759
      }
    },
    {
      "id": "2646",
      "cp": "07200",
      "ville": "Felanitx",
      "adresse": "Cr Pm-510, 12,1",
      "brand": "Bp Felanitx",
      "lat": 39.474778,
      "lng": 3.143472,
      "fuels": {
        "gazole": 1.739,
        "sp95": 1.629,
        "sp98": 1.769
      }
    },
    {
      "id": "2605",
      "cp": "07750",
      "ville": "Ferreries",
      "adresse": "Calle Dels teulers, 2",
      "brand": "Moeve",
      "lat": 39.98775,
      "lng": 4.020917,
      "fuels": {
        "gazole": 1.859,
        "sp95": 1.769
      }
    },
    {
      "id": "2640",
      "cp": "07300",
      "ville": "Inca",
      "adresse": "Avenida General luque, S/N",
      "brand": "Repsol",
      "lat": 39.711556,
      "lng": 2.901972,
      "fuels": {
        "gazole": 1.719,
        "sp95": 1.619,
        "sp98": 1.699
      }
    },
    {
      "id": "2692",
      "cp": "07300",
      "ville": "Inca",
      "adresse": "Avenida Jaime i, 143",
      "brand": "Repsol",
      "lat": 39.716639,
      "lng": 2.915333,
      "fuels": {
        "gazole": 1.705,
        "sp95": 1.625,
        "sp98": 1.735
      }
    },
    {
      "id": "16136",
      "cp": "07300",
      "ville": "Inca",
      "adresse": "Calle Berenguer d'anoia, 50",
      "brand": "Moeve",
      "lat": 39.716417,
      "lng": 2.915056,
      "fuels": {
        "gazole": 1.669,
        "sp95": 1.579,
        "sp98": 1.659
      }
    },
    {
      "id": "16198",
      "cp": "07300",
      "ville": "Inca",
      "adresse": "Calle Del gral. luque, S/N",
      "brand": "Plenergy",
      "lat": 39.710083,
      "lng": 2.901778,
      "fuels": {
        "gazole": 1.599,
        "sp95": 1.479
      }
    },
    {
      "id": "14143",
      "cp": "07300",
      "ville": "Inca",
      "adresse": "Calle Joan De austria, 72",
      "brand": "Autonetoil",
      "lat": 39.714194,
      "lng": 2.907,
      "fuels": {
        "gazole": 1.599,
        "sp95": 1.479
      }
    },
    {
      "id": "2648",
      "cp": "07300",
      "ville": "Inca",
      "adresse": "Calle Lluc  Esquina selva, inca, S/N",
      "brand": "Bp",
      "lat": 39.729278,
      "lng": 2.911306,
      "fuels": {
        "gazole": 1.709,
        "sp95": 1.609,
        "sp98": 1.689
      }
    },
    {
      "id": "12579",
      "cp": "07300",
      "ville": "Inca",
      "adresse": "Camino Puig De Santa magdalena, S/N",
      "brand": "Repsol Butano",
      "lat": 39.731333,
      "lng": 2.939861,
      "fuels": {
        "gplc": 1.03
      }
    },
    {
      "id": "2636",
      "cp": "07300",
      "ville": "Inca",
      "adresse": "Carretera Palma-Alcudia Cruce ctra.sencelles km. S/N",
      "brand": "Bp",
      "lat": 39.711111,
      "lng": 2.909222,
      "fuels": {
        "gazole": 1.709,
        "sp95": 1.609,
        "sp98": 1.689
      }
    },
    {
      "id": "14342",
      "cp": "07360",
      "ville": "Lloseta",
      "adresse": "Carrer sabaters, Sn",
      "brand": "Shell",
      "lat": 39.7035,
      "lng": 2.870417,
      "fuels": {
        "gazole": 1.699,
        "sp95": 1.589,
        "sp98": 1.699
      }
    },
    {
      "id": "2724",
      "cp": "07430",
      "ville": "Llubi",
      "adresse": "Carrer La carretera, 69",
      "brand": "Cepsa",
      "lat": 39.698694,
      "lng": 3.005889,
      "fuels": {
        "gazole": 1.739,
        "sp95": 1.639
      }
    },
    {
      "id": "2637",
      "cp": "07620",
      "ville": "Llucmajor",
      "adresse": "Avenida Carlos v, S/N",
      "brand": "Cepsa",
      "lat": 39.485861,
      "lng": 2.895222,
      "fuels": {
        "gazole": 1.69,
        "sp95": 1.619,
        "sp98": 1.679
      }
    },
    {
      "id": "2621",
      "cp": "07620",
      "ville": "Llucmajor",
      "adresse": "Calle San cristobal, S/N",
      "brand": "Cepsa",
      "lat": 39.501,
      "lng": 2.75975,
      "fuels": {
        "gazole": 1.69,
        "sp95": 1.619
      }
    },
    {
      "id": "2689",
      "cp": "07620",
      "ville": "Llucmajor",
      "adresse": "Carretera Palma-Portopetro km. 23",
      "brand": "Cepsa",
      "lat": 39.494556,
      "lng": 2.881472,
      "fuels": {
        "gazole": 1.69,
        "sp95": 1.619
      }
    },
    {
      "id": "2574",
      "cp": "07620",
      "ville": "Llucmajor",
      "adresse": "Carretera Pm-602 km. 8,2",
      "brand": "Repsol",
      "lat": 39.493778,
      "lng": 2.789389,
      "fuels": {
        "gazole": 1.675,
        "sp95": 1.625,
        "sp98": 1.725,
        "gplc": 1.099
      }
    },
    {
      "id": "15958",
      "cp": "07500",
      "ville": "Manacor",
      "adresse": "Calle De Les pageses, 8",
      "brand": "autonet&oil",
      "lat": 39.560028,
      "lng": 3.207972,
      "fuels": {
        "gazole": 1.599,
        "sp95": 1.499
      }
    },
    {
      "id": "2638",
      "cp": "07500",
      "ville": "Manacor",
      "adresse": "Calle Juan miro, S/N",
      "brand": "Repsol",
      "lat": 39.561306,
      "lng": 3.207,
      "fuels": {
        "gazole": 1.689,
        "sp95": 1.589,
        "sp98": 1.719
      }
    },
    {
      "id": "14906",
      "cp": "07500",
      "ville": "Manacor",
      "adresse": "Calle Via majorica, Sn",
      "brand": "Repsol",
      "lat": 39.572111,
      "lng": 3.194417,
      "fuels": {
        "gazole": 1.689,
        "sp95": 1.589,
        "sp98": 1.719,
        "gplc": 1.089
      }
    },
    {
      "id": "12574",
      "cp": "07500",
      "ville": "Manacor",
      "adresse": "Carretera Ma-15 km. 44,5",
      "brand": "Repsol Butano",
      "lat": 39.573556,
      "lng": 3.159556,
      "fuels": {
        "gplc": 1.029
      }
    },
    {
      "id": "2601",
      "cp": "07500",
      "ville": "Manacor",
      "adresse": "Carretera Pm-402 km. 5,6",
      "brand": "autonet&oil",
      "lat": 39.561028,
      "lng": 3.262972,
      "fuels": {
        "gazole": 1.579,
        "sp95": 1.479
      }
    },
    {
      "id": "2687",
      "cp": "07500",
      "ville": "Manacor",
      "adresse": "Cr C-715, 48",
      "brand": "Repsol",
      "lat": 39.574167,
      "lng": 3.200528,
      "fuels": {
        "gazole": 1.725,
        "sp95": 1.595,
        "sp98": 1.745
      }
    },
    {
      "id": "2607",
      "cp": "07500",
      "ville": "Manacor",
      "adresse": "Cr Pm-402, 1,6",
      "brand": "Repsol",
      "lat": 39.566944,
      "lng": 3.220667,
      "fuels": {
        "gazole": 1.725,
        "sp95": 1.605,
        "sp98": 1.705
      }
    },
    {
      "id": "2634",
      "cp": "07500",
      "ville": "Manacor",
      "adresse": "Vía Via palma, 87 (rotonda hospital), 87",
      "brand": "Repsol",
      "lat": 39.577833,
      "lng": 3.210528,
      "fuels": {
        "gazole": 1.689,
        "sp95": 1.589,
        "sp98": 1.719
      }
    },
    {
      "id": "13493",
      "cp": "07714",
      "ville": "Mao",
      "adresse": "Avenida Cap De cavalleria, 14",
      "brand": "Galp",
      "lat": 39.888806,
      "lng": 4.249,
      "fuels": {
        "gazole": 1.709,
        "sp95": 1.589
      }
    },
    {
      "id": "2598",
      "cp": "07703",
      "ville": "Mao",
      "adresse": "Avenida Jose Anselmo clave, S/N",
      "brand": "Cepsa",
      "lat": 39.881972,
      "lng": 4.259389,
      "fuels": {
        "gazole": 1.769,
        "sp95": 1.679
      }
    },
    {
      "id": "13465",
      "cp": "07714",
      "ville": "Mao",
      "adresse": "Calle Bajoli ( Poligono Industrial Artruix ), 39",
      "brand": "Gmoil",
      "lat": 39.883917,
      "lng": 4.240472,
      "fuels": {
        "gazole": 1.629,
        "sp95": 1.509
      }
    },
    {
      "id": "13150",
      "cp": "07714",
      "ville": "Mao",
      "adresse": "Carrer artruxt, 7",
      "brand": "Autonetoil",
      "lat": 39.884917,
      "lng": 4.246694,
      "fuels": {
        "gazole": 1.629,
        "sp95": 1.509
      }
    },
    {
      "id": "2633",
      "cp": "07701",
      "ville": "Mao",
      "adresse": "Carretera Aeropuerto km. 5",
      "brand": "Moeve",
      "lat": 39.863861,
      "lng": 4.227833,
      "fuels": {
        "gazole": 1.999,
        "sp95": 1.939
      }
    },
    {
      "id": "2737",
      "cp": "07703",
      "ville": "Mao",
      "adresse": "Cr Me-1 , 1,50",
      "brand": "Repsol",
      "lat": 39.889583,
      "lng": 4.242861,
      "fuels": {
        "gazole": 1.735,
        "sp95": 1.639,
        "gplc": 1.115
      }
    },
    {
      "id": "16388",
      "cp": "07714",
      "ville": "Mao",
      "adresse": "Ronda Ronda De maó, 4",
      "brand": "Plenergy",
      "lat": 39.889389,
      "lng": 4.248833,
      "fuels": {
        "gazole": 1.629,
        "sp95": 1.509
      }
    },
    {
      "id": "2670",
      "cp": "07702",
      "ville": "Mao",
      "adresse": "Rotonda Plaza Abu umar, 1",
      "brand": "Cepsa",
      "lat": 39.884278,
      "lng": 4.271639,
      "fuels": {
        "gazole": 1.769,
        "sp95": 1.679
      }
    },
    {
      "id": "16115",
      "cp": "07141",
      "ville": "Marratxinet",
      "adresse": "Camino De montana, 11",
      "brand": "Plenergy",
      "lat": 39.618333,
      "lng": 2.715056,
      "fuels": {
        "gazole": 1.619,
        "sp95": 1.519
      }
    },
    {
      "id": "11617",
      "cp": "07141",
      "ville": "Marratxinet",
      "adresse": "Carretera Cr C-713  Palma-Puerto Alcudia km. 13",
      "brand": "Repsol",
      "lat": 39.647944,
      "lng": 2.756889,
      "fuels": {
        "gazole": 1.709,
        "sp95": 1.609,
        "sp98": 1.689
      }
    },
    {
      "id": "2651",
      "cp": "07141",
      "ville": "Marratxinet",
      "adresse": "Carretera Palma-Pto Alcudia km. 8,9",
      "brand": "Repsol",
      "lat": 39.615806,
      "lng": 2.718,
      "fuels": {
        "gazole": 1.709,
        "sp95": 1.609,
        "sp98": 1.689
      }
    },
    {
      "id": "2711",
      "cp": "07141",
      "ville": "Marratxinet",
      "adresse": "Poligono ollers, S/N",
      "brand": "Bp",
      "lat": 39.627528,
      "lng": 2.725056,
      "fuels": {
        "gazole": 1.669,
        "sp95": 1.579,
        "sp98": 1.659
      }
    },
    {
      "id": "2666",
      "cp": "07740",
      "ville": "Mercadal (es)",
      "adresse": "Carretera Ctra De Mao A Ciutadella Me-1 km. 23",
      "brand": "Bp",
      "lat": 39.984639,
      "lng": 4.071667,
      "fuels": {
        "gazole": 1.739,
        "sp95": 1.629
      }
    },
    {
      "id": "2645",
      "cp": "07740",
      "ville": "Mercadal (es)",
      "adresse": "Carretera Mahón - Fornells km. 12,6",
      "brand": "Galp",
      "lat": 39.977556,
      "lng": 4.195611,
      "fuels": {
        "gazole": 1.809,
        "sp95": 1.689
      }
    },
    {
      "id": "2578",
      "cp": "07230",
      "ville": "Montuiri",
      "adresse": "Carretera Ma-15 km. 29,320",
      "brand": "Bp",
      "lat": 39.560806,
      "lng": 2.988139,
      "fuels": {
        "gazole": 1.699,
        "sp95": 1.599,
        "sp98": 1.739
      }
    },
    {
      "id": "2701",
      "cp": "07440",
      "ville": "Muro",
      "adresse": "Avenida Santa margarita, 49",
      "brand": "Economic Fuel",
      "lat": 39.729306,
      "lng": 3.059583,
      "fuels": {
        "gazole": 1.609,
        "sp95": 1.489,
        "sp98": 1.669
      }
    },
    {
      "id": "2568",
      "cp": "07440",
      "ville": "Muro",
      "adresse": "Carretera Ma-3431 km. 0,200",
      "brand": "Repsol",
      "lat": 39.7415,
      "lng": 3.052639,
      "fuels": {
        "gazole": 1.729,
        "sp95": 1.639,
        "sp98": 1.749
      }
    },
    {
      "id": "2663",
      "cp": "07611",
      "ville": "Palma",
      "adresse": "Ae Vial Salida aeropuerto, s.n.",
      "brand": "Repsol",
      "lat": 39.545917,
      "lng": 2.722944,
      "fuels": {
        "gazole": 1.695,
        "sp95": 1.619,
        "sp98": 1.719,
        "gplc": 1.115
      }
    },
    {
      "id": "2597",
      "cp": "07006",
      "ville": "Palma",
      "adresse": "Avenida america, arenal, 18",
      "brand": "Bp",
      "lat": 39.511639,
      "lng": 2.753389,
      "fuels": {
        "gazole": 1.709,
        "sp95": 1.609,
        "sp98": 1.689
      }
    },
    {
      "id": "13602",
      "cp": "07007",
      "ville": "Palma",
      "adresse": "Avenida Cardenal rosell,, S/N",
      "brand": "Carrefour",
      "lat": 39.552167,
      "lng": 2.704222,
      "fuels": {
        "gazole": 1.649,
        "sp95": 1.559,
        "sp98": 1.689
      }
    },
    {
      "id": "2682",
      "cp": "07006",
      "ville": "Palma",
      "adresse": "Avenida Gabriel Alomar Y villalonga, S/N",
      "brand": "Repsol",
      "lat": 39.566528,
      "lng": 2.656778,
      "fuels": {
        "gazole": 1.685,
        "sp95": 1.585,
        "sp98": 1.715
      }
    },
    {
      "id": "2565",
      "cp": "07014",
      "ville": "Palma",
      "adresse": "Avenida Joan miro, 22",
      "brand": "Moeve",
      "lat": 39.565778,
      "lng": 2.626444,
      "fuels": {
        "gazole": 1.69,
        "sp95": 1.575
      }
    },
    {
      "id": "2704",
      "cp": "07015",
      "ville": "Palma",
      "adresse": "Avenida Joan miro, 238",
      "brand": "Bp",
      "lat": 39.552444,
      "lng": 2.613889,
      "fuels": {
        "gazole": 1.709,
        "sp95": 1.609,
        "sp98": 1.689
      }
    },
    {
      "id": "2705",
      "cp": "07015",
      "ville": "Palma",
      "adresse": "Avenida Joan miro, S/N",
      "brand": "Bp",
      "lat": 39.552028,
      "lng": 2.616056,
      "fuels": {
        "gazole": 1.709,
        "sp95": 1.609,
        "sp98": 1.689
      }
    },
    {
      "id": "2695",
      "cp": "07004",
      "ville": "Palma",
      "adresse": "Calle Alfons El magnanim, 90",
      "brand": "Bp Amanecer",
      "lat": 39.594167,
      "lng": 2.654472,
      "fuels": {
        "gazole": 1.698,
        "sp95": 1.618,
        "sp98": 1.735
      }
    },
    {
      "id": "2644",
      "cp": "07014",
      "ville": "Palma",
      "adresse": "Calle Andrea doria, Esquina Son armadans, S/N",
      "brand": "Bp",
      "lat": 39.571278,
      "lng": 2.625472,
      "fuels": {
        "gazole": 1.709,
        "sp95": 1.619,
        "sp98": 1.699
      }
    },
    {
      "id": "2688",
      "cp": "07008",
      "ville": "Palma",
      "adresse": "Calle aragon, 180",
      "brand": "Repsol",
      "lat": 39.584278,
      "lng": 2.671556,
      "fuels": {
        "gazole": 1.677,
        "sp95": 1.579,
        "sp98": 1.678
      }
    },
    {
      "id": "2743",
      "cp": "07008",
      "ville": "Palma",
      "adresse": "Calle aragon, 217",
      "brand": "Repsol",
      "lat": 39.589167,
      "lng": 2.676472,
      "fuels": {
        "gazole": 1.685,
        "sp95": 1.585,
        "sp98": 1.715
      }
    },
    {
      "id": "2587",
      "cp": "07008",
      "ville": "Palma",
      "adresse": "Calle biniamar, 16",
      "brand": "Cepsa",
      "lat": 39.581722,
      "lng": 2.678806,
      "fuels": {
        "gazole": 1.699,
        "sp95": 1.599,
        "sp98": 1.669
      }
    },
    {
      "id": "2726",
      "cp": "07009",
      "ville": "Palma",
      "adresse": "Calle Cala blanca,, 9",
      "brand": "Repsol",
      "lat": 39.597222,
      "lng": 2.676389,
      "fuels": {
        "gazole": 1.685,
        "sp95": 1.595,
        "sp98": 1.745
      }
    },
    {
      "id": "15098",
      "cp": "07011",
      "ville": "Palma",
      "adresse": "Calle Cami De jesus, 10",
      "brand": "Shell",
      "lat": 39.591278,
      "lng": 2.634139,
      "fuels": {
        "gazole": 1.689,
        "sp95": 1.584,
        "sp98": 1.684,
        "gplc": 0.959
      }
    },
    {
      "id": "2735",
      "cp": "07010",
      "ville": "Palma",
      "adresse": "Calle Cami salard, S/N",
      "brand": "Repsol",
      "lat": 39.576167,
      "lng": 2.685139,
      "fuels": {
        "gazole": 1.689,
        "sp95": 1.589,
        "sp98": 1.719,
        "gplc": 1.089
      }
    },
    {
      "id": "2410",
      "cp": "07009",
      "ville": "Palma",
      "adresse": "Calle Cami Vell De nubyola, S/N",
      "brand": "Repsol",
      "lat": 39.602361,
      "lng": 2.674917,
      "fuels": {
        "gazole": 1.689,
        "sp95": 1.589,
        "sp98": 1.719
      }
    },
    {
      "id": "2618",
      "cp": "07010",
      "ville": "Palma",
      "adresse": "Calle Camino De Los reyes, 201",
      "brand": "Moeve",
      "lat": 39.593,
      "lng": 2.633472,
      "fuels": {
        "gazole": 1.689,
        "sp95": 1.595,
        "sp98": 1.689
      }
    },
    {
      "id": "2610",
      "cp": "07004",
      "ville": "Palma",
      "adresse": "Calle Capitan salom, 31",
      "brand": "Repsol",
      "lat": 39.586417,
      "lng": 2.652889,
      "fuels": {
        "gazole": 1.709,
        "sp95": 1.609,
        "sp98": 1.689
      }
    },
    {
      "id": "2615",
      "cp": "07010",
      "ville": "Palma",
      "adresse": "Calle Coronel beorlegui, 49",
      "brand": "Repsol",
      "lat": 39.605028,
      "lng": 2.634639,
      "fuels": {
        "gazole": 1.689,
        "sp95": 1.589,
        "sp98": 1.719
      }
    },
    {
      "id": "2619",
      "cp": "07004",
      "ville": "Palma",
      "adresse": "Calle Eusebio estada, 64",
      "brand": "Repsol",
      "lat": 39.582056,
      "lng": 2.660667,
      "fuels": {
        "gazole": 1.689,
        "sp95": 1.589,
        "sp98": 1.719
      }
    },
    {
      "id": "13162",
      "cp": "07008",
      "ville": "Palma",
      "adresse": "Calle Gabriel alzamora, 25",
      "brand": "autonet&oil",
      "lat": 39.589306,
      "lng": 2.674778,
      "fuels": {
        "gazole": 1.579,
        "sp95": 1.479
      }
    },
    {
      "id": "15248",
      "cp": "07007",
      "ville": "Palma",
      "adresse": "Calle George sand, 4",
      "brand": "Galp",
      "lat": 39.574417,
      "lng": 2.679611,
      "fuels": {
        "gazole": 1.655,
        "sp95": 1.559
      }
    },
    {
      "id": "13184",
      "cp": "07009",
      "ville": "Palma",
      "adresse": "Calle Gremi Cirugians I barbers, 11",
      "brand": "autonet&oil",
      "lat": 39.600639,
      "lng": 2.65825,
      "fuels": {
        "gazole": 1.579,
        "sp95": 1.479
      }
    },
    {
      "id": "12568",
      "cp": "07009",
      "ville": "Palma",
      "adresse": "Calle Gremi Selleters I basters, 12",
      "brand": "set&go",
      "lat": 39.605528,
      "lng": 2.658472,
      "fuels": {
        "gazole": 1.609,
        "sp95": 1.499,
        "gplc": 1.029
      }
    },
    {
      "id": "2584",
      "cp": "07009",
      "ville": "Palma",
      "adresse": "Calle Gremi Sucrers Y candelers, 5",
      "brand": "Repsol",
      "lat": 39.606667,
      "lng": 2.656056,
      "fuels": {
        "gazole": 1.689,
        "sp95": 1.589,
        "sp98": 1.719,
        "gplc": 1.089
      }
    },
    {
      "id": "13713",
      "cp": "07009",
      "ville": "Palma",
      "adresse": "Calle guadiana, 45",
      "brand": "Shell",
      "lat": 39.591583,
      "lng": 2.673639,
      "fuels": {
        "gazole": 1.684,
        "sp95": 1.569,
        "sp98": 1.669
      }
    },
    {
      "id": "13474",
      "cp": "07007",
      "ville": "Palma",
      "adresse": "Calle Hort De Ses ànimes, 23",
      "brand": "Shell",
      "lat": 39.567083,
      "lng": 2.685778,
      "fuels": {
        "gazole": 1.658,
        "sp95": 1.568,
        "sp98": 1.698
      }
    },
    {
      "id": "2631",
      "cp": "07004",
      "ville": "Palma",
      "adresse": "Calle Jaume balmes, 44",
      "brand": "Bp Balmes",
      "lat": 39.580194,
      "lng": 2.659194,
      "fuels": {
        "gazole": 1.689,
        "sp95": 1.589,
        "sp98": 1.719
      }
    },
    {
      "id": "2732",
      "cp": "07007",
      "ville": "Palma",
      "adresse": "Calle llucmajor, 109",
      "brand": "Bp Llucmajor",
      "lat": 39.559083,
      "lng": 2.678639,
      "fuels": {
        "gazole": 1.635,
        "sp95": 1.559,
        "sp98": 1.699
      }
    },
    {
      "id": "2654",
      "cp": "07007",
      "ville": "Palma",
      "adresse": "Calle llucmajor, 148",
      "brand": "Repsol",
      "lat": 39.557861,
      "lng": 2.682333,
      "fuels": {
        "gazole": 1.669,
        "sp95": 1.589,
        "sp98": 1.699
      }
    },
    {
      "id": "2681",
      "cp": "07006",
      "ville": "Palma",
      "adresse": "Calle Manuel azaña, 5",
      "brand": "Cepsa",
      "lat": 39.565194,
      "lng": 2.6635,
      "fuels": {
        "gazole": 1.699,
        "sp95": 1.599,
        "sp98": 1.739
      }
    },
    {
      "id": "2649",
      "cp": "07009",
      "ville": "Palma",
      "adresse": "Calle Musico Isaac albeniz, S/N",
      "brand": "Bp",
      "lat": 39.586306,
      "lng": 2.662056,
      "fuels": {
        "gazole": 1.697,
        "sp95": 1.609,
        "sp98": 1.689
      }
    },
    {
      "id": "2611",
      "cp": "07013",
      "ville": "Palma",
      "adresse": "Calle Pascual ribot, S/N",
      "brand": "Bp Es Forti",
      "lat": 39.579306,
      "lng": 2.636444,
      "fuels": {
        "gazole": 1.719,
        "sp95": 1.609,
        "sp98": 1.739
      }
    },
    {
      "id": "14218",
      "cp": "07011",
      "ville": "Palma",
      "adresse": "Calle poima, 12",
      "brand": "Autonetoil",
      "lat": 39.595056,
      "lng": 2.632778,
      "fuels": {
        "gazole": 1.579,
        "sp95": 1.479
      }
    },
    {
      "id": "2734",
      "cp": "07008",
      "ville": "Palma",
      "adresse": "Calle Sant ignasi, 68",
      "brand": "Repsol",
      "lat": 39.574389,
      "lng": 2.675944,
      "fuels": {
        "gazole": 1.685,
        "sp95": 1.595,
        "sp98": 1.725
      }
    },
    {
      "id": "2740",
      "cp": "07013",
      "ville": "Palma",
      "adresse": "Cami Cami De Son Rapinya esq.cami Del reis, S/N",
      "brand": "Repsol",
      "lat": 39.584944,
      "lng": 2.618722,
      "fuels": {
        "gazole": 1.689,
        "sp95": 1.589,
        "sp98": 1.719,
        "gplc": 1.089
      }
    },
    {
      "id": "2736",
      "cp": "07011",
      "ville": "Palma",
      "adresse": "Camino reis, S/N",
      "brand": "Repsol",
      "lat": 39.595861,
      "lng": 2.637917,
      "fuels": {
        "gazole": 1.699,
        "sp95": 1.589,
        "sp98": 1.699
      }
    },
    {
      "id": "2609",
      "cp": "07011",
      "ville": "Palma",
      "adresse": "Camino Vileta (la), S/N",
      "brand": "Repsol",
      "lat": 39.583,
      "lng": 2.63075,
      "fuels": {
        "gazole": 1.705,
        "sp95": 1.599,
        "sp98": 1.699
      }
    },
    {
      "id": "14128",
      "cp": "07007",
      "ville": "Palma",
      "adresse": "Carrer De Son pendola, 1",
      "brand": "Autonetoil",
      "lat": 39.566222,
      "lng": 2.68,
      "fuels": {
        "gazole": 1.579,
        "sp95": 1.479
      }
    },
    {
      "id": "15894",
      "cp": "07007",
      "ville": "Palma",
      "adresse": "Carrer Hort De Les animes, 30",
      "brand": "v2 Gasolineras",
      "lat": 39.566556,
      "lng": 2.685333,
      "fuels": {
        "gazole": 1.659,
        "sp95": 1.499,
        "sp98": 1.799
      }
    },
    {
      "id": "2573",
      "cp": "07120",
      "ville": "Palma",
      "adresse": "Carretera C-711 Palma-Soller km. 7",
      "brand": "Repsol",
      "lat": 39.629778,
      "lng": 2.663583,
      "fuels": {
        "gazole": 1.669,
        "sp95": 1.585,
        "sp98": 1.695
      }
    },
    {
      "id": "2612",
      "cp": "07007",
      "ville": "Palma",
      "adresse": "Carretera C-715 km. 2,7",
      "brand": "Repsol",
      "lat": 39.570083,
      "lng": 2.688333,
      "fuels": {
        "gazole": 1.675,
        "sp95": 1.609,
        "sp98": 1.709
      }
    },
    {
      "id": "2613",
      "cp": "07009",
      "ville": "Palma",
      "adresse": "Carretera Vieja De Buñola km. 15",
      "brand": "Moeve",
      "lat": 39.593333,
      "lng": 2.668944,
      "fuels": {
        "gazole": 1.689,
        "sp95": 1.595
      }
    },
    {
      "id": "2693",
      "cp": "07007",
      "ville": "Palma",
      "adresse": "Cl Camino ca,n pastilla, 37 (camnio Can Pastilla 37)",
      "brand": "Repsol",
      "lat": 39.54775,
      "lng": 2.703083,
      "fuels": {
        "gazole": 1.679,
        "sp95": 1.609,
        "sp98": 1.709
      }
    },
    {
      "id": "14411",
      "cp": "07009",
      "ville": "Palma",
      "adresse": "Gran Vía asima, 23",
      "brand": "Galp",
      "lat": 39.607194,
      "lng": 2.667889,
      "fuels": {
        "gazole": 1.689,
        "sp95": 1.589
      }
    },
    {
      "id": "2683",
      "cp": "07013",
      "ville": "Palma",
      "adresse": "Plaza progreso, S/N",
      "brand": "Repsol",
      "lat": 39.571861,
      "lng": 2.636,
      "fuels": {
        "gazole": 1.689,
        "sp95": 1.589,
        "sp98": 1.719
      }
    },
    {
      "id": "15569",
      "cp": "07007",
      "ville": "Palma",
      "adresse": "Zona Coll Den Rabassa 31, Poligono 48 Parcela 23, 31",
      "brand": "set&go",
      "lat": 39.552417,
      "lng": 2.709083,
      "fuels": {
        "gazole": 1.609,
        "sp95": 1.499
      }
    },
    {
      "id": "2665",
      "cp": "07181",
      "ville": "Palmanova",
      "adresse": "Pm-719 Km 12,4",
      "brand": "Moeve",
      "lat": 39.528083,
      "lng": 2.541556,
      "fuels": {
        "gazole": 1.709,
        "sp95": 1.639
      }
    },
    {
      "id": "15762",
      "cp": "07609",
      "ville": "Palmeres (les)",
      "adresse": "Carretera Ma-6014 km. 3,6",
      "brand": "Bp Son Granada",
      "lat": 39.477861,
      "lng": 2.745694,
      "fuels": {
        "gazole": 1.69,
        "sp95": 1.619,
        "sp98": 1.679
      }
    },
    {
      "id": "2684",
      "cp": "07520",
      "ville": "Petra",
      "adresse": "Carretera C-715 km. 42,5",
      "brand": "Cepsa",
      "lat": 39.576111,
      "lng": 3.133833,
      "fuels": {
        "gazole": 1.767,
        "sp95": 1.693
      }
    },
    {
      "id": "2718",
      "cp": "07520",
      "ville": "Petra",
      "adresse": "Carretera Pm-334 km. 1,1",
      "brand": "Repsol",
      "lat": 39.625889,
      "lng": 3.109028,
      "fuels": {
        "gazole": 1.719,
        "sp95": 1.609,
        "sp98": 1.739
      }
    },
    {
      "id": "2731",
      "cp": "07408",
      "ville": "Platja D'alcudia",
      "adresse": "Avenida Juan Carlos i, 109",
      "brand": "Repsol",
      "lat": 39.821333,
      "lng": 3.113806,
      "fuels": {
        "gazole": 1.699,
        "sp95": 1.599,
        "sp98": 1.729
      }
    },
    {
      "id": "2593",
      "cp": "07408",
      "ville": "Platja De Muro",
      "adresse": "Calle crucero, 12",
      "brand": "Las Gaviotas",
      "lat": 39.81425,
      "lng": 3.109972,
      "fuels": {
        "gazole": 1.759,
        "sp95": 1.669,
        "sp98": 1.779
      }
    },
    {
      "id": "16373",
      "cp": "07070",
      "ville": "Platja De Palma",
      "adresse": "Calle De samil, 59",
      "brand": "Plenergy",
      "lat": 39.532222,
      "lng": 2.735056,
      "fuels": {
        "gazole": 1.569,
        "sp95": 1.499
      }
    },
    {
      "id": "2632",
      "cp": "07608",
      "ville": "Platja De Palma",
      "adresse": "Camino De Las maravilla, S/N",
      "brand": "Cepsa",
      "lat": 39.521167,
      "lng": 2.749361,
      "fuels": {
        "gazole": 1.69,
        "sp95": 1.619
      }
    },
    {
      "id": "12410",
      "cp": "07610",
      "ville": "Platja De Palma",
      "adresse": "Camino Son fangos, 151",
      "brand": "Repsol",
      "lat": 39.535472,
      "lng": 2.735,
      "fuels": {
        "gazole": 1.699,
        "sp95": 1.619,
        "sp98": 1.719,
        "gplc": 1.119
      }
    },
    {
      "id": "15537",
      "cp": "07610",
      "ville": "Platja De Palma",
      "adresse": "Carrer marbella, 29",
      "brand": "v2 Gasolineras",
      "lat": 39.527111,
      "lng": 2.734833,
      "fuels": {
        "gazole": 1.679,
        "sp95": 1.499,
        "sp98": 1.899
      }
    },
    {
      "id": "14388",
      "cp": "07420",
      "ville": "Pobla (sa)",
      "adresse": "Calle Joan Piza I massanet, 5",
      "brand": "Eroski",
      "lat": 39.775028,
      "lng": 3.023944,
      "fuels": {
        "gazole": 1.599,
        "sp95": 1.479
      }
    },
    {
      "id": "2672",
      "cp": "07420",
      "ville": "Pobla (sa)",
      "adresse": "Calle trajiners, Sn",
      "brand": "Ballenoil",
      "lat": 39.771472,
      "lng": 3.016944,
      "fuels": {
        "gazole": 1.599,
        "sp95": 1.479
      }
    },
    {
      "id": "2639",
      "cp": "07420",
      "ville": "Pobla (sa)",
      "adresse": "Carretera Muro km. 0",
      "brand": "Bp Sa Pobla",
      "lat": 39.765472,
      "lng": 3.029667,
      "fuels": {
        "gazole": 1.689,
        "sp95": 1.585,
        "sp98": 1.725
      }
    },
    {
      "id": "15969",
      "cp": "07420",
      "ville": "Pobla (sa)",
      "adresse": "Rotonda albufera, 2",
      "brand": "Plenergy",
      "lat": 39.775861,
      "lng": 3.02475,
      "fuels": {
        "gazole": 1.599,
        "sp95": 1.479
      }
    },
    {
      "id": "15079",
      "cp": "07460",
      "ville": "Pollença",
      "adresse": "Calle Fuster del, 47",
      "brand": "Just Fuel",
      "lat": 39.886222,
      "lng": 3.029611,
      "fuels": {
        "gazole": 1.569,
        "sp95": 1.459
      }
    },
    {
      "id": "13588",
      "cp": "07460",
      "ville": "Pollença",
      "adresse": "Calle fuster, 35",
      "brand": "Galp",
      "lat": 39.885639,
      "lng": 3.030611,
      "fuels": {
        "sp95": 1.567
      }
    },
    {
      "id": "2698",
      "cp": "07460",
      "ville": "Pollença",
      "adresse": "Calle Juan xxiii, 133",
      "brand": "Bp Puerto Pollensa",
      "lat": 39.904694,
      "lng": 3.077333,
      "fuels": {
        "gazole": 1.689,
        "sp95": 1.585,
        "sp98": 1.725
      }
    },
    {
      "id": "2650",
      "cp": "07460",
      "ville": "Pollença",
      "adresse": "Cl Cecilio Metelo-esq.puig mari, s.",
      "brand": "Repsol",
      "lat": 39.873722,
      "lng": 3.016083,
      "fuels": {
        "gazole": 1.689,
        "sp95": 1.589,
        "sp98": 1.689
      }
    },
    {
      "id": "2595",
      "cp": "07181",
      "ville": "Porrassa (sa)",
      "adresse": "Carretera Cala Figuera km. S/N",
      "brand": "Repsol",
      "lat": 39.509111,
      "lng": 2.518611,
      "fuels": {
        "gazole": 1.709,
        "sp95": 1.609,
        "sp98": 1.719
      }
    },
    {
      "id": "2673",
      "cp": "07260",
      "ville": "Porreres",
      "adresse": "Carrera Pm-503 km. 5,5, ",
      "brand": "Bp",
      "lat": 39.520056,
      "lng": 3.019583,
      "fuels": {
        "gazole": 1.709,
        "sp95": 1.609,
        "sp98": 1.739
      }
    },
    {
      "id": "9182",
      "cp": "07410",
      "ville": "Port D'alcudia",
      "adresse": "Vía Corneli atic, 5",
      "brand": "Repsol",
      "lat": 39.843333,
      "lng": 3.123333,
      "fuels": {
        "gazole": 1.759,
        "sp95": 1.669,
        "sp98": 1.779,
        "gplc": 1.119
      }
    },
    {
      "id": "2706",
      "cp": "07157",
      "ville": "Port D'andratx",
      "adresse": "Calle Antoni calafat, 22",
      "brand": "Repsol",
      "lat": 39.542972,
      "lng": 2.389306,
      "fuels": {
        "gazole": 1.739,
        "sp95": 1.649,
        "sp98": 1.749
      }
    },
    {
      "id": "2716",
      "cp": "07680",
      "ville": "Porto Cristo",
      "adresse": "Carretera Pm 402 km. 9",
      "brand": "Moeve",
      "lat": 39.561,
      "lng": 3.263111,
      "fuels": {
        "gazole": 1.679,
        "sp95": 1.589,
        "sp98": 1.669
      }
    },
    {
      "id": "15122",
      "cp": "07680",
      "ville": "Porto Cristo",
      "adresse": "Ronda oest, 25",
      "brand": "Just Fuel",
      "lat": 39.546806,
      "lng": 3.333417,
      "fuels": {
        "gazole": 1.579,
        "sp95": 1.479
      }
    },
    {
      "id": "2678",
      "cp": "07680",
      "ville": "Porto Cristo",
      "adresse": "Ronda Ronda Del oeste, 123",
      "brand": "Repsol",
      "lat": 39.547667,
      "lng": 3.339444,
      "fuels": {
        "gazole": 1.689,
        "sp95": 1.589,
        "sp98": 1.719
      }
    },
    {
      "id": "2658",
      "cp": "07670",
      "ville": "Portocolom",
      "adresse": "Calle Cristofor Colom   p.colom, 33",
      "brand": "Repsol",
      "lat": 39.421,
      "lng": 3.2615,
      "fuels": {
        "gazole": 1.766,
        "sp95": 1.672
      }
    },
    {
      "id": "2679",
      "cp": "07640",
      "ville": "Salines (ses)",
      "adresse": "Avenida Francesc De Borja moll, 61",
      "brand": "Cepsa",
      "lat": 39.341333,
      "lng": 3.046389,
      "fuels": {
        "gazole": 1.749,
        "sp95": 1.659
      }
    },
    {
      "id": "2623",
      "cp": "07820",
      "ville": "Sant Antoni De Portmany",
      "adresse": "Avenida Doctor fleming, S/N",
      "brand": "Cepsa",
      "lat": 38.972528,
      "lng": 1.309222,
      "fuels": {
        "gazole": 1.719,
        "sp95": 1.639
      }
    },
    {
      "id": "15776",
      "cp": "07820",
      "ville": "Sant Antoni De Portmany",
      "adresse": "Avenida Ses paisses, 4",
      "brand": "Eroski",
      "lat": 38.975861,
      "lng": 1.322444,
      "fuels": {
        "gazole": 1.569,
        "sp95": 1.489
      }
    },
    {
      "id": "2581",
      "cp": "07820",
      "ville": "Sant Antoni De Portmany",
      "adresse": "Calle Cervantes Esquina velazquez, 44",
      "brand": "Moeve",
      "lat": 38.9835,
      "lng": 1.297806,
      "fuels": {
        "gazole": 1.701,
        "sp95": 1.625
      }
    },
    {
      "id": "2725",
      "cp": "07820",
      "ville": "Sant Antoni De Portmany",
      "adresse": "Carretera C-731 km. 13",
      "brand": "Moeve",
      "lat": 38.975056,
      "lng": 1.331,
      "fuels": {
        "gazole": 1.7,
        "sp95": 1.615
      }
    },
    {
      "id": "16363",
      "cp": "07712",
      "ville": "Sant Climent",
      "adresse": "Carretera Aeropuerto (zona aire) km. 5",
      "brand": "Moeve",
      "lat": 39.863861,
      "lng": 4.227833,
      "fuels": {
        "gazole": 1.999
      }
    },
    {
      "id": "2571",
      "cp": "07860",
      "ville": "Sant Francesc Formentera",
      "adresse": "Carretera La Sabina- El Pilar km. 4,6",
      "brand": "Repsol",
      "lat": 38.708444,
      "lng": 1.445417,
      "fuels": {
        "gazole": 1.739,
        "sp95": 1.699
      }
    },
    {
      "id": "2608",
      "cp": "07860",
      "ville": "Sant Francesc Formentera",
      "adresse": "Carretera Pm-820 km. 1,2",
      "brand": "Cepsa",
      "lat": 38.722972,
      "lng": 1.421972,
      "fuels": {
        "gazole": 1.789,
        "sp95": 1.755
      }
    },
    {
      "id": "2723",
      "cp": "07240",
      "ville": "Sant Joan",
      "adresse": "Carretera Ma-15 km. 36,6",
      "brand": "Repsol",
      "lat": 39.569833,
      "lng": 3.067806,
      "fuels": {
        "gazole": 1.689,
        "sp95": 1.589,
        "sp98": 1.719
      }
    },
    {
      "id": "2622",
      "cp": "07810",
      "ville": "Sant Joan De Labritja",
      "adresse": "Carretera C-733 km. 19,700",
      "brand": "Repsol",
      "lat": 39.070278,
      "lng": 1.496222,
      "fuels": {
        "gazole": 1.719,
        "sp95": 1.649,
        "sp98": 1.759
      }
    },
    {
      "id": "2630",
      "cp": "07830",
      "ville": "Sant Josep De Sa Talaia",
      "adresse": "Carretera Aeropuerto km. 4,5",
      "brand": "Bp Sant Jordi",
      "lat": 38.886028,
      "lng": 1.392139,
      "fuels": {
        "gazole": 1.705,
        "sp95": 1.619,
        "sp98": 1.759
      }
    },
    {
      "id": "2696",
      "cp": "07830",
      "ville": "Sant Josep De Sa Talaia",
      "adresse": "Carretera Pm-803 km. 14,3",
      "brand": "Moeve",
      "lat": 38.92175,
      "lng": 1.305611,
      "fuels": {
        "gazole": 1.693,
        "sp95": 1.618
      }
    },
    {
      "id": "2567",
      "cp": "07530",
      "ville": "Sant Llorenç Des Cardassar",
      "adresse": "Carretera carret.porto Cristo-Son servera,km.5,200 km. 5,200",
      "brand": "Repsol",
      "lat": 39.5805,
      "lng": 3.361611,
      "fuels": {
        "gazole": 1.675,
        "sp95": 1.579,
        "sp98": 1.739
      }
    },
    {
      "id": "2566",
      "cp": "07530",
      "ville": "Sant Llorenç Des Cardassar",
      "adresse": "Carretera ma15 km. 54,800",
      "brand": "Repsol",
      "lat": 39.600722,
      "lng": 3.270694,
      "fuels": {
        "gazole": 1.688,
        "sp95": 1.578,
        "sp98": 1.728
      }
    },
    {
      "id": "2580",
      "cp": "07710",
      "ville": "Sant Lluis",
      "adresse": "Avenida De Sa pau, 6",
      "brand": " Bp San Luis",
      "lat": 39.852722,
      "lng": 4.259056,
      "fuels": {
        "gazole": 1.759,
        "sp95": 1.659
      }
    },
    {
      "id": "13028",
      "cp": "07710",
      "ville": "Sant Lluis",
      "adresse": "Avenida talaiot, 1",
      "brand": "Eroski",
      "lat": 39.8585,
      "lng": 4.259028,
      "fuels": {
        "gazole": 1.629,
        "sp95": 1.509
      }
    },
    {
      "id": "16266",
      "cp": "07816",
      "ville": "Sant Rafel",
      "adresse": "Avenida llauradors, 19",
      "brand": "Autonetoil",
      "lat": 38.942194,
      "lng": 1.412972,
      "fuels": {
        "gazole": 1.569,
        "sp95": 1.489
      }
    },
    {
      "id": "11781",
      "cp": "07816",
      "ville": "Sant Rafel",
      "adresse": "Calle Des llauradors, 19",
      "brand": "Bp",
      "lat": 38.94275,
      "lng": 1.41275,
      "fuels": {
        "gazole": 1.689,
        "sp95": 1.599,
        "sp98": 1.739
      }
    },
    {
      "id": "2577",
      "cp": "07816",
      "ville": "Sant Rafel",
      "adresse": "Carretera C-731 km. 7,15",
      "brand": "Repsol",
      "lat": 38.961306,
      "lng": 1.397306,
      "fuels": {
        "gazole": 1.719,
        "sp95": 1.649,
        "sp98": 1.759,
        "gplc": 1.089
      }
    },
    {
      "id": "2602",
      "cp": "07142",
      "ville": "Santa Eugenia",
      "adresse": "Carretera Vella De Sineu pmv3011 km. 15,5",
      "brand": "Shell",
      "lat": 39.612667,
      "lng": 2.834306,
      "fuels": {
        "gazole": 1.699,
        "sp95": 1.616,
        "sp98": 1.739
      }
    },
    {
      "id": "2643",
      "cp": "07840",
      "ville": "Santa Eulalia",
      "adresse": "Avenida San jaume, 30",
      "brand": "Bp Santa Eulalia - Ibiza",
      "lat": 38.983528,
      "lng": 1.531861,
      "fuels": {
        "gazole": 1.699,
        "sp95": 1.619,
        "sp98": 1.759
      }
    },
    {
      "id": "2730",
      "cp": "07840",
      "ville": "Santa Eulalia",
      "adresse": "Carretera Pm-810 km. 0,3",
      "brand": "Repsol",
      "lat": 38.987917,
      "lng": 1.538861,
      "fuels": {
        "gazole": 1.725,
        "sp95": 1.629,
        "sp98": 1.749,
        "gplc": 1.085
      }
    },
    {
      "id": "2697",
      "cp": "07840",
      "ville": "Santa Eulalia",
      "adresse": "Carretera Pm-810 km. 3,3",
      "brand": "Moeve",
      "lat": 38.984889,
      "lng": 1.495111,
      "fuels": {
        "gazole": 1.71,
        "sp95": 1.634
      }
    },
    {
      "id": "12564",
      "cp": "07840",
      "ville": "Santa Eulalia",
      "adresse": "Carretera Pm-810 km. 4,150",
      "brand": "Cooperativa Santa Eulalia",
      "lat": 38.982667,
      "lng": 1.529167,
      "fuels": {
        "gazole": 1.669
      }
    },
    {
      "id": "12388",
      "cp": "07814",
      "ville": "Santa Gertrudis",
      "adresse": "Carretera Ibiza - San Miguel km. 4,9",
      "brand": "Bp",
      "lat": 38.991556,
      "lng": 1.434167,
      "fuels": {
        "gazole": 1.719,
        "sp95": 1.63,
        "sp98": 1.779
      }
    },
    {
      "id": "2712",
      "cp": "07320",
      "ville": "Santa Maria Del Cami",
      "adresse": "Cr C-713, 13,1",
      "brand": "Repsol",
      "lat": 39.64825,
      "lng": 2.757056,
      "fuels": {
        "gazole": 1.709,
        "sp95": 1.609,
        "sp98": 1.689
      }
    },
    {
      "id": "2664",
      "cp": "07320",
      "ville": "Santa Maria Del Cami",
      "adresse": "Plaza hostals, 4",
      "brand": "Cepsa",
      "lat": 39.651694,
      "lng": 2.773861,
      "fuels": {
        "gazole": 1.719,
        "sp95": 1.639
      }
    },
    {
      "id": "13135",
      "cp": "07180",
      "ville": "Santa Ponça",
      "adresse": "Carrer m.mediterrània, 24",
      "brand": "Buga 2000",
      "lat": 39.529111,
      "lng": 2.504611,
      "fuels": {
        "sp95": 1.468
      }
    },
    {
      "id": "2680",
      "cp": "07650",
      "ville": "Santanyi",
      "adresse": "Carrer convent, 29",
      "brand": "Cepsa",
      "lat": 39.383944,
      "lng": 3.166778,
      "fuels": {
        "gazole": 1.719,
        "sp95": 1.649
      }
    },
    {
      "id": "2707",
      "cp": "07650",
      "ville": "Santanyi",
      "adresse": "Carretera C-717 km. 38",
      "brand": "Repsol",
      "lat": 39.426417,
      "lng": 3.024111,
      "fuels": {
        "gazole": 1.709,
        "sp95": 1.635,
        "sp98": 1.745
      }
    },
    {
      "id": "11945",
      "cp": "07650",
      "ville": "Santanyi",
      "adresse": "Carretera C-717 km. 53,7",
      "brand": "Repsol",
      "lat": 39.370778,
      "lng": 3.1475,
      "fuels": {
        "gazole": 1.699,
        "sp95": 1.599,
        "sp98": 1.729
      }
    },
    {
      "id": "2642",
      "cp": "07140",
      "ville": "Sencelles",
      "adresse": "Carretera Santa Maria-Sencelles km. 9,9",
      "brand": "Repsol",
      "lat": 39.645694,
      "lng": 2.878639,
      "fuels": {
        "gazole": 1.729,
        "sp95": 1.619
      }
    },
    {
      "id": "9870",
      "cp": "07510",
      "ville": "Sineu",
      "adresse": "Carretera 3301 km. 1,5",
      "brand": "Shell",
      "lat": 39.641944,
      "lng": 3.02825,
      "fuels": {
        "gazole": 1.699,
        "sp95": 1.589,
        "sp98": 1.699
      }
    },
    {
      "id": "2616",
      "cp": "07510",
      "ville": "Sineu",
      "adresse": "Carretera Pm-324 km. 11,5",
      "brand": "Repsol",
      "lat": 39.646083,
      "lng": 3.006083,
      "fuels": {
        "gazole": 1.715,
        "sp95": 1.625
      }
    },
    {
      "id": "16066",
      "cp": "07100",
      "ville": "Soller",
      "adresse": "Calle Manuel carrascosa, 10",
      "brand": "Just Fuel",
      "lat": 39.769944,
      "lng": 2.70325,
      "fuels": {
        "gazole": 1.589,
        "sp95": 1.489
      }
    },
    {
      "id": "2719",
      "cp": "07100",
      "ville": "Soller",
      "adresse": "ctra. Ma-11, 30",
      "brand": "Repsol",
      "lat": 39.765778,
      "lng": 2.708389,
      "fuels": {
        "gazole": 1.689,
        "sp95": 1.589,
        "sp98": 1.699
      }
    },
    {
      "id": "2575",
      "cp": "07560",
      "ville": "Son Moro",
      "adresse": "Calle Es carrero, 0",
      "brand": "Moeve",
      "lat": 39.59625,
      "lng": 3.382056,
      "fuels": {
        "gazole": 1.679,
        "sp95": 1.579
      }
    },
    {
      "id": "2702",
      "cp": "07198",
      "ville": "Son Sant Joan",
      "adresse": "Calle manacor, 336",
      "brand": "Repsol",
      "lat": 39.571194,
      "lng": 2.721056,
      "fuels": {
        "gazole": 1.699,
        "sp95": 1.599,
        "sp98": 1.739
      }
    },
    {
      "id": "12582",
      "cp": "07198",
      "ville": "Son Sant Joan",
      "adresse": "Cami La milana, 49",
      "brand": "Repsol Butano",
      "lat": 39.565639,
      "lng": 2.720917,
      "fuels": {
        "gplc": 1.049
      }
    },
    {
      "id": "2675",
      "cp": "07199",
      "ville": "Son Sant Joan",
      "adresse": "Carretera llucmajor, km10 km. 10",
      "brand": "Moeve",
      "lat": 39.534972,
      "lng": 2.750694,
      "fuels": {
        "gazole": 1.709,
        "sp95": 1.659
      }
    },
    {
      "id": "14144",
      "cp": "07550",
      "ville": "Son Servera",
      "adresse": "Carretera Ma-4040 km. 2,5",
      "brand": "Repsol",
      "lat": 39.643333,
      "lng": 3.373417,
      "fuels": {
        "gplc": 1.03
      }
    },
    {
      "id": "2739",
      "cp": "07550",
      "ville": "Son Servera",
      "adresse": "Carretera Son Servera km. 1,5",
      "brand": "Repsol",
      "lat": 39.614028,
      "lng": 3.370222,
      "fuels": {
        "gazole": 1.688,
        "sp95": 1.578,
        "sp98": 1.728
      }
    },
    {
      "id": "2641",
      "cp": "07170",
      "ville": "Valldemossa",
      "adresse": "Carretera De deia,s/N km. 71,110",
      "brand": "Shell",
      "lat": 39.712778,
      "lng": 2.60975,
      "fuels": {
        "gazole": 1.694,
        "sp95": 1.579,
        "sp98": 1.679
      }
    },
    {
      "id": "11560",
      "cp": "07170",
      "ville": "Valldemossa",
      "adresse": "Carretera Pm-111 km. 8,6",
      "brand": "Repsol",
      "lat": 39.643333,
      "lng": 2.648028,
      "fuels": {
        "gazole": 1.689,
        "sp95": 1.599,
        "sp98": 1.699
      }
    },
    {
      "id": "2599",
      "cp": "07250",
      "ville": "Vilafranca De Bonany",
      "adresse": "Carretera C-715 km. 42,5",
      "brand": "Cepsa",
      "lat": 39.575611,
      "lng": 3.134056,
      "fuels": {
        "gazole": 1.749,
        "sp95": 1.673,
        "e10": 1.743
      }
    }
  ]
}