{
  "code": "11",
  "name": "Cádiz",
  "regionCode": "AND",
  "regionName": "Andalucía",
  "asOf": "2026-06-29T19:04:08.838Z",
  "source": "https://sedeaplicaciones.minetur.gob.es/ServiciosRESTCarburantes/PreciosCarburantes/EstacionesTerrestres/",
  "stationCount": 287,
  "fuels": {
    "gazole": {
      "count": 287,
      "mean": 1.4938,
      "median": 1.499,
      "min": 1.351,
      "max": 1.863
    },
    "sp95": {
      "count": 283,
      "mean": 1.4426,
      "median": 1.469,
      "min": 1.268,
      "max": 1.789
    },
    "sp98": {
      "count": 117,
      "mean": 1.6198,
      "median": 1.629,
      "min": 1.379,
      "max": 1.898
    },
    "gplc": {
      "count": 26,
      "mean": 0.9997,
      "median": 1.009,
      "min": 0.949,
      "max": 1.089
    }
  },
  "stations": [
    {
      "id": "16031",
      "cp": "11180",
      "ville": "Alcala De Los Gazules",
      "adresse": "Autovia A-381 km. 42",
      "brand": "Bp Alcala De Los Gazules",
      "lat": 36.446417,
      "lng": -5.749056,
      "fuels": {
        "gazole": 1.545,
        "sp95": 1.479,
        "sp98": 1.619
      }
    },
    {
      "id": "5693",
      "cp": "11180",
      "ville": "Alcala De Los Gazules",
      "adresse": "Autovia Autovia Jerez-Los Barrios km. 45",
      "brand": "Shell",
      "lat": 36.43775,
      "lng": -5.716139,
      "fuels": {
        "gazole": 1.529,
        "sp95": 1.475,
        "sp98": 1.613
      }
    },
    {
      "id": "6707",
      "cp": "11180",
      "ville": "Alcala De Los Gazules",
      "adresse": "Avenida Puerto De levante, S/N",
      "brand": "Bp",
      "lat": 36.46,
      "lng": -5.730944,
      "fuels": {
        "gazole": 1.545,
        "sp95": 1.479
      }
    },
    {
      "id": "5777",
      "cp": "11693",
      "ville": "Alcala Del Valle",
      "adresse": "Cr Ca-455, 0,8",
      "brand": "Campsa",
      "lat": 36.894722,
      "lng": -5.163833,
      "fuels": {
        "gazole": 1.599,
        "sp95": 1.489
      }
    },
    {
      "id": "10585",
      "cp": "11639",
      "ville": "Algar",
      "adresse": "Carretera Arcos- Algar km. 16,2",
      "brand": "Clc Calidad Low Cost",
      "lat": 36.655556,
      "lng": -5.659556,
      "fuels": {
        "gazole": 1.659,
        "sp95": 1.539
      }
    },
    {
      "id": "12089",
      "cp": "11207",
      "ville": "Algeciras",
      "adresse": "Avenida 28 De febrero, S/N",
      "brand": "Bp",
      "lat": 36.11225,
      "lng": -5.454528,
      "fuels": {
        "gazole": 1.514,
        "sp95": 1.487,
        "sp98": 1.646
      }
    },
    {
      "id": "14867",
      "cp": "11206",
      "ville": "Algeciras",
      "adresse": "Avenida De La union, 21",
      "brand": "La Calle Del Motor",
      "lat": 36.113944,
      "lng": -5.470667,
      "fuels": {
        "gazole": 1.389,
        "sp95": 1.369
      }
    },
    {
      "id": "13076",
      "cp": "11201",
      "ville": "Algeciras",
      "adresse": "Avenida Del estrecho, 7",
      "brand": "Bfuel Algeciras",
      "lat": 36.159889,
      "lng": -5.465306,
      "fuels": {
        "gazole": 1.417,
        "sp95": 1.397
      }
    },
    {
      "id": "13131",
      "cp": "11207",
      "ville": "Algeciras",
      "adresse": "Avenida Gaitan Ayala (puerto Algeciras-Isla verde), S/N",
      "brand": "Moeve",
      "lat": 36.124028,
      "lng": -5.437194,
      "fuels": {
        "gazole": 1.559,
        "sp95": 1.499
      }
    },
    {
      "id": "15948",
      "cp": "11206",
      "ville": "Algeciras",
      "adresse": "Avenida Gesto Por La paz, 103",
      "brand": "Ballenoil",
      "lat": 36.11525,
      "lng": -5.453667,
      "fuels": {
        "gazole": 1.379,
        "sp95": 1.359
      }
    },
    {
      "id": "14968",
      "cp": "11207",
      "ville": "Algeciras",
      "adresse": "Avenida Gesto Por La paz, 106",
      "brand": "Plenergy",
      "lat": 36.115889,
      "lng": -5.453528,
      "fuels": {
        "gazole": 1.379,
        "sp95": 1.359
      }
    },
    {
      "id": "16327",
      "cp": "11207",
      "ville": "Algeciras",
      "adresse": "Avenida Gesto Por La paz, 7",
      "brand": "Plenergy",
      "lat": 36.124306,
      "lng": -5.449167,
      "fuels": {
        "gazole": 1.379,
        "sp95": 1.359
      }
    },
    {
      "id": "6831",
      "cp": "11201",
      "ville": "Algeciras",
      "adresse": "Avenida Virgen De europa, S/N",
      "brand": "Repsol",
      "lat": 36.133306,
      "lng": -5.452083,
      "fuels": {
        "gazole": 1.525,
        "sp95": 1.535,
        "sp98": 1.665
      }
    },
    {
      "id": "8410",
      "cp": "11204",
      "ville": "Algeciras",
      "adresse": "Avenida Virgen Del Carmen-parcela, 3",
      "brand": "Shell",
      "lat": 36.14125,
      "lng": -5.454667,
      "fuels": {
        "gazole": 1.539,
        "sp95": 1.419,
        "sp98": 1.519
      }
    },
    {
      "id": "13442",
      "cp": "11207",
      "ville": "Algeciras",
      "adresse": "Calle Paco De lucia, 2",
      "brand": "Frii",
      "lat": 36.117361,
      "lng": -5.444889,
      "fuels": {
        "gazole": 1.514,
        "sp95": 1.494,
        "gplc": 0.965
      }
    },
    {
      "id": "14988",
      "cp": "11205",
      "ville": "Algeciras",
      "adresse": "Carretera Cádiz - Málaga km. 108,5",
      "brand": "q8",
      "lat": 36.149639,
      "lng": -5.455194,
      "fuels": {
        "gazole": 1.459,
        "sp95": 1.459
      }
    },
    {
      "id": "5571",
      "cp": "11204",
      "ville": "Algeciras",
      "adresse": "Carretera Cadiz Malaga (c.c. eroski) km. 106,25",
      "brand": "Carrefour",
      "lat": 36.143056,
      "lng": -5.462389,
      "fuels": {
        "gazole": 1.499,
        "sp95": 1.489,
        "sp98": 1.639
      }
    },
    {
      "id": "6553",
      "cp": "11201",
      "ville": "Algeciras",
      "adresse": "Carretera ctra. n. 340 km. Km 107,32",
      "brand": "q8",
      "lat": 36.149833,
      "lng": -5.454278,
      "fuels": {
        "gazole": 1.479,
        "sp95": 1.479,
        "sp98": 1.599
      }
    },
    {
      "id": "6522",
      "cp": "11205",
      "ville": "Algeciras",
      "adresse": "Carretera N-340 km. 106",
      "brand": "Moeve",
      "lat": 36.147611,
      "lng": -5.454833,
      "fuels": {
        "gazole": 1.549,
        "sp95": 1.519
      }
    },
    {
      "id": "10652",
      "cp": "11206",
      "ville": "Algeciras",
      "adresse": "Carretera N-340a km. 103",
      "brand": "Repsol",
      "lat": 36.118194,
      "lng": -5.453278,
      "fuels": {
        "gazole": 1.519,
        "sp95": 1.495,
        "sp98": 1.655
      }
    },
    {
      "id": "9495",
      "cp": "11205",
      "ville": "Algeciras",
      "adresse": "Carretera N-Iv km. 107,5",
      "brand": "Bp",
      "lat": 36.151222,
      "lng": -5.455194,
      "fuels": {
        "gazole": 1.495,
        "sp95": 1.509,
        "sp98": 1.649
      }
    },
    {
      "id": "5733",
      "cp": "11207",
      "ville": "Algeciras",
      "adresse": "Paseo Victoria eugenia, S/N",
      "brand": "Repsol",
      "lat": 36.117056,
      "lng": -5.444611,
      "fuels": {
        "gazole": 1.519,
        "sp95": 1.499,
        "sp98": 1.609,
        "gplc": 1.015
      }
    },
    {
      "id": "9531",
      "cp": "11205",
      "ville": "Algeciras",
      "adresse": "Poligono El Rosario Parcela iv, S/N",
      "brand": "Eni",
      "lat": 36.145306,
      "lng": -5.449361,
      "fuels": {
        "gazole": 1.519,
        "sp95": 1.419,
        "sp98": 1.529
      }
    },
    {
      "id": "13725",
      "cp": "11205",
      "ville": "Algeciras",
      "adresse": "Terrenos Pp Menacha (s.ej.), 9",
      "brand": "Ballenoil",
      "lat": 36.162444,
      "lng": -5.463694,
      "fuels": {
        "gazole": 1.399,
        "sp95": 1.379
      }
    },
    {
      "id": "6900",
      "cp": "11680",
      "ville": "Algodonales",
      "adresse": "Carretera A-384 km. 43,500",
      "brand": "Repsol",
      "lat": 36.877639,
      "lng": -5.425833,
      "fuels": {
        "gazole": 1.585,
        "sp95": 1.495
      }
    },
    {
      "id": "11637",
      "cp": "11350",
      "ville": "Almoraima",
      "adresse": "Carretera A-369 km. 11",
      "brand": "e.s. La Almoraima",
      "lat": 36.336944,
      "lng": -5.4075,
      "fuels": {
        "gazole": 1.459,
        "sp95": 1.399,
        "sp98": 1.629
      }
    },
    {
      "id": "14264",
      "cp": "11330",
      "ville": "Angeles (los)",
      "adresse": "Avenida Los deportes, 67",
      "brand": "Jimenoil",
      "lat": 36.430194,
      "lng": -5.442361,
      "fuels": {
        "gazole": 1.479,
        "sp95": 1.429
      }
    },
    {
      "id": "5669",
      "cp": "11630",
      "ville": "Arcos De La Frontera",
      "adresse": "Avenida Ponce De león, 12",
      "brand": "Bp Oil España s.a.",
      "lat": 36.755,
      "lng": -5.820667,
      "fuels": {
        "gazole": 1.559,
        "sp95": 1.499,
        "sp98": 1.649
      }
    },
    {
      "id": "13458",
      "cp": "11630",
      "ville": "Arcos De La Frontera",
      "adresse": "Calle Cruz De Las Carreras p9-10-11, 9",
      "brand": "Ballenoil",
      "lat": 36.754889,
      "lng": -5.821278,
      "fuels": {
        "gazole": 1.435,
        "sp95": 1.379
      }
    },
    {
      "id": "5715",
      "cp": "11630",
      "ville": "Arcos De La Frontera",
      "adresse": "Carretera Arcos - El Bosque km. 3",
      "brand": "Repsol",
      "lat": 36.75175,
      "lng": -5.784444,
      "fuels": {
        "gazole": 1.585,
        "sp95": 1.499,
        "sp98": 1.609
      }
    },
    {
      "id": "9690",
      "cp": "11630",
      "ville": "Arcos De La Frontera",
      "adresse": "Carretera Arcos-Medina km. 9,200",
      "brand": "e.s. Shell La Frontera",
      "lat": 36.679056,
      "lng": -5.852389,
      "fuels": {
        "gazole": 1.569,
        "sp95": 1.479
      }
    },
    {
      "id": "14952",
      "cp": "11630",
      "ville": "Arcos De La Frontera",
      "adresse": "Carretera Ca-6104 km. 0",
      "brand": "Argomar",
      "lat": 36.73675,
      "lng": -5.790389,
      "fuels": {
        "gazole": 1.589,
        "sp95": 1.499,
        "sp98": 1.609
      }
    },
    {
      "id": "5603",
      "cp": "11630",
      "ville": "Arcos De La Frontera",
      "adresse": "Carretera crta. Nacional N-342 km. 26,8",
      "brand": "Carrefour",
      "lat": 36.747389,
      "lng": -5.82475,
      "fuels": {
        "gazole": 1.529,
        "sp95": 1.479,
        "sp98": 1.619
      }
    },
    {
      "id": "9486",
      "cp": "11630",
      "ville": "Arcos De La Frontera",
      "adresse": "N 342 Km 26.8",
      "brand": "Garrucho",
      "lat": 36.741389,
      "lng": -5.854528,
      "fuels": {
        "gazole": 1.498,
        "sp95": 1.398
      }
    },
    {
      "id": "11752",
      "cp": "11630",
      "ville": "Arcos De La Frontera",
      "adresse": "Poligono peral, S/N",
      "brand": "Es El Peral",
      "lat": 36.769667,
      "lng": -5.808833,
      "fuels": {
        "gazole": 1.479,
        "sp95": 1.419
      }
    },
    {
      "id": "14242",
      "cp": "11500",
      "ville": "Arenales (los)",
      "adresse": "Calle Albert einstein, 12",
      "brand": "Asc Carburantes",
      "lat": 36.611111,
      "lng": -6.200083,
      "fuels": {
        "gazole": 1.399,
        "sp95": 1.369
      }
    },
    {
      "id": "14439",
      "cp": "11500",
      "ville": "Arenales (los)",
      "adresse": "Calle Albert einstein, 17",
      "brand": "Petroprix",
      "lat": 36.6115,
      "lng": -6.195361,
      "fuels": {
        "gazole": 1.379,
        "sp95": 1.299
      }
    },
    {
      "id": "14872",
      "cp": "11500",
      "ville": "Arenales (los)",
      "adresse": "Poligono avda. Ingeniero Felix Sancho 19, Polígono Industrial salinas, S/N",
      "brand": "Shell",
      "lat": 36.613139,
      "lng": -6.195694,
      "fuels": {
        "gazole": 1.399,
        "sp95": 1.369
      }
    },
    {
      "id": "5785",
      "cp": "11100",
      "ville": "Arsenal De La Carraca",
      "adresse": "Calle ferrocarril, 10",
      "brand": "Repsol",
      "lat": 36.473528,
      "lng": -6.203667,
      "fuels": {
        "gazole": 1.525,
        "sp95": 1.479,
        "sp98": 1.639
      }
    },
    {
      "id": "15387",
      "cp": "11160",
      "ville": "Barbate",
      "adresse": "Calle Juan xxiii, 2",
      "brand": "Ballenoil",
      "lat": 36.195028,
      "lng": -5.915861,
      "fuels": {
        "gazole": 1.396,
        "sp95": 1.345
      }
    },
    {
      "id": "12059",
      "cp": "11160",
      "ville": "Barbate",
      "adresse": "Calle Maria Luisa (zah at), S/N",
      "brand": "Bp",
      "lat": 36.136444,
      "lng": -5.84425,
      "fuels": {
        "gazole": 1.599,
        "sp95": 1.529,
        "sp98": 1.649
      }
    },
    {
      "id": "5556",
      "cp": "11160",
      "ville": "Barbate",
      "adresse": "Carretera Ca-393 Vejer-Barbate km. 95,7",
      "brand": "Galp",
      "lat": 36.199556,
      "lng": -5.920917,
      "fuels": {
        "gazole": 1.529,
        "sp95": 1.499
      }
    },
    {
      "id": "5700",
      "cp": "11160",
      "ville": "Barbate",
      "adresse": "Plaza Reyes catolicos, 3",
      "brand": "Moeve",
      "lat": 36.195028,
      "lng": -5.917806,
      "fuels": {
        "gazole": 1.569,
        "sp95": 1.509
      }
    },
    {
      "id": "16097",
      "cp": "11160",
      "ville": "Barbate",
      "adresse": "Poligono Avenida De Los marineros, 14",
      "brand": "Galp",
      "lat": 36.203306,
      "lng": -5.927083,
      "fuels": {
        "gazole": 1.449,
        "sp95": 1.409
      }
    },
    {
      "id": "12832",
      "cp": "11160",
      "ville": "Barbate",
      "adresse": "Poligono El olivar, Parcela 5.1, 5.1",
      "brand": "Gacosur Barbate",
      "lat": 36.206667,
      "lng": -5.926944,
      "fuels": {
        "gazole": 1.407,
        "sp95": 1.344
      }
    },
    {
      "id": "12595",
      "cp": "11570",
      "ville": "Barca De La Florida (la)",
      "adresse": "Carretera Cortes (de) km. 26",
      "brand": "Cooperativa La Florida",
      "lat": 36.647972,
      "lng": -5.926306,
      "fuels": {
        "gazole": 1.419
      }
    },
    {
      "id": "6914",
      "cp": "11570",
      "ville": "Barca De La Florida (la)",
      "adresse": "Carretera De Cortes km. 18",
      "brand": "Repsol",
      "lat": 36.649556,
      "lng": -5.934444,
      "fuels": {
        "gazole": 1.519,
        "sp95": 1.489
      }
    },
    {
      "id": "16480",
      "cp": "11140",
      "ville": "Barrio Nuevo",
      "adresse": "Diseminado Carretera N-340, 17",
      "brand": "Petroprix",
      "lat": 36.339222,
      "lng": -6.093389,
      "fuels": {
        "gazole": 1.379,
        "sp95": 1.359
      }
    },
    {
      "id": "6993",
      "cp": "11370",
      "ville": "Barrios (los)",
      "adresse": "Calle Glorieta La montera, S/N",
      "brand": "Bp La Montera",
      "lat": 36.177833,
      "lng": -5.489722,
      "fuels": {
        "gazole": 1.495,
        "sp95": 1.509,
        "sp98": 1.649
      }
    },
    {
      "id": "10861",
      "cp": "11370",
      "ville": "Barrios (los)",
      "adresse": "Carretera A-381 km. 94",
      "brand": "Repsol",
      "lat": 36.2,
      "lng": -5.514944,
      "fuels": {
        "gazole": 1.545,
        "sp95": 1.529,
        "sp98": 1.639,
        "gplc": 1.029
      }
    },
    {
      "id": "5579",
      "cp": "11370",
      "ville": "Barrios (los)",
      "adresse": "Carretera Cadiz-Malaga km. 112,9",
      "brand": "Carrefour",
      "lat": 36.18175,
      "lng": -5.440889,
      "fuels": {
        "gazole": 1.499,
        "sp95": 1.449,
        "sp98": 1.619
      }
    },
    {
      "id": "5705",
      "cp": "11370",
      "ville": "Barrios (los)",
      "adresse": "Carretera N-340 km. 110,8",
      "brand": "Moeve",
      "lat": 36.176611,
      "lng": -5.451417,
      "fuels": {
        "gazole": 1.539,
        "sp95": 1.489
      }
    },
    {
      "id": "5706",
      "cp": "11370",
      "ville": "Barrios (los)",
      "adresse": "Carretera N-340 km. 110,8",
      "brand": "Moeve",
      "lat": 36.177278,
      "lng": -5.451917,
      "fuels": {
        "gazole": 1.549,
        "sp95": 1.489
      }
    },
    {
      "id": "13841",
      "cp": "11370",
      "ville": "Barrios (los)",
      "adresse": "Poligono c.c. Bahia plaza, S/N",
      "brand": "Nieves",
      "lat": 36.189944,
      "lng": -5.431222,
      "fuels": {
        "gazole": 1.459,
        "sp95": 1.359
      }
    },
    {
      "id": "12258",
      "cp": "11370",
      "ville": "Barrios (los)",
      "adresse": "Poligono Zal Bahia De Algeciras Area El fresno, ",
      "brand": "e.s. El Fresno",
      "lat": 36.171694,
      "lng": -5.4615,
      "fuels": {
        "gazole": 1.537,
        "sp95": 1.537
      }
    },
    {
      "id": "8066",
      "cp": "11190",
      "ville": "Benalup",
      "adresse": "Carretera ctra.a-2225 Km 11 km. ",
      "brand": "e.s. Santa Ana De La Janda",
      "lat": 36.348444,
      "lng": -5.816028,
      "fuels": {
        "gazole": 1.451,
        "sp95": 1.421
      }
    },
    {
      "id": "11639",
      "cp": "11190",
      "ville": "Benalup",
      "adresse": "Poligono p.i zahorí, 64",
      "brand": "e.s.benalup",
      "lat": 36.349833,
      "lng": -5.820167,
      "fuels": {
        "gazole": 1.451,
        "sp95": 1.421
      }
    },
    {
      "id": "6487",
      "cp": "11640",
      "ville": "Bornos",
      "adresse": "Carretera Jerez Cartagena A-384 km. 15,100",
      "brand": "Galp",
      "lat": 36.844056,
      "lng": -5.691667,
      "fuels": {
        "gazole": 1.479,
        "sp95": 1.399
      }
    },
    {
      "id": "13809",
      "cp": "11640",
      "ville": "Bornos",
      "adresse": "Poligono Cantarranas ind, 1",
      "brand": "e.s Ntra Sra Del Rosario",
      "lat": 36.825417,
      "lng": -5.736194,
      "fuels": {
        "gazole": 1.479,
        "sp95": 1.379
      }
    },
    {
      "id": "8929",
      "cp": "11670",
      "ville": "Bosque (el)",
      "adresse": "Carretera El Bosque-Arcos km. 0,5",
      "brand": "Galp",
      "lat": 36.75825,
      "lng": -5.512694,
      "fuels": {
        "gazole": 1.649,
        "sp95": 1.539
      }
    },
    {
      "id": "15654",
      "cp": "11390",
      "ville": "Bujeo (el)",
      "adresse": "Carretera Nacional 340 km. 94,2",
      "brand": "Asc Carburantes",
      "lat": 36.067417,
      "lng": -5.531389,
      "fuels": {
        "gazole": 1.439,
        "sp95": 1.399
      }
    },
    {
      "id": "6711",
      "cp": "11012",
      "ville": "Cadiz",
      "adresse": "Av Segunda aguada, 2  C",
      "brand": "Repsol",
      "lat": 36.512611,
      "lng": -6.276278,
      "fuels": {
        "gazole": 1.519,
        "sp95": 1.495,
        "sp98": 1.655
      }
    },
    {
      "id": "6850",
      "cp": "11011",
      "ville": "Cadiz",
      "adresse": "Avenida Alcalde Manuel De La pinta, 22",
      "brand": "Repsol",
      "lat": 36.5025,
      "lng": -6.271111,
      "fuels": {
        "gazole": 1.519,
        "sp95": 1.469,
        "sp98": 1.629
      }
    },
    {
      "id": "14306",
      "cp": "11001",
      "ville": "Cadiz",
      "adresse": "Avenida Alcalde Manuel De La pinta, 25",
      "brand": "Clc",
      "lat": 36.502139,
      "lng": -6.2705,
      "fuels": {
        "gazole": 1.489,
        "sp95": 1.449
      }
    },
    {
      "id": "11422",
      "cp": "11001",
      "ville": "Cadiz",
      "adresse": "Avenida Alcalde Sanchez cossio, 1",
      "brand": "Bp La Peñita De Cadiz",
      "lat": 36.495306,
      "lng": -6.267889,
      "fuels": {
        "gazole": 1.495,
        "sp95": 1.475,
        "sp98": 1.615,
        "gplc": 0.999
      }
    },
    {
      "id": "6799",
      "cp": "11006",
      "ville": "Cadiz",
      "adresse": "Avenida andalucia, 2",
      "brand": "Repsol",
      "lat": 36.524722,
      "lng": -6.287778,
      "fuels": {
        "gazole": 1.519,
        "sp95": 1.469,
        "sp98": 1.629
      }
    },
    {
      "id": "15165",
      "cp": "11007",
      "ville": "Cadiz",
      "adresse": "Avenida astilleros, S/N",
      "brand": "Moeve",
      "lat": 36.526361,
      "lng": -6.284361,
      "fuels": {
        "gazole": 1.539,
        "sp95": 1.469
      }
    },
    {
      "id": "13983",
      "cp": "11012",
      "ville": "Cadiz",
      "adresse": "Avenida De La ilustracion, 1",
      "brand": "Repsol",
      "lat": 36.508028,
      "lng": -6.268361,
      "fuels": {
        "gazole": 1.519,
        "sp95": 1.489,
        "sp98": 1.649,
        "gplc": 1.035
      }
    },
    {
      "id": "6870",
      "cp": "11011",
      "ville": "Cadiz",
      "adresse": "Avenida Jose Leon De carranza, 16",
      "brand": "Repsol",
      "lat": 36.498722,
      "lng": -6.27275,
      "fuels": {
        "gazole": 1.525,
        "sp95": 1.475,
        "sp98": 1.635
      }
    },
    {
      "id": "14278",
      "cp": "11001",
      "ville": "Cadiz",
      "adresse": "Calle algeciras, 4",
      "brand": "Hemegas",
      "lat": 36.498194,
      "lng": -6.267417,
      "fuels": {
        "gazole": 1.369,
        "sp95": 1.369,
        "gplc": 0.959
      }
    },
    {
      "id": "14533",
      "cp": "11001",
      "ville": "Cadiz",
      "adresse": "Calle Castellar De La frontera, 4",
      "brand": "Petrol & Go ",
      "lat": 36.500333,
      "lng": -6.270222,
      "fuels": {
        "gazole": 1.369,
        "sp95": 1.369
      }
    },
    {
      "id": "11893",
      "cp": "11011",
      "ville": "Cadiz",
      "adresse": "Calle chiclana, S/N",
      "brand": "Radiotaxi",
      "lat": 36.491472,
      "lng": -6.264139,
      "fuels": {
        "gazole": 1.399
      }
    },
    {
      "id": "14453",
      "cp": "11006",
      "ville": "Cadiz",
      "adresse": "Calle Marques De Comillas sn, Sn",
      "brand": "Suministros Mazo",
      "lat": 36.533694,
      "lng": -6.284472,
      "fuels": {
        "gazole": 1.368
      }
    },
    {
      "id": "5707",
      "cp": "11012",
      "ville": "Cadiz",
      "adresse": "Calle Puerto real, S/N -Zona Franca cadiz, S/N",
      "brand": "Cepsa",
      "lat": 36.495222,
      "lng": -6.263333,
      "fuels": {
        "gazole": 1.569,
        "sp95": 1.479
      }
    },
    {
      "id": "6895",
      "cp": "11010",
      "ville": "Cadiz",
      "adresse": "Cl Avenida Cayetano Del toro, 32",
      "brand": "Bp Cadiz",
      "lat": 36.504111,
      "lng": -6.275806,
      "fuels": {
        "gazole": 1.495,
        "sp95": 1.475,
        "sp98": 1.615
      }
    },
    {
      "id": "5679",
      "cp": "11011",
      "ville": "Cadiz",
      "adresse": "Cl Gibraltar Esq San Roque",
      "brand": "Bp",
      "lat": 36.497861,
      "lng": -6.27075,
      "fuels": {
        "gazole": 1.529,
        "sp95": 1.489,
        "sp98": 1.649
      }
    },
    {
      "id": "8411",
      "cp": "11011",
      "ville": "Cadiz",
      "adresse": "cl.gibraltar (zona franca), nº3",
      "brand": "Eni",
      "lat": 36.501167,
      "lng": -6.271028,
      "fuels": {
        "gazole": 1.479,
        "sp95": 1.449,
        "sp98": 1.569
      }
    },
    {
      "id": "6967",
      "cp": "11006",
      "ville": "Cadiz",
      "adresse": "Plaza victoria, S/N",
      "brand": "Repsol",
      "lat": 36.526639,
      "lng": -6.289389,
      "fuels": {
        "gazole": 1.519,
        "sp95": 1.469
      }
    },
    {
      "id": "14677",
      "cp": "11314",
      "ville": "Campamento",
      "adresse": "Avenida Huelva (pi), 9",
      "brand": "Bfuel Campamento",
      "lat": 36.177806,
      "lng": -5.367194,
      "fuels": {
        "gazole": 1.397,
        "sp95": 1.337,
        "gplc": 1.017
      }
    },
    {
      "id": "11526",
      "cp": "11314",
      "ville": "Campamento",
      "adresse": "Calle Real (campamento), 79",
      "brand": "Repsol",
      "lat": 36.173639,
      "lng": -5.37275,
      "fuels": {
        "gazole": 1.519,
        "sp95": 1.479,
        "sp98": 1.639
      }
    },
    {
      "id": "14938",
      "cp": "11314",
      "ville": "Campamento",
      "adresse": "Calle real, 56",
      "brand": "Petroprix",
      "lat": 36.175861,
      "lng": -5.375944,
      "fuels": {
        "gazole": 1.369,
        "sp95": 1.299
      }
    },
    {
      "id": "14057",
      "cp": "11158",
      "ville": "Cañada Ancha",
      "adresse": "Poligono Cañada ancha, 25",
      "brand": "Pistoil Vejer ",
      "lat": 36.272111,
      "lng": -5.964556,
      "fuels": {
        "gazole": 1.509,
        "sp95": 1.429
      }
    },
    {
      "id": "5692",
      "cp": "11130",
      "ville": "Chiclana De La Frontera",
      "adresse": "Alameda solano, 18 (n-340a Km 5,1)",
      "brand": "Ballenoil",
      "lat": 36.426639,
      "lng": -6.14425,
      "fuels": {
        "gazole": 1.419,
        "sp95": 1.379
      }
    },
    {
      "id": "14305",
      "cp": "11130",
      "ville": "Chiclana De La Frontera",
      "adresse": "Avenida Bahia De algeciras, 2",
      "brand": "Clc",
      "lat": 36.4035,
      "lng": -6.129944,
      "fuels": {
        "gazole": 1.499,
        "sp95": 1.439
      }
    },
    {
      "id": "5736",
      "cp": "11130",
      "ville": "Chiclana De La Frontera",
      "adresse": "Avenida De Los descubrimientos, 35",
      "brand": "Plenergy",
      "lat": 36.428583,
      "lng": -6.151306,
      "fuels": {
        "gazole": 1.419,
        "sp95": 1.379
      }
    },
    {
      "id": "13590",
      "cp": "11130",
      "ville": "Chiclana De La Frontera",
      "adresse": "Avenida De Los descubrimientos, 64",
      "brand": "Ballenoil",
      "lat": 36.428444,
      "lng": -6.151083,
      "fuels": {
        "gazole": 1.419,
        "sp95": 1.379
      }
    },
    {
      "id": "15127",
      "cp": "11130",
      "ville": "Chiclana De La Frontera",
      "adresse": "Avenida Del mueble, 56",
      "brand": "Petroprix",
      "lat": 36.435556,
      "lng": -6.143417,
      "fuels": {
        "gazole": 1.419,
        "sp95": 1.379
      }
    },
    {
      "id": "15754",
      "cp": "11130",
      "ville": "Chiclana De La Frontera",
      "adresse": "Avenida Del mueble, 8",
      "brand": "Plenergy",
      "lat": 36.432167,
      "lng": -6.143194,
      "fuels": {
        "gazole": 1.419,
        "sp95": 1.379
      }
    },
    {
      "id": "8413",
      "cp": "11130",
      "ville": "Chiclana De La Frontera",
      "adresse": "Avenida Del mueble, S/N",
      "brand": "Shell",
      "lat": 36.430444,
      "lng": -6.1425,
      "fuels": {
        "gazole": 1.499,
        "sp95": 1.459,
        "sp98": 1.559,
        "gplc": 0.969
      }
    },
    {
      "id": "12968",
      "cp": "11130",
      "ville": "Chiclana De La Frontera",
      "adresse": "Avenida Mueble del, 1",
      "brand": "Repsol",
      "lat": 36.441972,
      "lng": -6.143694,
      "fuels": {
        "gazole": 1.519,
        "sp95": 1.479,
        "sp98": 1.639
      }
    },
    {
      "id": "12941",
      "cp": "11130",
      "ville": "Chiclana De La Frontera",
      "adresse": "Avenida Mueble del, 28",
      "brand": "Petroprix Chiclana",
      "lat": 36.43925,
      "lng": -6.14375,
      "fuels": {
        "gazole": 1.419,
        "sp95": 1.379
      }
    },
    {
      "id": "6812",
      "cp": "11130",
      "ville": "Chiclana De La Frontera",
      "adresse": "Avenida Reyes catolicos, 15",
      "brand": "Repsol",
      "lat": 36.415417,
      "lng": -6.143028,
      "fuels": {
        "gazole": 1.519,
        "sp95": 1.475,
        "sp98": 1.635,
        "gplc": 1.019
      }
    },
    {
      "id": "14480",
      "cp": "11130",
      "ville": "Chiclana De La Frontera",
      "adresse": "Calle Cruz De La Calzada pelaga, S/N",
      "brand": "Galp",
      "lat": 36.407694,
      "lng": -6.130472,
      "fuels": {
        "gazole": 1.519,
        "sp95": 1.479,
        "sp98": 1.869
      }
    },
    {
      "id": "14993",
      "cp": "11130",
      "ville": "Chiclana De La Frontera",
      "adresse": "Calle Electricistas los, 1",
      "brand": "Ballenoil",
      "lat": 36.411028,
      "lng": -6.13925,
      "fuels": {
        "gazole": 1.419,
        "sp95": 1.379
      }
    },
    {
      "id": "13114",
      "cp": "11130",
      "ville": "Chiclana De La Frontera",
      "adresse": "Calle Severo ochoa, 23",
      "brand": "Clc Calidad Low Cost",
      "lat": 36.426583,
      "lng": -6.154194,
      "fuels": {
        "gazole": 1.499,
        "sp95": 1.439
      }
    },
    {
      "id": "13322",
      "cp": "11139",
      "ville": "Chiclana De La Frontera",
      "adresse": "Camino Aguila real, 22",
      "brand": "Ballenoil",
      "lat": 36.393583,
      "lng": -6.16925,
      "fuels": {
        "gazole": 1.419,
        "sp95": 1.379
      }
    },
    {
      "id": "14983",
      "cp": "11130",
      "ville": "Chiclana De La Frontera",
      "adresse": "Camino De Fuente amarga, 114",
      "brand": "q8",
      "lat": 36.3945,
      "lng": -6.147306,
      "fuels": {
        "gazole": 1.459,
        "sp95": 1.449
      }
    },
    {
      "id": "14103",
      "cp": "11130",
      "ville": "Chiclana De La Frontera",
      "adresse": "Camino Huerta piton, 1",
      "brand": "Lavaoil",
      "lat": 36.401167,
      "lng": -6.16525,
      "fuels": {
        "gazole": 1.469,
        "sp95": 1.439
      }
    },
    {
      "id": "13542",
      "cp": "11130",
      "ville": "Chiclana De La Frontera",
      "adresse": "Carretera Barrosa De La km. 1,300",
      "brand": "Repsol",
      "lat": 36.396639,
      "lng": -6.167917,
      "fuels": {
        "gazole": 1.599,
        "sp95": 1.529,
        "sp98": 1.655
      }
    },
    {
      "id": "5691",
      "cp": "11130",
      "ville": "Chiclana De La Frontera",
      "adresse": "Carretera Barrosa-Chiclana De La Frontera-Sancti Petri km. 2,5",
      "brand": "Moeve",
      "lat": 36.393556,
      "lng": -6.176694,
      "fuels": {
        "gazole": 1.579,
        "sp95": 1.529,
        "sp98": 1.609
      }
    },
    {
      "id": "12605",
      "cp": "11130",
      "ville": "Chiclana De La Frontera",
      "adresse": "Carretera Fuente Amarga km. 151",
      "brand": "Bp El Florin",
      "lat": 36.394194,
      "lng": -6.145778,
      "fuels": {
        "gazole": 1.499,
        "sp95": 1.485,
        "sp98": 1.625
      }
    },
    {
      "id": "5789",
      "cp": "11130",
      "ville": "Chiclana De La Frontera",
      "adresse": "Carretera Medina km. 0,625",
      "brand": "Repsol",
      "lat": 36.418306,
      "lng": -6.139528,
      "fuels": {
        "gazole": 1.519,
        "sp95": 1.475
      }
    },
    {
      "id": "14793",
      "cp": "11130",
      "ville": "Chiclana De La Frontera",
      "adresse": "Carretera Medina km. 1",
      "brand": "Bp",
      "lat": 36.416111,
      "lng": -6.133861,
      "fuels": {
        "gazole": 1.499,
        "sp95": 1.485,
        "sp98": 1.625
      }
    },
    {
      "id": "5677",
      "cp": "11130",
      "ville": "Chiclana De La Frontera",
      "adresse": "Carretera N-340 km. 11,375",
      "brand": "Repsol",
      "lat": 36.388583,
      "lng": -6.11925,
      "fuels": {
        "gazole": 1.525,
        "sp95": 1.475
      }
    },
    {
      "id": "16342",
      "cp": "11130",
      "ville": "Chiclana De La Frontera",
      "adresse": "Carretera Pinar De Los Franceses km. 22",
      "brand": "Axxon red, Sl",
      "lat": 36.442472,
      "lng": -6.139806,
      "fuels": {
        "gazole": 1.525,
        "sp95": 1.499
      }
    },
    {
      "id": "5762",
      "cp": "11130",
      "ville": "Chiclana De La Frontera",
      "adresse": "Cr N-340, 12,3",
      "brand": "Repsol",
      "lat": 36.381278,
      "lng": -6.115361,
      "fuels": {
        "gazole": 1.525,
        "sp95": 1.475
      }
    },
    {
      "id": "6725",
      "cp": "11130",
      "ville": "Chiclana De La Frontera",
      "adresse": "Poligono El Torno ii, S/N",
      "brand": "Bp Urbisur",
      "lat": 36.425389,
      "lng": -6.152639,
      "fuels": {
        "gazole": 1.499,
        "sp95": 1.485,
        "sp98": 1.625
      }
    },
    {
      "id": "5743",
      "cp": "11130",
      "ville": "Chiclana De La Frontera",
      "adresse": "Poligono El torno, avda. Descubrimientos esq. Alameda De solano, S/N",
      "brand": "Bp La Bahia",
      "lat": 36.429333,
      "lng": -6.143528,
      "fuels": {
        "gazole": 1.499,
        "sp95": 1.489,
        "sp98": 1.629
      }
    },
    {
      "id": "13466",
      "cp": "11130",
      "ville": "Chiclana De La Frontera",
      "adresse": "Urbanización Parcela 2 Del Sunc-Tu 24 \"camino Del Lobo 1\", 1",
      "brand": "Easyfuel",
      "lat": 36.431333,
      "lng": -6.141944,
      "fuels": {
        "gazole": 1.519,
        "sp95": 1.469,
        "sp98": 1.579
      }
    },
    {
      "id": "13666",
      "cp": "11550",
      "ville": "Chipiona",
      "adresse": "Avenida De La estacion, S/N",
      "brand": "Moeve",
      "lat": 36.736083,
      "lng": -6.422417,
      "fuels": {
        "gazole": 1.589,
        "sp95": 1.499
      }
    },
    {
      "id": "5689",
      "cp": "11550",
      "ville": "Chipiona",
      "adresse": "Avenida diputacion, 1",
      "brand": "Moeve",
      "lat": 36.738833,
      "lng": -6.43275,
      "fuels": {
        "gazole": 1.589,
        "sp95": 1.499
      }
    },
    {
      "id": "14891",
      "cp": "11550",
      "ville": "Chipiona",
      "adresse": "Avenida granada, 102",
      "brand": "Qp Chipiona",
      "lat": 36.738417,
      "lng": -6.421889,
      "fuels": {
        "gazole": 1.469,
        "sp95": 1.379
      }
    },
    {
      "id": "13826",
      "cp": "11550",
      "ville": "Chipiona",
      "adresse": "Calle constitucion, 103",
      "brand": "autonet&oil",
      "lat": 36.735806,
      "lng": -6.422611,
      "fuels": {
        "gazole": 1.459,
        "sp95": 1.369
      }
    },
    {
      "id": "5721",
      "cp": "11550",
      "ville": "Chipiona",
      "adresse": "Carretera A 480 km. 1,2",
      "brand": "Repsol",
      "lat": 36.742722,
      "lng": -6.405556,
      "fuels": {
        "gazole": 1.519,
        "sp95": 1.479,
        "sp98": 1.639
      }
    },
    {
      "id": "5708",
      "cp": "11550",
      "ville": "Chipiona",
      "adresse": "Carretera A-480 km. 24,1",
      "brand": "Moeve",
      "lat": 36.746639,
      "lng": -6.384889,
      "fuels": {
        "gazole": 1.559,
        "sp95": 1.479,
        "sp98": 1.619
      }
    },
    {
      "id": "11641",
      "cp": "11149",
      "ville": "Conil De La Frontera",
      "adresse": "Autovia a48 km. 24,400",
      "brand": "Bp",
      "lat": 36.309917,
      "lng": -6.057056,
      "fuels": {
        "gazole": 1.535,
        "sp95": 1.489,
        "sp98": 1.619
      }
    },
    {
      "id": "11642",
      "cp": "11149",
      "ville": "Conil De La Frontera",
      "adresse": "Autovia Autovia De La Luz km. 24,400",
      "brand": "Bp",
      "lat": 36.309028,
      "lng": -6.0555,
      "fuels": {
        "gazole": 1.535,
        "sp95": 1.489,
        "sp98": 1.619
      }
    },
    {
      "id": "13566",
      "cp": "11140",
      "ville": "Conil De La Frontera",
      "adresse": "Avenida De La musica, 8",
      "brand": "Petrolia",
      "lat": 36.284194,
      "lng": -6.084083,
      "fuels": {
        "gazole": 1.497,
        "sp95": 1.477
      }
    },
    {
      "id": "15298",
      "cp": "11149",
      "ville": "Conil De La Frontera",
      "adresse": "Avenida Primero De Mayo (zorrera), 9",
      "brand": "Centro De Lavado La Zorrera Sl",
      "lat": 36.291306,
      "lng": -6.069583,
      "fuels": {
        "gazole": 1.519,
        "sp95": 1.489
      }
    },
    {
      "id": "6816",
      "cp": "11140",
      "ville": "Conil De La Frontera",
      "adresse": "Calle carretera, 37",
      "brand": "Repsol",
      "lat": 36.281472,
      "lng": -6.084028,
      "fuels": {
        "gazole": 1.529,
        "sp95": 1.495,
        "sp98": 1.655
      }
    },
    {
      "id": "5774",
      "cp": "11140",
      "ville": "Conil De La Frontera",
      "adresse": "Calle Gonzalo Sanchez fuentes, 2",
      "brand": "Repsol",
      "lat": 36.281194,
      "lng": -6.089806,
      "fuels": {
        "gazole": 1.529,
        "sp95": 1.495,
        "sp98": 1.655
      }
    },
    {
      "id": "16029",
      "cp": "11149",
      "ville": "Conil De La Frontera",
      "adresse": "Carretera Cádiz - Málaga km. 17,67",
      "brand": "Ballenoil",
      "lat": 36.336167,
      "lng": -6.091944,
      "fuels": {
        "gazole": 1.379,
        "sp95": 1.359
      }
    },
    {
      "id": "15603",
      "cp": "11149",
      "ville": "Conil De La Frontera",
      "adresse": "Carretera Cadiz Malaga km. 21",
      "brand": "sca. ntra. sra. De Las Virtudes",
      "lat": 36.304528,
      "lng": -6.077444,
      "fuels": {
        "gazole": 1.37,
        "sp95": 1.34
      }
    },
    {
      "id": "6894",
      "cp": "11140",
      "ville": "Conil De La Frontera",
      "adresse": "Carretera Cadiz-Malaga km. 16,700",
      "brand": "Repsol",
      "lat": 36.339833,
      "lng": -6.093639,
      "fuels": {
        "gazole": 1.535,
        "sp95": 1.489,
        "sp98": 1.619
      }
    },
    {
      "id": "14761",
      "cp": "11149",
      "ville": "Conil De La Frontera",
      "adresse": "Carretera Cn-340, p.k. 17,300 Esquina Carril Juana Vela km. 17300",
      "brand": "Carrefour",
      "lat": 36.341028,
      "lng": -6.093833,
      "fuels": {
        "gazole": 1.489,
        "sp95": 1.449
      }
    },
    {
      "id": "14967",
      "cp": "11140",
      "ville": "Conil De La Frontera",
      "adresse": "Carretera Pradillo km. 1",
      "brand": "Plenergy",
      "lat": 36.286111,
      "lng": -6.091611,
      "fuels": {
        "gazole": 1.379,
        "sp95": 1.359
      }
    },
    {
      "id": "13931",
      "cp": "11520",
      "ville": "Costa Ballena",
      "adresse": "Urbanización La ballena, S/N",
      "brand": "Econoil",
      "lat": 36.677222,
      "lng": -6.40075,
      "fuels": {
        "gazole": 1.545,
        "sp95": 1.509
      }
    },
    {
      "id": "6662",
      "cp": "11648",
      "ville": "Espera",
      "adresse": "Cr Ca-343, 21",
      "brand": "Garrucho Espera",
      "lat": 36.868833,
      "lng": -5.806,
      "fuels": {
        "gazole": 1.498,
        "sp95": 1.398
      }
    },
    {
      "id": "5719",
      "cp": "11610",
      "ville": "Grazalema",
      "adresse": "Carretera C-344 km. 53",
      "brand": "Moeve",
      "lat": 36.760472,
      "lng": -5.367972,
      "fuels": {
        "gazole": 1.599,
        "sp95": 1.489
      }
    },
    {
      "id": "5800",
      "cp": "11591",
      "ville": "Guadalcacin Del Caudillo",
      "adresse": "Carretera Jerez - Guadalcacin km. 0",
      "brand": "Repsol",
      "lat": 36.711556,
      "lng": -6.089194,
      "fuels": {
        "gazole": 1.565,
        "sp95": 1.489
      }
    },
    {
      "id": "11242",
      "cp": "11620",
      "ville": "Jedula",
      "adresse": "Carretera Carretera Jedula/ Arcos De La fra. km. 1,1",
      "brand": "Estacion De Servicios Jedula",
      "lat": 36.725167,
      "lng": -5.929278,
      "fuels": {
        "gazole": 1.499,
        "sp95": 1.479
      }
    },
    {
      "id": "10520",
      "cp": "11408",
      "ville": "Jerez De La Frontera",
      "adresse": "A 480 Km 25,8",
      "brand": "Shell",
      "lat": 36.682111,
      "lng": -6.163639,
      "fuels": {
        "gazole": 1.449,
        "sp95": 1.369,
        "sp98": 1.489
      }
    },
    {
      "id": "8975",
      "cp": "11407",
      "ville": "Jerez De La Frontera",
      "adresse": "A- 4 Km 628.5",
      "brand": "Shell",
      "lat": 36.758528,
      "lng": -6.0715,
      "fuels": {
        "gazole": 1.569,
        "sp95": 1.499,
        "sp98": 1.599
      }
    },
    {
      "id": "11172",
      "cp": "11570",
      "ville": "Jerez De La Frontera",
      "adresse": "A-2003 Km 25,5",
      "brand": "Libre",
      "lat": 36.628164,
      "lng": -5.857505,
      "fuels": {
        "gazole": 1.66,
        "sp95": 1.58
      }
    },
    {
      "id": "6988",
      "cp": "11407",
      "ville": "Jerez De La Frontera",
      "adresse": "Ap-4 (mrg.dcho.) Km 70",
      "brand": "Bp ap4 Cuadrejon Sevilla",
      "lat": 36.7815,
      "lng": -6.044722,
      "fuels": {
        "gazole": 1.549,
        "sp95": 1.529,
        "sp98": 1.669
      }
    },
    {
      "id": "6989",
      "cp": "11407",
      "ville": "Jerez De La Frontera",
      "adresse": "Ap-4 (mrg.izdo.) Km 70",
      "brand": "Bp ap4 Cuadrejon Jerez",
      "lat": 36.78125,
      "lng": -6.043167,
      "fuels": {
        "gazole": 1.549,
        "sp95": 1.529,
        "sp98": 1.669
      }
    },
    {
      "id": "11208",
      "cp": "11406",
      "ville": "Jerez De La Frontera",
      "adresse": "Autovia A-381 km. 2,5",
      "brand": "Repsol",
      "lat": 36.634833,
      "lng": -6.074139,
      "fuels": {
        "gazole": 1.545,
        "sp95": 1.489
      }
    },
    {
      "id": "12991",
      "cp": "11408",
      "ville": "Jerez De La Frontera",
      "adresse": "Avenida Alcalde Cantos ropero, 89",
      "brand": "Econoil",
      "lat": 36.658528,
      "lng": -6.131389,
      "fuels": {
        "gazole": 1.455,
        "sp95": 1.399
      }
    },
    {
      "id": "13985",
      "cp": "11408",
      "ville": "Jerez De La Frontera",
      "adresse": "Avenida Alcalde Cantos ropero, S/N",
      "brand": "Repsol",
      "lat": 36.659917,
      "lng": -6.130444,
      "fuels": {
        "gazole": 1.549,
        "sp95": 1.479,
        "sp98": 1.639
      }
    },
    {
      "id": "14919",
      "cp": "11408",
      "ville": "Jerez De La Frontera",
      "adresse": "Avenida Alcalde Cantos ropero, S/N",
      "brand": "q8",
      "lat": 36.668167,
      "lng": -6.131722,
      "fuels": {
        "gazole": 1.459,
        "sp95": 1.399
      }
    },
    {
      "id": "5684",
      "cp": "11407",
      "ville": "Jerez De La Frontera",
      "adresse": "Avenida andalucia, 105",
      "brand": "Moeve",
      "lat": 36.704972,
      "lng": -6.11875,
      "fuels": {
        "gazole": 1.559,
        "sp95": 1.509,
        "sp98": 1.669,
        "gplc": 0.959
      }
    },
    {
      "id": "14755",
      "cp": "11407",
      "ville": "Jerez De La Frontera",
      "adresse": "Avenida andalucía, 34",
      "brand": "Repsol",
      "lat": 36.705,
      "lng": -6.117222,
      "fuels": {
        "gazole": 1.559,
        "sp95": 1.495,
        "sp98": 1.655,
        "gplc": 1.009
      }
    },
    {
      "id": "11294",
      "cp": "11406",
      "ville": "Jerez De La Frontera",
      "adresse": "Avenida Arcos C/V Calle laguna, S/N",
      "brand": "Moeve",
      "lat": 36.694278,
      "lng": -6.100917,
      "fuels": {
        "gazole": 1.559,
        "sp95": 1.459
      }
    },
    {
      "id": "6883",
      "cp": "11405",
      "ville": "Jerez De La Frontera",
      "adresse": "Avenida arcos, 59",
      "brand": "Moeve",
      "lat": 36.686444,
      "lng": -6.117833,
      "fuels": {
        "gazole": 1.559,
        "sp95": 1.459
      }
    },
    {
      "id": "6813",
      "cp": "11407",
      "ville": "Jerez De La Frontera",
      "adresse": "Avenida Duque De abrantes, S/N",
      "brand": "Repsol",
      "lat": 36.695361,
      "lng": -6.134167,
      "fuels": {
        "gazole": 1.545,
        "sp95": 1.495
      }
    },
    {
      "id": "5600",
      "cp": "11405",
      "ville": "Jerez De La Frontera",
      "adresse": "Avenida europa, S/N",
      "brand": "Ballenoil",
      "lat": 36.697972,
      "lng": -6.111694,
      "fuels": {
        "gazole": 1.369,
        "sp95": 1.299
      }
    },
    {
      "id": "11295",
      "cp": "11405",
      "ville": "Jerez De La Frontera",
      "adresse": "Avenida europa, S/N",
      "brand": "Carrefour",
      "lat": 36.696917,
      "lng": -6.113278,
      "fuels": {
        "gazole": 1.479,
        "sp95": 1.389,
        "sp98": 1.619
      }
    },
    {
      "id": "9960",
      "cp": "11405",
      "ville": "Jerez De La Frontera",
      "adresse": "Avenida Fernando portillo, S/N",
      "brand": "Ballenoil",
      "lat": 36.697444,
      "lng": -6.107,
      "fuels": {
        "gazole": 1.369,
        "sp95": 1.299
      }
    },
    {
      "id": "15837",
      "cp": "11401",
      "ville": "Jerez De La Frontera",
      "adresse": "Avenida Medina Sidonia km.1, S/N",
      "brand": "Ballenoil",
      "lat": 36.671611,
      "lng": -6.122111,
      "fuels": {
        "gazole": 1.369,
        "sp95": 1.299
      }
    },
    {
      "id": "5794",
      "cp": "11406",
      "ville": "Jerez De La Frontera",
      "adresse": "Avenida Medina sidonia, S/N",
      "brand": "Galp",
      "lat": 36.677167,
      "lng": -6.123944,
      "fuels": {
        "gazole": 1.419,
        "sp95": 1.349
      }
    },
    {
      "id": "6681",
      "cp": "11407",
      "ville": "Jerez De La Frontera",
      "adresse": "Avenida Presidente Adolfo suarez, 3",
      "brand": "Repsol",
      "lat": 36.707083,
      "lng": -6.125056,
      "fuels": {
        "gazole": 1.559,
        "sp95": 1.495
      }
    },
    {
      "id": "6682",
      "cp": "11407",
      "ville": "Jerez De La Frontera",
      "adresse": "Avenida Presidente Adolfo suarez, 4",
      "brand": "Repsol",
      "lat": 36.706694,
      "lng": -6.125028,
      "fuels": {
        "gazole": 1.559,
        "sp95": 1.495,
        "sp98": 1.655,
        "gplc": 1.015
      }
    },
    {
      "id": "5665",
      "cp": "11408",
      "ville": "Jerez De La Frontera",
      "adresse": "Avenida sanlucar, ",
      "brand": "Ballenoil",
      "lat": 36.679306,
      "lng": -6.147333,
      "fuels": {
        "gazole": 1.369,
        "sp95": 1.279
      }
    },
    {
      "id": "6927",
      "cp": "11404",
      "ville": "Jerez De La Frontera",
      "adresse": "Barriada La plata, S/N",
      "brand": "Moeve",
      "lat": 36.692972,
      "lng": -6.142833,
      "fuels": {
        "gazole": 1.539,
        "sp95": 1.449
      }
    },
    {
      "id": "13222",
      "cp": "11408",
      "ville": "Jerez De La Frontera",
      "adresse": "Calle jardineria, 1",
      "brand": "Econoil",
      "lat": 36.679611,
      "lng": -6.152889,
      "fuels": {
        "gazole": 1.459,
        "sp95": 1.391
      }
    },
    {
      "id": "6843",
      "cp": "11405",
      "ville": "Jerez De La Frontera",
      "adresse": "Calle Martin ferrador, Sn",
      "brand": "Repsol",
      "lat": 36.690056,
      "lng": -6.127417,
      "fuels": {
        "gazole": 1.539,
        "sp95": 1.489,
        "sp98": 1.649,
        "gplc": 1.015
      }
    },
    {
      "id": "12475",
      "cp": "11408",
      "ville": "Jerez De La Frontera",
      "adresse": "Calle Ronda Aurora boreal, 3",
      "brand": "Alcampo",
      "lat": 36.694972,
      "lng": -6.157806,
      "fuels": {
        "gazole": 1.351,
        "sp95": 1.268,
        "sp98": 1.389
      }
    },
    {
      "id": "12954",
      "cp": "11408",
      "ville": "Jerez De La Frontera",
      "adresse": "Calle sudafrica, 134",
      "brand": "Gacosur Jerez",
      "lat": 36.651778,
      "lng": -6.134333,
      "fuels": {
        "gazole": 1.439,
        "sp95": 1.379,
        "sp98": 1.559,
        "gplc": 1.089
      }
    },
    {
      "id": "11542",
      "cp": "11400",
      "ville": "Jerez De La Frontera",
      "adresse": "Carretera A-381 km. 17",
      "brand": "Galp",
      "lat": 36.524694,
      "lng": -5.981694,
      "fuels": {
        "gazole": 1.539,
        "sp95": 1.489
      }
    },
    {
      "id": "11326",
      "cp": "11408",
      "ville": "Jerez De La Frontera",
      "adresse": "Carretera Antigua N-Iv km. 639,5",
      "brand": "Galp",
      "lat": 36.68775,
      "lng": -6.15475,
      "fuels": {
        "gazole": 1.459,
        "sp95": 1.369,
        "sp98": 1.509
      }
    },
    {
      "id": "6699",
      "cp": "11406",
      "ville": "Jerez De La Frontera",
      "adresse": "Carretera C-440 km. 2",
      "brand": "Repsol",
      "lat": 36.671111,
      "lng": -6.121944,
      "fuels": {
        "gazole": 1.545,
        "sp95": 1.489,
        "sp98": 1.649
      }
    },
    {
      "id": "12099",
      "cp": "11408",
      "ville": "Jerez De La Frontera",
      "adresse": "Carretera Calvario (el) km. S/N",
      "brand": "Shell",
      "lat": 36.698722,
      "lng": -6.16275,
      "fuels": {
        "gazole": 1.489,
        "sp95": 1.404,
        "sp98": 1.504,
        "gplc": 0.969
      }
    },
    {
      "id": "9896",
      "cp": "11408",
      "ville": "Jerez De La Frontera",
      "adresse": "Carretera Circunvalacion km. 639,8",
      "brand": "Shell",
      "lat": 36.684333,
      "lng": -6.153028,
      "fuels": {
        "gazole": 1.479,
        "sp95": 1.399,
        "sp98": 1.559
      }
    },
    {
      "id": "15839",
      "cp": "11404",
      "ville": "Jerez De La Frontera",
      "adresse": "Carretera Circunvalacion km. S/N",
      "brand": "Plenergy",
      "lat": 36.696806,
      "lng": -6.150278,
      "fuels": {
        "gazole": 1.369,
        "sp95": 1.279
      }
    },
    {
      "id": "14496",
      "cp": "11407",
      "ville": "Jerez De La Frontera",
      "adresse": "Carretera De Lebrija km. 6",
      "brand": "Ballenoil",
      "lat": 36.712472,
      "lng": -6.126889,
      "fuels": {
        "gazole": 1.369,
        "sp95": 1.279
      }
    },
    {
      "id": "16083",
      "cp": "11407",
      "ville": "Jerez De La Frontera",
      "adresse": "Carretera De Lebrija km. 6",
      "brand": "Seroil Energy ",
      "lat": 36.711444,
      "lng": -6.127472,
      "fuels": {
        "gazole": 1.369,
        "sp95": 1.279
      }
    },
    {
      "id": "13207",
      "cp": "11407",
      "ville": "Jerez De La Frontera",
      "adresse": "Carretera Madrid Cadiz km. 15",
      "brand": "Petroprix",
      "lat": 36.708028,
      "lng": -6.114778,
      "fuels": {
        "gazole": 1.369,
        "sp95": 1.279
      }
    },
    {
      "id": "6893",
      "cp": "11405",
      "ville": "Jerez De La Frontera",
      "adresse": "Carretera N-342 km. 4",
      "brand": "Repsol",
      "lat": 36.697028,
      "lng": -6.096778,
      "fuels": {
        "gazole": 1.539,
        "sp95": 1.495,
        "sp98": 1.655
      }
    },
    {
      "id": "5686",
      "cp": "11407",
      "ville": "Jerez De La Frontera",
      "adresse": "Carretera N-Iv km. 632",
      "brand": "Moeve",
      "lat": 36.726972,
      "lng": -6.095194,
      "fuels": {
        "gazole": 1.579,
        "sp95": 1.569,
        "sp98": 1.699
      }
    },
    {
      "id": "5599",
      "cp": "11407",
      "ville": "Jerez De La Frontera",
      "adresse": "Carretera Nacional Iv ,km 641 (pta Del sur) km. 641",
      "brand": "Carrefour",
      "lat": 36.673417,
      "lng": -6.151306,
      "fuels": {
        "gazole": 1.479,
        "sp95": 1.389,
        "sp98": 1.619
      }
    },
    {
      "id": "10862",
      "cp": "11405",
      "ville": "Jerez De La Frontera",
      "adresse": "Cl Barrio Caulina -(crta Acceso N-4",
      "brand": "Repsol",
      "lat": 36.701556,
      "lng": -6.092056,
      "fuels": {
        "gazole": 1.545,
        "sp95": 1.499,
        "sp98": 1.609
      }
    },
    {
      "id": "6665",
      "cp": "11406",
      "ville": "Jerez De La Frontera",
      "adresse": "Cl Paseo De Las delicias, 1",
      "brand": "Repsol",
      "lat": 36.681028,
      "lng": -6.125417,
      "fuels": {
        "gazole": 1.539,
        "sp95": 1.499,
        "sp98": 1.659
      }
    },
    {
      "id": "5555",
      "cp": "11406",
      "ville": "Jerez De La Frontera",
      "adresse": "Nueva Ronda este. gta.barriada Nueva",
      "brand": "Bp",
      "lat": 36.673722,
      "lng": -6.110222,
      "fuels": {
        "gazole": 1.539,
        "sp95": 1.499,
        "sp98": 1.599
      }
    },
    {
      "id": "6991",
      "cp": "11408",
      "ville": "Jerez De La Frontera",
      "adresse": "Poligono Sur Manzana 23 Ue-2h, 1",
      "brand": "Tamoil",
      "lat": 36.670222,
      "lng": -6.145167,
      "fuels": {
        "gazole": 1.399,
        "sp95": 1.299,
        "sp98": 1.399
      }
    },
    {
      "id": "6721",
      "cp": "11408",
      "ville": "Jerez De La Frontera",
      "adresse": "Rotonda Cuatro caminos, S/N",
      "brand": "Repsol",
      "lat": 36.677889,
      "lng": -6.144944,
      "fuels": {
        "gazole": 1.549,
        "sp95": 1.489,
        "sp98": 1.649
      }
    },
    {
      "id": "5694",
      "cp": "11330",
      "ville": "Jimena De La Frontera",
      "adresse": "Calle Los angeles, 13",
      "brand": "Cepsa",
      "lat": 36.421278,
      "lng": -5.435833,
      "fuels": {
        "gazole": 1.549,
        "sp95": 1.499,
        "sp98": 1.629
      }
    },
    {
      "id": "5608",
      "cp": "11300",
      "ville": "Linea La Concepcion (la)",
      "adresse": "avda.de Las industrias, 40",
      "brand": "e.s.campo De Gibraltar",
      "lat": 36.174667,
      "lng": -5.361167,
      "fuels": {
        "gazole": 1.429,
        "sp95": 1.359
      }
    },
    {
      "id": "5576",
      "cp": "11300",
      "ville": "Linea La Concepcion (la)",
      "adresse": "Avenida avda. De La colonia, 9",
      "brand": "Carrefour",
      "lat": 36.17425,
      "lng": -5.362028,
      "fuels": {
        "gazole": 1.479,
        "sp95": 1.439,
        "sp98": 1.609
      }
    },
    {
      "id": "13170",
      "cp": "11300",
      "ville": "Linea La Concepcion (la)",
      "adresse": "Avenida De Cartagena esq. Camino torrenueva, S/N",
      "brand": "Bp",
      "lat": 36.176833,
      "lng": -5.338889,
      "fuels": {
        "gazole": 1.589,
        "sp95": 1.509,
        "sp98": 1.649
      }
    },
    {
      "id": "10103",
      "cp": "11300",
      "ville": "Linea La Concepcion (la)",
      "adresse": "Avenida Ronda norte, 2",
      "brand": "Shell",
      "lat": 36.177111,
      "lng": -5.349111,
      "fuels": {
        "gazole": 1.389,
        "sp95": 1.319,
        "sp98": 1.439
      }
    },
    {
      "id": "14970",
      "cp": "11300",
      "ville": "Linea La Concepcion (la)",
      "adresse": "Calle perdiz, 1",
      "brand": "Plenergy",
      "lat": 36.189639,
      "lng": -5.348944,
      "fuels": {
        "gazole": 1.369,
        "sp95": 1.299
      }
    },
    {
      "id": "12650",
      "cp": "11300",
      "ville": "Linea La Concepcion (la)",
      "adresse": "Carretera A-383 km. 4,7",
      "brand": "Repsol",
      "lat": 36.199194,
      "lng": -5.34575,
      "fuels": {
        "gazole": 1.519,
        "sp95": 1.475,
        "sp98": 1.635
      }
    },
    {
      "id": "9884",
      "cp": "11300",
      "ville": "Linea La Concepcion (la)",
      "adresse": "Carretera Carretera Comarcal 233 km. 5,8",
      "brand": "Es Coloso",
      "lat": 36.191222,
      "lng": -5.348278,
      "fuels": {
        "gazole": 1.399,
        "sp95": 1.329,
        "sp98": 1.379
      }
    },
    {
      "id": "5699",
      "cp": "11300",
      "ville": "Linea La Concepcion (la)",
      "adresse": "Poligono Zabal bajo, 6,3",
      "brand": "Cepsa",
      "lat": 36.186639,
      "lng": -5.349861,
      "fuels": {
        "gazole": 1.499,
        "sp95": 1.489
      }
    },
    {
      "id": "12653",
      "cp": "11170",
      "ville": "Medina-Sidonia",
      "adresse": "Avenida Prado De La feria, 6",
      "brand": "Galp",
      "lat": 36.470667,
      "lng": -5.945861,
      "fuels": {
        "gazole": 1.569,
        "sp95": 1.509
      }
    },
    {
      "id": "15868",
      "cp": "11170",
      "ville": "Medina-Sidonia",
      "adresse": "Calle europa, S/N",
      "brand": "Galp",
      "lat": 36.47125,
      "lng": -5.948167,
      "fuels": {
        "gazole": 1.489,
        "sp95": 1.399
      }
    },
    {
      "id": "6896",
      "cp": "11170",
      "ville": "Medina-Sidonia",
      "adresse": "Carretera Cr-440,32c-440 km. 32",
      "brand": "Repsol",
      "lat": 36.479472,
      "lng": -5.915833,
      "fuels": {
        "gazole": 1.559,
        "sp95": 1.479,
        "sp98": 1.639
      }
    },
    {
      "id": "5710",
      "cp": "11170",
      "ville": "Medina-Sidonia",
      "adresse": "Plaza Del punto, 000",
      "brand": "Cepsa",
      "lat": 36.460806,
      "lng": -5.929278,
      "fuels": {
        "gazole": 1.569,
        "sp95": 1.509
      }
    },
    {
      "id": "9861",
      "cp": "11592",
      "ville": "Nueva Jarilla",
      "adresse": "Calle Ronda Del trobal, S/N",
      "brand": "Cnj",
      "lat": 36.757333,
      "lng": -6.030278,
      "fuels": {
        "gazole": 1.565
      }
    },
    {
      "id": "6912",
      "cp": "11690",
      "ville": "Olvera",
      "adresse": "Avenida Julian besteiro, 41",
      "brand": "Repsol",
      "lat": 36.934167,
      "lng": -5.254694,
      "fuels": {
        "gazole": 1.863,
        "sp95": 1.789,
        "sp98": 1.898
      }
    },
    {
      "id": "14248",
      "cp": "11690",
      "ville": "Olvera",
      "adresse": "Calle lavandera, 2",
      "brand": "Hemegas",
      "lat": 36.933639,
      "lng": -5.246111,
      "fuels": {
        "gazole": 1.529,
        "sp95": 1.449,
        "gplc": 0.959
      }
    },
    {
      "id": "5672",
      "cp": "11159",
      "ville": "Palmar El",
      "adresse": "Carretera A-2230 km. 7,1",
      "brand": "Bp",
      "lat": 36.222139,
      "lng": -6.041167,
      "fuels": {
        "gazole": 1.529,
        "sp95": 1.519,
        "gplc": 1.049
      }
    },
    {
      "id": "14994",
      "cp": "11379",
      "ville": "Palmones",
      "adresse": "Carretera Central Térmica km. 2",
      "brand": "Plenergy",
      "lat": 36.180694,
      "lng": -5.439083,
      "fuels": {
        "gazole": 1.399,
        "sp95": 1.339
      }
    },
    {
      "id": "13661",
      "cp": "11379",
      "ville": "Palmones",
      "adresse": "Poligono p.i.marismas De Palmones C/ Mar Cantabrico Parcela It 2.12, 2,12",
      "brand": "Gafisur Palmones",
      "lat": 36.184806,
      "lng": -5.430028,
      "fuels": {
        "gazole": 1.459,
        "sp95": 1.359
      }
    },
    {
      "id": "5772",
      "cp": "11178",
      "ville": "Paterna De Rivera",
      "adresse": "Avenida andalucia, 97",
      "brand": "Repsol",
      "lat": 36.520167,
      "lng": -5.861222,
      "fuels": {
        "gazole": 1.559,
        "sp95": 1.519
      }
    },
    {
      "id": "6890",
      "cp": "11660",
      "ville": "Prado Del Rey",
      "adresse": "Avenida Felix Rodriguez De La fuente, S/N",
      "brand": "Bp",
      "lat": 36.7845,
      "lng": -5.558778,
      "fuels": {
        "gazole": 1.619,
        "sp95": 1.579
      }
    },
    {
      "id": "9484",
      "cp": "11500",
      "ville": "Puerto De Santa Maria (el)",
      "adresse": "Avenida menesteo, Sn",
      "brand": "Petro Grado",
      "lat": 36.588889,
      "lng": -6.234444,
      "fuels": {
        "gazole": 1.399,
        "sp95": 1.379
      }
    },
    {
      "id": "6847",
      "cp": "11500",
      "ville": "Puerto De Santa Maria (el)",
      "adresse": "Avenida Rafael alberti, S/N",
      "brand": "Bp La Victoria",
      "lat": 36.609083,
      "lng": -6.216556,
      "fuels": {
        "gazole": 1.509,
        "sp95": 1.515,
        "sp98": 1.655
      }
    },
    {
      "id": "5671",
      "cp": "11500",
      "ville": "Puerto De Santa Maria (el)",
      "adresse": "C/ Luis m. fernández, S/N Km Centro Comercial M",
      "brand": "Shell",
      "lat": 36.586667,
      "lng": -6.219306,
      "fuels": {
        "gazole": 1.399,
        "sp95": 1.329
      }
    },
    {
      "id": "13567",
      "cp": "11500",
      "ville": "Puerto De Santa Maria (el)",
      "adresse": "Calle Albert einstein, 16",
      "brand": "Bp Las Salinas",
      "lat": 36.611306,
      "lng": -6.196417,
      "fuels": {
        "gazole": 1.509,
        "sp95": 1.515,
        "sp98": 1.655
      }
    },
    {
      "id": "13605",
      "cp": "11500",
      "ville": "Puerto De Santa Maria (el)",
      "adresse": "Calle Alfred nobel, 9",
      "brand": "Clc Calidad Low Cost",
      "lat": 36.606778,
      "lng": -6.200583,
      "fuels": {
        "gazole": 1.499,
        "sp95": 1.439
      }
    },
    {
      "id": "14299",
      "cp": "11500",
      "ville": "Puerto De Santa Maria (el)",
      "adresse": "Calle El palmar, 3",
      "brand": "q8easy",
      "lat": 36.615306,
      "lng": -6.210694,
      "fuels": {
        "gazole": 1.469,
        "sp95": 1.419
      }
    },
    {
      "id": "14438",
      "cp": "11500",
      "ville": "Puerto De Santa Maria (el)",
      "adresse": "Calle Rio guadarranque, 1",
      "brand": "Petroprix",
      "lat": 36.596722,
      "lng": -6.220694,
      "fuels": {
        "gazole": 1.379,
        "sp95": 1.299
      }
    },
    {
      "id": "14907",
      "cp": "11500",
      "ville": "Puerto De Santa Maria (el)",
      "adresse": "Calle Rio tajo, 2",
      "brand": "Petrol & Go Puerto De Santa Maria ",
      "lat": 36.612611,
      "lng": -6.213389,
      "fuels": {
        "gazole": 1.395,
        "sp95": 1.299
      }
    },
    {
      "id": "14753",
      "cp": "11500",
      "ville": "Puerto De Santa Maria (el)",
      "adresse": "Carrer El palmar, 11",
      "brand": "Gm Oil ",
      "lat": 36.61675,
      "lng": -6.209556,
      "fuels": {
        "gazole": 1.379,
        "sp95": 1.299
      }
    },
    {
      "id": "9260",
      "cp": "11500",
      "ville": "Puerto De Santa Maria (el)",
      "adresse": "Carretera 602 km. 2,05",
      "brand": "Eni",
      "lat": 36.608361,
      "lng": -6.236,
      "fuels": {
        "gazole": 1.489,
        "sp95": 1.495,
        "sp98": 1.655
      }
    },
    {
      "id": "5659",
      "cp": "11500",
      "ville": "Puerto De Santa Maria (el)",
      "adresse": "Carretera A-2001 km. 5",
      "brand": "Repsol",
      "lat": 36.642444,
      "lng": -6.260139,
      "fuels": {
        "gazole": 1.525,
        "sp95": 1.529,
        "sp98": 1.629
      }
    },
    {
      "id": "8007",
      "cp": "11500",
      "ville": "Puerto De Santa Maria (el)",
      "adresse": "Carretera Cr Ca-603 km. 4,2",
      "brand": "Sp",
      "lat": 36.608889,
      "lng": -6.277861,
      "fuels": {
        "gazole": 1.499,
        "sp95": 1.489,
        "sp98": 1.619
      }
    },
    {
      "id": "8006",
      "cp": "11500",
      "ville": "Puerto De Santa Maria (el)",
      "adresse": "Carretera Cr Ca-603 km. 4,350",
      "brand": "Sp",
      "lat": 36.609806,
      "lng": -6.278444,
      "fuels": {
        "gazole": 1.499,
        "sp95": 1.489
      }
    },
    {
      "id": "5578",
      "cp": "11500",
      "ville": "Puerto De Santa Maria (el)",
      "adresse": "Carretera Madrid Cadiz km. 653",
      "brand": "Carrefour",
      "lat": 36.615083,
      "lng": -6.212056,
      "fuels": {
        "gazole": 1.479,
        "sp95": 1.389,
        "sp98": 1.629
      }
    },
    {
      "id": "6439",
      "cp": "11500",
      "ville": "Puerto De Santa Maria (el)",
      "adresse": "Carretera N-Iv km. 653,2",
      "brand": "Ballenoil",
      "lat": 36.591667,
      "lng": -6.2235,
      "fuels": {
        "gazole": 1.379,
        "sp95": 1.299
      }
    },
    {
      "id": "6992",
      "cp": "11500",
      "ville": "Puerto De Santa Maria (el)",
      "adresse": "Carretera N-Iva km. 654",
      "brand": "Moeve",
      "lat": 36.593694,
      "lng": -6.222861,
      "fuels": {
        "gazole": 1.559,
        "sp95": 1.459
      }
    },
    {
      "id": "8021",
      "cp": "11500",
      "ville": "Puerto De Santa Maria (el)",
      "adresse": "Carretera Nacional iv, Muelle Pesquero km. 654",
      "brand": "e.s. La Lonja",
      "lat": 36.594667,
      "lng": -6.223861,
      "fuels": {
        "gazole": 1.459,
        "sp95": 1.409,
        "gplc": 1.019
      }
    },
    {
      "id": "6807",
      "cp": "11500",
      "ville": "Puerto De Santa Maria (el)",
      "adresse": "Carretera P-603 m.d. km. 1",
      "brand": "Repsol",
      "lat": 36.599583,
      "lng": -6.240222,
      "fuels": {
        "gazole": 1.525,
        "sp95": 1.519,
        "sp98": 1.629,
        "gplc": 1.039
      }
    },
    {
      "id": "6808",
      "cp": "11500",
      "ville": "Puerto De Santa Maria (el)",
      "adresse": "Cr  P-603 ,p.k. 1  m.i.",
      "brand": "Repsol",
      "lat": 36.598972,
      "lng": -6.240389,
      "fuels": {
        "gazole": 1.525,
        "sp95": 1.519,
        "sp98": 1.629
      }
    },
    {
      "id": "5792",
      "cp": "11500",
      "ville": "Puerto De Santa Maria (el)",
      "adresse": "Cr N-iv, km.  649.8",
      "brand": "Bp Puerto sta. Maria",
      "lat": 36.609,
      "lng": -6.216556,
      "fuels": {
        "gazole": 1.509,
        "sp95": 1.515,
        "sp98": 1.655
      }
    },
    {
      "id": "11265",
      "cp": "11500",
      "ville": "Puerto De Santa Maria (el)",
      "adresse": "p.ind.polig. ind. La Isleta S/N N-iv, Km 654,7",
      "brand": "Shell",
      "lat": 36.583889,
      "lng": -6.216972,
      "fuels": {
        "gazole": 1.549,
        "sp95": 1.449,
        "sp98": 1.549
      }
    },
    {
      "id": "11478",
      "cp": "11510",
      "ville": "Puerto Real",
      "adresse": "Avenida Mojarra De la, 5",
      "brand": "e.s. Tres Caminos",
      "lat": 36.470889,
      "lng": -6.174611,
      "fuels": {
        "gazole": 1.399,
        "sp95": 1.349
      }
    },
    {
      "id": "13511",
      "cp": "11510",
      "ville": "Puerto Real",
      "adresse": "Avenida mojarra, 16",
      "brand": "Petrol & Go (tres caminos)",
      "lat": 36.469417,
      "lng": -6.173583,
      "fuels": {
        "gazole": 1.399,
        "sp95": 1.349
      }
    },
    {
      "id": "12223",
      "cp": "11510",
      "ville": "Puerto Real",
      "adresse": "Avenida Peru (rio S pedro), 0",
      "brand": "Galp",
      "lat": 36.524111,
      "lng": -6.236889,
      "fuels": {
        "gazole": 1.429,
        "sp95": 1.349
      }
    },
    {
      "id": "6984",
      "cp": "11510",
      "ville": "Puerto Real",
      "adresse": "Calle Poligono El trocadero, 51",
      "brand": "Bp",
      "lat": 36.522667,
      "lng": -6.212139,
      "fuels": {
        "gazole": 1.495,
        "sp95": 1.475
      }
    },
    {
      "id": "5690",
      "cp": "11510",
      "ville": "Puerto Real",
      "adresse": "Calle Teresa De calcuta, S/N",
      "brand": "Cepsa",
      "lat": 36.531111,
      "lng": -6.193028,
      "fuels": {
        "gazole": 1.559,
        "sp95": 1.459
      }
    },
    {
      "id": "6840",
      "cp": "11510",
      "ville": "Puerto Real",
      "adresse": "Carretera N 4 km. 668,6",
      "brand": "Repsol",
      "lat": 36.488667,
      "lng": -6.143333,
      "fuels": {
        "gazole": 1.535,
        "sp95": 1.489
      }
    },
    {
      "id": "8017",
      "cp": "11510",
      "ville": "Puerto Real",
      "adresse": "ctra. Puerto Real A medina, Km 3",
      "brand": "b.p.",
      "lat": 36.526083,
      "lng": -6.147111,
      "fuels": {
        "gazole": 1.506,
        "sp95": 1.485,
        "sp98": 1.625
      }
    },
    {
      "id": "7079",
      "cp": "11659",
      "ville": "Puerto Serrano",
      "adresse": "Carretera Sevilla-Ronda A-375 km. 38,500",
      "brand": "Meroil",
      "lat": 36.913861,
      "lng": -5.554528,
      "fuels": {
        "gazole": 1.468,
        "sp95": 1.379
      }
    },
    {
      "id": "16332",
      "cp": "11519",
      "ville": "Rio San Pedro",
      "adresse": "Avenida Del Perú ,p.i. Rio San pedro, 1",
      "brand": "Ballenoil",
      "lat": 36.523306,
      "lng": -6.236028,
      "fuels": {
        "gazole": 1.379,
        "sp95": 1.299
      }
    },
    {
      "id": "13916",
      "cp": "11520",
      "ville": "Rota",
      "adresse": "Avenida Centenario De La aviación, 1",
      "brand": "Bp Rota",
      "lat": 36.636056,
      "lng": -6.370889,
      "fuels": {
        "gazole": 1.545,
        "sp95": 1.529,
        "sp98": 1.669
      }
    },
    {
      "id": "13533",
      "cp": "11520",
      "ville": "Rota",
      "adresse": "Avenida libertad, 26",
      "brand": "Ballenoil",
      "lat": 36.63275,
      "lng": -6.36725,
      "fuels": {
        "gazole": 1.465,
        "sp95": 1.435
      }
    },
    {
      "id": "6842",
      "cp": "11520",
      "ville": "Rota",
      "adresse": "Avenida libertad, S/N",
      "brand": "Repsol",
      "lat": 36.632,
      "lng": -6.366556,
      "fuels": {
        "gazole": 1.565,
        "sp95": 1.535,
        "sp98": 1.655
      }
    },
    {
      "id": "5709",
      "cp": "11520",
      "ville": "Rota",
      "adresse": "Avenida Maria auxiliadora, 35",
      "brand": "Ballenoil",
      "lat": 36.622472,
      "lng": -6.362639,
      "fuels": {
        "gazole": 1.465,
        "sp95": 1.435
      }
    },
    {
      "id": "12318",
      "cp": "11520",
      "ville": "Rota",
      "adresse": "Avenida Punta candor, 2",
      "brand": "Cepsa",
      "lat": 36.634917,
      "lng": -6.3905,
      "fuels": {
        "gazole": 1.589,
        "sp95": 1.509
      }
    },
    {
      "id": "9680",
      "cp": "11520",
      "ville": "Rota",
      "adresse": "Carretera A-491 km. 11,200",
      "brand": "Las Marismas De Rota (l.m.r.)",
      "lat": 36.660833,
      "lng": -6.353528,
      "fuels": {
        "gazole": 1.529,
        "sp95": 1.489,
        "sp98": 1.599,
        "gplc": 1.069
      }
    },
    {
      "id": "5698",
      "cp": "11312",
      "ville": "San Enrique",
      "adresse": "N-340 Km 134",
      "brand": "Cepsa",
      "lat": 36.296667,
      "lng": -5.281778,
      "fuels": {
        "gazole": 1.569,
        "sp95": 1.509,
        "sp98": 1.619
      }
    },
    {
      "id": "5688",
      "cp": "11100",
      "ville": "San Fernando",
      "adresse": "avda. Puente zuazo, S/N (n-Iva Km 677)",
      "brand": "Moeve",
      "lat": 36.468639,
      "lng": -6.189139,
      "fuels": {
        "gazole": 1.559,
        "sp95": 1.499,
        "gplc": 0.959
      }
    },
    {
      "id": "5668",
      "cp": "11100",
      "ville": "San Fernando",
      "adresse": "Avenida Peri Junquera S/n, Sn",
      "brand": "Bp San Fernando",
      "lat": 36.471806,
      "lng": -6.203194,
      "fuels": {
        "gazole": 1.495,
        "sp95": 1.475,
        "sp98": 1.615
      }
    },
    {
      "id": "14910",
      "cp": "11100",
      "ville": "San Fernando",
      "adresse": "Calle Ferrocarril 39 b, 39",
      "brand": "Carrefour",
      "lat": 36.470583,
      "lng": -6.205611,
      "fuels": {
        "gazole": 1.479,
        "sp95": 1.439,
        "sp98": 1.609
      }
    },
    {
      "id": "14481",
      "cp": "11100",
      "ville": "San Fernando",
      "adresse": "Calle ferrocarril, 1",
      "brand": "Ballenoil",
      "lat": 36.474139,
      "lng": -6.201778,
      "fuels": {
        "gazole": 1.399,
        "sp95": 1.349
      }
    },
    {
      "id": "15555",
      "cp": "11100",
      "ville": "San Fernando",
      "adresse": "Calle ferrocarril, S/N",
      "brand": "Plenergy",
      "lat": 36.475194,
      "lng": -6.201278,
      "fuels": {
        "gazole": 1.399,
        "sp95": 1.349
      }
    },
    {
      "id": "13108",
      "cp": "11100",
      "ville": "San Fernando",
      "adresse": "Calle mecanicos, 10",
      "brand": "Petroprix s. Fernando",
      "lat": 36.474361,
      "lng": -6.204056,
      "fuels": {
        "gazole": 1.399,
        "sp95": 1.349
      }
    },
    {
      "id": "6750",
      "cp": "11100",
      "ville": "San Fernando",
      "adresse": "Calle real, 228",
      "brand": "Eni",
      "lat": 36.456583,
      "lng": -6.208361,
      "fuels": {
        "gazole": 1.495,
        "sp95": 1.449,
        "sp98": 1.589
      }
    },
    {
      "id": "12868",
      "cp": "11100",
      "ville": "San Fernando",
      "adresse": "Calle remachadores, 2",
      "brand": "Ballenoil",
      "lat": 36.471278,
      "lng": -6.206056,
      "fuels": {
        "gazole": 1.399,
        "sp95": 1.349
      }
    },
    {
      "id": "15923",
      "cp": "11100",
      "ville": "San Fernando",
      "adresse": "Carretera De La Bateria De La Ardila km. S/N",
      "brand": "Plenergy",
      "lat": 36.453667,
      "lng": -6.217528,
      "fuels": {
        "gazole": 1.399,
        "sp95": 1.349
      }
    },
    {
      "id": "5683",
      "cp": "11100",
      "ville": "San Fernando",
      "adresse": "Carretera N-Iva km. 680",
      "brand": "Ballenoil",
      "lat": 36.456361,
      "lng": -6.218722,
      "fuels": {
        "gazole": 1.399,
        "sp95": 1.349
      }
    },
    {
      "id": "5673",
      "cp": "11100",
      "ville": "San Fernando",
      "adresse": "Cl Ferrocarril  34",
      "brand": "Ballenoil",
      "lat": 36.470861,
      "lng": -6.205833,
      "fuels": {
        "gazole": 1.399,
        "sp95": 1.349
      }
    },
    {
      "id": "10580",
      "cp": "11580",
      "ville": "San Jose Del Valle",
      "adresse": "Carretera Jerez-Cortes km. 32,7",
      "brand": "Galp",
      "lat": 36.612667,
      "lng": -5.810028,
      "fuels": {
        "gazole": 1.459,
        "sp95": 1.439
      }
    },
    {
      "id": "5761",
      "cp": "11320",
      "ville": "San Pablo De Buceite",
      "adresse": "Carretera C-341 km. 112,7",
      "brand": "Repsol",
      "lat": 36.464167,
      "lng": -5.41825,
      "fuels": {
        "gazole": 1.549,
        "sp95": 1.499
      }
    },
    {
      "id": "6674",
      "cp": "11360",
      "ville": "San Roque",
      "adresse": "Autovia A-7 km. 116,000",
      "brand": "Repsol",
      "lat": 36.207222,
      "lng": -5.410139,
      "fuels": {
        "gazole": 1.559,
        "sp95": 1.519,
        "sp98": 1.629
      }
    },
    {
      "id": "9407",
      "cp": "11360",
      "ville": "San Roque",
      "adresse": "Autovia pol.ind.guadarranque parc.9a-D (n-340 Autovia A-7 km. 0",
      "brand": "Codes",
      "lat": 36.204389,
      "lng": -5.411972,
      "fuels": {
        "gazole": 1.559,
        "sp95": 1.489,
        "sp98": 1.629,
        "gplc": 0.949
      }
    },
    {
      "id": "5696",
      "cp": "11360",
      "ville": "San Roque",
      "adresse": "C-3331 Km 88",
      "brand": "Cepsa",
      "lat": 36.210667,
      "lng": -5.430306,
      "fuels": {
        "gazole": 1.549,
        "sp95": 1.489
      }
    },
    {
      "id": "16141",
      "cp": "11360",
      "ville": "San Roque",
      "adresse": "Carretera Ca-2324 km. S/N",
      "brand": "Plenergy",
      "lat": 36.210472,
      "lng": -5.397972,
      "fuels": {
        "gazole": 1.419,
        "sp95": 1.349
      }
    },
    {
      "id": "6836",
      "cp": "11360",
      "ville": "San Roque",
      "adresse": "Cr N-340 Cadiz-Malaga Km (autovia Km 124)",
      "brand": "Shell",
      "lat": 36.23075,
      "lng": -5.351611,
      "fuels": {
        "gazole": 1.579,
        "sp95": 1.479,
        "sp98": 1.579
      }
    },
    {
      "id": "5697",
      "cp": "11360",
      "ville": "San Roque",
      "adresse": "N-351 Km 2",
      "brand": "Moeve",
      "lat": 36.191333,
      "lng": -5.385722,
      "fuels": {
        "gazole": 1.539,
        "sp95": 1.469
      }
    },
    {
      "id": "8418",
      "cp": "11540",
      "ville": "Sanlucar De Barrameda",
      "adresse": "avda.de Huelva",
      "brand": "Shell",
      "lat": 36.79075,
      "lng": -6.338556,
      "fuels": {
        "gazole": 1.479,
        "sp95": 1.459,
        "sp98": 1.559
      }
    },
    {
      "id": "15092",
      "cp": "11540",
      "ville": "Sanlucar De Barrameda",
      "adresse": "Avenida Al-andalus, 53",
      "brand": "petrol&go",
      "lat": 36.777778,
      "lng": -6.3455,
      "fuels": {
        "gazole": 1.406,
        "sp95": 1.355
      }
    },
    {
      "id": "5667",
      "cp": "11540",
      "ville": "Sanlucar De Barrameda",
      "adresse": "Avenida constitucion, S/N",
      "brand": "Bp Bonanza",
      "lat": 36.770389,
      "lng": -6.3465,
      "fuels": {
        "gazole": 1.535,
        "sp95": 1.515,
        "sp98": 1.655
      }
    },
    {
      "id": "15227",
      "cp": "11540",
      "ville": "Sanlucar De Barrameda",
      "adresse": "Avenida De El Puerto  De Santa maria, 53",
      "brand": "Ballenoil",
      "lat": 36.755889,
      "lng": -6.340583,
      "fuels": {
        "gazole": 1.396,
        "sp95": 1.345
      }
    },
    {
      "id": "5666",
      "cp": "11540",
      "ville": "Sanlucar De Barrameda",
      "adresse": "Avenida Quinto centenario, S/N",
      "brand": "Bp Sanlucar Avenida",
      "lat": 36.771639,
      "lng": -6.356472,
      "fuels": {
        "gazole": 1.535,
        "sp95": 1.515,
        "sp98": 1.655
      }
    },
    {
      "id": "5652",
      "cp": "11540",
      "ville": "Sanlucar De Barrameda",
      "adresse": "Calle brezo, 2",
      "brand": "Cepsa",
      "lat": 36.763694,
      "lng": -6.362111,
      "fuels": {
        "gazole": 1.529,
        "sp95": 1.509
      }
    },
    {
      "id": "14268",
      "cp": "11540",
      "ville": "Sanlucar De Barrameda",
      "adresse": "Calle genil, 1",
      "brand": "Ballenoil",
      "lat": 36.7645,
      "lng": -6.361472,
      "fuels": {
        "gazole": 1.396,
        "sp95": 1.345
      }
    },
    {
      "id": "16275",
      "cp": "11540",
      "ville": "Sanlucar De Barrameda",
      "adresse": "Calle Tomás iriarte, 2",
      "brand": "Ballenoil",
      "lat": 36.769917,
      "lng": -6.343139,
      "fuels": {
        "gazole": 1.396,
        "sp95": 1.345
      }
    },
    {
      "id": "13418",
      "cp": "11540",
      "ville": "Sanlucar De Barrameda",
      "adresse": "Carretera Ca-603 km. 0,500",
      "brand": "Repsol",
      "lat": 36.764583,
      "lng": -6.342111,
      "fuels": {
        "gazole": 1.555,
        "sp95": 1.525,
        "sp98": 1.635
      }
    },
    {
      "id": "12758",
      "cp": "11540",
      "ville": "Sanlucar De Barrameda",
      "adresse": "Carretera Chipiona (de) km. 0,5",
      "brand": "Petrol & Go",
      "lat": 36.770611,
      "lng": -6.357806,
      "fuels": {
        "gazole": 1.407,
        "sp95": 1.354
      }
    },
    {
      "id": "8018",
      "cp": "11540",
      "ville": "Sanlucar De Barrameda",
      "adresse": "Carretera San Lucar-Jerez (c-440 Km 1,0) km. 1",
      "brand": "Reyca - Agla",
      "lat": 36.763139,
      "lng": -6.340306,
      "fuels": {
        "gazole": 1.499,
        "sp95": 1.459
      }
    },
    {
      "id": "8019",
      "cp": "11540",
      "ville": "Sanlucar De Barrameda",
      "adresse": "Colonia Montealgaida Cl central, 9",
      "brand": "Eess Ntra Sra De Los Milagros",
      "lat": 36.822972,
      "lng": -6.32075,
      "fuels": {
        "gazole": 1.519,
        "sp95": 1.509
      }
    },
    {
      "id": "6918",
      "cp": "11692",
      "ville": "Setenil",
      "adresse": "Carretera cr. Ca-422 km. 0,500",
      "brand": "Campsa",
      "lat": 36.865056,
      "lng": -5.169694,
      "fuels": {
        "gazole": 1.599,
        "sp95": 1.489
      }
    },
    {
      "id": "13722",
      "cp": "11391",
      "ville": "Tahivilla",
      "adresse": "Calle Pi tahivilla, 1,2",
      "brand": "Petroliferos De Tahivilla",
      "lat": 36.187139,
      "lng": -5.759111,
      "fuels": {
        "gazole": 1.499,
        "sp95": 1.429
      }
    },
    {
      "id": "13932",
      "cp": "11380",
      "ville": "Tarifa",
      "adresse": "Calle algeciras, 58",
      "brand": "Tarifa Oil",
      "lat": 36.02025,
      "lng": -5.598111,
      "fuels": {
        "gazole": 1.439,
        "sp95": 1.399,
        "sp98": 1.499,
        "gplc": 0.959
      }
    },
    {
      "id": "6917",
      "cp": "11380",
      "ville": "Tarifa",
      "adresse": "Calle Batalla Del salado, S/N",
      "brand": "Repsol",
      "lat": 36.01875,
      "lng": -5.608944,
      "fuels": {
        "gazole": 1.559,
        "sp95": 1.535,
        "sp98": 1.645
      }
    },
    {
      "id": "9894",
      "cp": "11380",
      "ville": "Tarifa",
      "adresse": "Carretera c.n.340, Km 94,2 Meson Pancho km. 94,2",
      "brand": "Asc Carburantes",
      "lat": 36.067222,
      "lng": -5.531417,
      "fuels": {
        "gazole": 1.439,
        "sp95": 1.399,
        "sp98": 1.499
      }
    },
    {
      "id": "5695",
      "cp": "11380",
      "ville": "Tarifa",
      "adresse": "N-340 Km 82,1",
      "brand": "Cepsa",
      "lat": 36.037389,
      "lng": -5.620167,
      "fuels": {
        "gazole": 1.619,
        "sp95": 1.558,
        "sp98": 1.678
      }
    },
    {
      "id": "12956",
      "cp": "11380",
      "ville": "Tarifa",
      "adresse": "Poligono La vega, 511",
      "brand": "Windfuel Tarifa Low Cost",
      "lat": 36.026528,
      "lng": -5.609694,
      "fuels": {
        "gazole": 1.459,
        "sp95": 1.419
      }
    },
    {
      "id": "13009",
      "cp": "11380",
      "ville": "Tarifa",
      "adresse": "Urbanización La marina, 614",
      "brand": "Tarifuel",
      "lat": 36.026333,
      "lng": -5.607861,
      "fuels": {
        "gazole": 1.439,
        "sp95": 1.399,
        "gplc": 0.959
      }
    },
    {
      "id": "12708",
      "cp": "11595",
      "ville": "Torrecera",
      "adresse": "Carretera A-381 km. 11,500",
      "brand": "Repsol",
      "lat": 36.568944,
      "lng": -6.023556,
      "fuels": {
        "gazole": 1.565,
        "sp95": 1.485,
        "sp98": 1.595,
        "gplc": 1.009
      }
    },
    {
      "id": "12915",
      "cp": "11312",
      "ville": "Torreguadiaro",
      "adresse": "Avenida Mar Del sur, 18",
      "brand": "u.s. Torreguadiaro",
      "lat": 36.296306,
      "lng": -5.275111,
      "fuels": {
        "gazole": 1.499,
        "sp95": 1.439
      }
    },
    {
      "id": "6899",
      "cp": "11560",
      "ville": "Trebujena",
      "adresse": "Avenida De sevilla, 45",
      "brand": "Repsol",
      "lat": 36.871722,
      "lng": -6.171722,
      "fuels": {
        "gazole": 1.629,
        "sp95": 1.579,
        "sp98": 1.679
      }
    },
    {
      "id": "11287",
      "cp": "11560",
      "ville": "Trebujena",
      "adresse": "Poligono El Barrial Sector 10 Parcela 72, S/N",
      "brand": "e.s El Barrial s.l",
      "lat": 36.862389,
      "lng": -6.172083,
      "fuels": {
        "gazole": 1.629,
        "sp95": 1.569,
        "sp98": 1.679
      }
    },
    {
      "id": "13354",
      "cp": "11600",
      "ville": "Ubrique",
      "adresse": "Calle repujadores, 2",
      "brand": "Go Ubrique",
      "lat": 36.659667,
      "lng": -5.452306,
      "fuels": {
        "gazole": 1.489,
        "sp95": 1.419
      }
    },
    {
      "id": "11689",
      "cp": "11600",
      "ville": "Ubrique",
      "adresse": "Carretera a373 km. 24,5",
      "brand": "Bp",
      "lat": 36.664417,
      "lng": -5.450306,
      "fuels": {
        "gazole": 1.579,
        "sp95": 1.529,
        "sp98": 1.659
      }
    },
    {
      "id": "6716",
      "cp": "11600",
      "ville": "Ubrique",
      "adresse": "Cr C-3331, 20",
      "brand": "Repsol",
      "lat": 36.68325,
      "lng": -5.452056,
      "fuels": {
        "gazole": 1.585,
        "sp95": 1.529,
        "sp98": 1.639
      }
    },
    {
      "id": "5676",
      "cp": "11150",
      "ville": "Vejer De La Frontera",
      "adresse": "Carretera E-5/N-340 km. 30,277",
      "brand": "Galp",
      "lat": 36.253333,
      "lng": -6.025333,
      "fuels": {
        "gazole": 1.599,
        "sp95": 1.579
      }
    },
    {
      "id": "5701",
      "cp": "11150",
      "ville": "Vejer De La Frontera",
      "adresse": "Carretera N-340 km. 36,600",
      "brand": "Cepsa",
      "lat": 36.259833,
      "lng": -5.961222,
      "fuels": {
        "gazole": 1.559,
        "sp95": 1.499
      }
    },
    {
      "id": "8970",
      "cp": "11150",
      "ville": "Vejer De La Frontera",
      "adresse": "Santo Tomas De Villanueva nº4",
      "brand": "Dp",
      "lat": 36.313667,
      "lng": -5.886306,
      "fuels": {
        "gazole": 1.451,
        "sp95": 1.421
      }
    },
    {
      "id": "6882",
      "cp": "11650",
      "ville": "Villamartin",
      "adresse": "Avenida Arcos Sin numero, Sn",
      "brand": "Repsol",
      "lat": 36.855833,
      "lng": -5.65225,
      "fuels": {
        "gazole": 1.569,
        "sp95": 1.469,
        "sp98": 1.629
      }
    },
    {
      "id": "13180",
      "cp": "11650",
      "ville": "Villamartin",
      "adresse": "Avenida arcos, 55",
      "brand": "Hemegas",
      "lat": 36.855639,
      "lng": -5.655056,
      "fuels": {
        "gazole": 1.479,
        "sp95": 1.379,
        "gplc": 0.959
      }
    },
    {
      "id": "16214",
      "cp": "11650",
      "ville": "Villamartin",
      "adresse": "Avenida De arcos, 60",
      "brand": "Plenergy",
      "lat": 36.857,
      "lng": -5.6495,
      "fuels": {
        "gazole": 1.459,
        "sp95": 1.359
      }
    },
    {
      "id": "6563",
      "cp": "11650",
      "ville": "Villamartin",
      "adresse": "Carretera A-373 km. 0,500",
      "brand": "Gacosur Villamartin",
      "lat": 36.850583,
      "lng": -5.628583,
      "fuels": {
        "gazole": 1.479,
        "sp95": 1.379
      }
    },
    {
      "id": "5682",
      "cp": "11650",
      "ville": "Villamartin",
      "adresse": "Carretera A-384 Km 23,600 km. 23,600",
      "brand": "Repsol",
      "lat": 36.863806,
      "lng": -5.610472,
      "fuels": {
        "gazole": 1.569,
        "sp95": 1.469,
        "sp98": 1.629
      }
    }
  ]
}