{
  "code": "12",
  "name": "Castellón",
  "regionCode": "VAL",
  "regionName": "Comunidad Valenciana",
  "asOf": "2026-07-17T14:06:44.302Z",
  "source": "https://sedeaplicaciones.minetur.gob.es/ServiciosRESTCarburantes/PreciosCarburantes/EstacionesTerrestres/",
  "stationCount": 198,
  "fuels": {
    "gazole": {
      "count": 197,
      "mean": 1.6262,
      "median": 1.639,
      "min": 1.319,
      "max": 1.834
    },
    "sp95": {
      "count": 195,
      "mean": 1.5597,
      "median": 1.599,
      "min": 1.319,
      "max": 1.85
    },
    "sp98": {
      "count": 76,
      "mean": 1.771,
      "median": 1.779,
      "min": 1.459,
      "max": 1.899
    },
    "gplc": {
      "count": 10,
      "mean": 1.1046,
      "median": 1.109,
      "min": 0.999,
      "max": 1.199
    }
  },
  "stations": [
    {
      "id": "13718",
      "cp": "12140",
      "ville": "Albocasser",
      "adresse": "Carrer Sant joan, 132",
      "brand": "Coopnostra",
      "lat": 40.357667,
      "lng": 0.019528,
      "fuels": {
        "gazole": 1.609,
        "sp95": 1.529
      }
    },
    {
      "id": "3674",
      "cp": "12140",
      "ville": "Albocasser",
      "adresse": "Cr Cs-800, 32,3",
      "brand": "Repsol",
      "lat": 40.342611,
      "lng": -0.006333,
      "fuels": {
        "gazole": 1.599,
        "sp95": 1.619
      }
    },
    {
      "id": "9027",
      "cp": "12570",
      "ville": "Alcala De Xivert",
      "adresse": "C/ Baron De alcahali, S/N",
      "brand": "coop. San Isidro De Alcala",
      "lat": 40.309361,
      "lng": 0.229361,
      "fuels": {
        "gazole": 1.765,
        "sp95": 1.639
      }
    },
    {
      "id": "3648",
      "cp": "12570",
      "ville": "Alcala De Xivert",
      "adresse": "Carretera Nacional 340 km. 1021",
      "brand": "Repsol",
      "lat": 40.296944,
      "lng": 0.226333,
      "fuels": {
        "gazole": 1.765,
        "sp95": 1.639
      }
    },
    {
      "id": "12198",
      "cp": "12100",
      "ville": "Alcora",
      "adresse": "Carretera Cv 190a km. 3,5",
      "brand": "L'area",
      "lat": 40.070083,
      "lng": -0.183278,
      "fuels": {
        "gazole": 1.599,
        "sp95": 1.589,
        "sp98": 1.759
      }
    },
    {
      "id": "12912",
      "cp": "12100",
      "ville": "Alcora",
      "adresse": "Carretera Cv-190 km. 1",
      "brand": "Gial",
      "lat": 40.069556,
      "lng": -0.198639,
      "fuels": {
        "gazole": 1.549,
        "sp95": 1.539
      }
    },
    {
      "id": "12561",
      "cp": "12110",
      "ville": "Alcora",
      "adresse": "Carretera cv16 Parcela 142b km. 10,5",
      "brand": "L'area ",
      "lat": 40.046944,
      "lng": -0.166333,
      "fuels": {
        "gazole": 1.599,
        "sp95": 1.589
      }
    },
    {
      "id": "3618",
      "cp": "12110",
      "ville": "Alcora",
      "adresse": "Carretera De castellon,   60  (c-232) km. 23,7",
      "brand": "Repsol",
      "lat": 40.07075,
      "lng": -0.204972,
      "fuels": {
        "gazole": 1.729,
        "sp95": 1.629,
        "sp98": 1.779
      }
    },
    {
      "id": "8967",
      "cp": "12570",
      "ville": "Alcossebre",
      "adresse": "Carretera Cv-142 km. 1,5",
      "brand": "Castell Xivert",
      "lat": 40.256333,
      "lng": 0.2445,
      "fuels": {
        "gazole": 1.699,
        "sp95": 1.591
      }
    },
    {
      "id": "16309",
      "cp": "12550",
      "ville": "Almazora",
      "adresse": "Avenida castellón, 178",
      "brand": "Plenergy",
      "lat": 39.952722,
      "lng": -0.058639,
      "fuels": {
        "gazole": 1.479,
        "sp95": 1.409
      }
    },
    {
      "id": "1886",
      "cp": "12550",
      "ville": "Almazora",
      "adresse": "Avenida castellón, 65",
      "brand": "Bp Almazora Centro",
      "lat": 39.951472,
      "lng": -0.05925,
      "fuels": {
        "gazole": 1.719,
        "sp95": 1.635,
        "sp98": 1.775
      }
    },
    {
      "id": "3511",
      "cp": "12550",
      "ville": "Almazora",
      "adresse": "Calle alcora, S/N",
      "brand": "Bp Almazorense",
      "lat": 39.951556,
      "lng": -0.075222,
      "fuels": {
        "gazole": 1.719,
        "sp95": 1.635,
        "sp98": 1.775
      }
    },
    {
      "id": "12510",
      "cp": "12550",
      "ville": "Almazora",
      "adresse": "Calle Guerrer iberic, 12",
      "brand": "Bdmed",
      "lat": 39.973667,
      "lng": -0.133889,
      "fuels": {
        "gazole": 1.509,
        "sp95": 1.449
      }
    },
    {
      "id": "3537",
      "cp": "12550",
      "ville": "Almazora",
      "adresse": "Calle Manuel vivanco, 10",
      "brand": "Galp",
      "lat": 39.94275,
      "lng": -0.0585,
      "fuels": {
        "gazole": 1.689,
        "sp95": 1.579
      }
    },
    {
      "id": "1946",
      "cp": "12550",
      "ville": "Almazora",
      "adresse": "Carretera ctra. N-340-A km. Km 970",
      "brand": "q8",
      "lat": 39.955806,
      "lng": -0.076278,
      "fuels": {
        "gazole": 1.639,
        "sp95": 1.559,
        "sp98": 1.619
      }
    },
    {
      "id": "11314",
      "cp": "12550",
      "ville": "Almazora",
      "adresse": "Poligono Pi Camí Fondo , Parcela m2 Vial D 6, 1",
      "brand": "Laytor",
      "lat": 39.973639,
      "lng": -0.135472,
      "fuels": {
        "gazole": 1.62,
        "sp95": 1.39
      }
    },
    {
      "id": "13362",
      "cp": "12590",
      "ville": "Almenara",
      "adresse": "Autovia A-7 km. 293,000",
      "brand": "Repsol",
      "lat": 39.740389,
      "lng": -0.233333,
      "fuels": {
        "gazole": 1.765,
        "sp95": 1.649,
        "sp98": 1.829
      }
    },
    {
      "id": "3463",
      "cp": "12590",
      "ville": "Almenara",
      "adresse": "Cs-V-6011 Km 1,2",
      "brand": "e.s. Almenara",
      "lat": 39.758889,
      "lng": -0.227583,
      "fuels": {
        "gazole": 1.559,
        "sp95": 1.549
      }
    },
    {
      "id": "15845",
      "cp": "12539",
      "ville": "Alquerias Del Niño Perdido",
      "adresse": "Calle artana, S/N",
      "brand": "Repsol",
      "lat": 39.897917,
      "lng": -0.124,
      "fuels": {
        "gazole": 1.735,
        "sp95": 1.645,
        "sp98": 1.825
      }
    },
    {
      "id": "16113",
      "cp": "12539",
      "ville": "Alquerias Del Niño Perdido",
      "adresse": "Calle ponente, 1",
      "brand": "Lafuente",
      "lat": 39.900306,
      "lng": -0.123778,
      "fuels": {
        "gazole": 1.604,
        "sp95": 1.567
      }
    },
    {
      "id": "15668",
      "cp": "12539",
      "ville": "Alquerias Del Niño Perdido",
      "adresse": "Cami real, 61",
      "brand": "Búho Gas",
      "lat": 39.897167,
      "lng": -0.12125,
      "fuels": {
        "gazole": 1.493,
        "sp95": 1.398
      }
    },
    {
      "id": "3666",
      "cp": "12539",
      "ville": "Alquerias Del Niño Perdido",
      "adresse": "Carretera N-340 km. 963,7",
      "brand": "Cepsa",
      "lat": 39.897861,
      "lng": -0.120778,
      "fuels": {
        "gazole": 1.635,
        "sp95": 1.615
      }
    },
    {
      "id": "3667",
      "cp": "12539",
      "ville": "Alquerias Del Niño Perdido",
      "adresse": "Carretera N-340 km. 963,7",
      "brand": "Cepsa",
      "lat": 39.897667,
      "lng": -0.121306,
      "fuels": {
        "gazole": 1.635,
        "sp95": 1.615
      }
    },
    {
      "id": "9025",
      "cp": "12410",
      "ville": "Altura",
      "adresse": "avda. valencia, nº 47",
      "brand": "coop.sagrado Corazon De Altura",
      "lat": 39.847833,
      "lng": -0.510639,
      "fuels": {
        "gazole": 1.629,
        "sp95": 1.559
      }
    },
    {
      "id": "15274",
      "cp": "12594",
      "ville": "Amplaries (les)",
      "adresse": "Avenida La plana, 12",
      "brand": "Vcc Oropesa",
      "lat": 40.091389,
      "lng": 0.131694,
      "fuels": {
        "gazole": 1.597,
        "sp95": 1.577
      }
    },
    {
      "id": "12808",
      "cp": "12200",
      "ville": "Apeadero De Bechi",
      "adresse": "Carretera Apeadero De Betxi polig. 19 parc. 34 km. 2",
      "brand": "Bdmed",
      "lat": 39.951278,
      "lng": -0.182472,
      "fuels": {
        "gazole": 1.499,
        "sp95": 1.439
      }
    },
    {
      "id": "3519",
      "cp": "12527",
      "ville": "Artana",
      "adresse": "Avenida Sierra De espadan, 1",
      "brand": "Sin Rotulo",
      "lat": 39.891083,
      "lng": -0.251139,
      "fuels": {
        "gazole": 1.698,
        "sp95": 1.615
      }
    },
    {
      "id": "3596",
      "cp": "12132",
      "ville": "Atzeneta Del Maestrat",
      "adresse": "Avenida Meanes (de), 2",
      "brand": "Cooperativa Atzeneta",
      "lat": 40.219417,
      "lng": -0.170611,
      "fuels": {
        "gazole": 1.579,
        "sp95": 1.539
      }
    },
    {
      "id": "3506",
      "cp": "12420",
      "ville": "Barracas",
      "adresse": "Carretera N-234a km. 62,8",
      "brand": "Moeve",
      "lat": 40.016528,
      "lng": -0.696306,
      "fuels": {
        "gazole": 1.739,
        "sp95": 1.689,
        "sp98": 1.849
      }
    },
    {
      "id": "3497",
      "cp": "12430",
      "ville": "Bejis",
      "adresse": "Carretera Estacion km. S/N",
      "brand": "Grupo Maicas Peiro",
      "lat": 39.910833,
      "lng": -0.7035,
      "fuels": {
        "gazole": 1.649,
        "sp95": 1.619
      }
    },
    {
      "id": "9338",
      "cp": "12160",
      "ville": "Benasal",
      "adresse": "ctra. Ramal A Culla Km 3,900",
      "brand": "Carceller Royo s.l.",
      "lat": 40.379667,
      "lng": -0.1395,
      "fuels": {
        "gazole": 1.659,
        "sp95": 1.599
      }
    },
    {
      "id": "1962",
      "cp": "12580",
      "ville": "Benicarlo",
      "adresse": " Ctra Nacional 340 Km 133 - Centro Comercial Costa azahar, ",
      "brand": "Fm",
      "lat": 40.410222,
      "lng": 0.394667,
      "fuels": {
        "gazole": 1.399,
        "sp95": 1.399,
        "sp98": 1.499
      }
    },
    {
      "id": "3736",
      "cp": "12580",
      "ville": "Benicarlo",
      "adresse": "Ap-7 (mrg.dcho.) Km 358,2",
      "brand": "Cepsa",
      "lat": 40.459222,
      "lng": 0.406056,
      "fuels": {
        "gazole": 1.719,
        "sp95": 1.669,
        "gplc": 1.154
      }
    },
    {
      "id": "3745",
      "cp": "12580",
      "ville": "Benicarlo",
      "adresse": "Autopista Ap-7 (mrg.izdo.) km. 358,2",
      "brand": "Cepsa",
      "lat": 40.458167,
      "lng": 0.4065,
      "fuels": {
        "gazole": 1.719,
        "sp95": 1.659,
        "gplc": 1.154
      }
    },
    {
      "id": "9848",
      "cp": "12580",
      "ville": "Benicarlo",
      "adresse": "avda. Papa luna, 26",
      "brand": "Ceeoil",
      "lat": 40.410417,
      "lng": 0.425917,
      "fuels": {
        "gazole": 1.694,
        "sp95": 1.624,
        "sp98": 1.724
      }
    },
    {
      "id": "14992",
      "cp": "12530",
      "ville": "Benicarlo",
      "adresse": "Cami Camino Fosa pastor, S/N",
      "brand": "3gs Combustibles ",
      "lat": 40.432583,
      "lng": 0.436944,
      "fuels": {
        "gazole": 1.449,
        "sp95": 1.419
      }
    },
    {
      "id": "3595",
      "cp": "12580",
      "ville": "Benicarlo",
      "adresse": "Carretera N 340 km. 1042,2",
      "brand": "Repsol",
      "lat": 40.413833,
      "lng": 0.404639,
      "fuels": {
        "gazole": 1.739,
        "sp95": 1.615,
        "sp98": 1.795,
        "gplc": 1.109
      }
    },
    {
      "id": "3527",
      "cp": "12580",
      "ville": "Benicarlo",
      "adresse": "Carretera N-340 km. 1043,8",
      "brand": "Repsol",
      "lat": 40.422139,
      "lng": 0.4175,
      "fuels": {
        "gazole": 1.739,
        "sp95": 1.615,
        "sp98": 1.795
      }
    },
    {
      "id": "3600",
      "cp": "12580",
      "ville": "Benicarlo",
      "adresse": "Carretera N-340 km. 1044,8",
      "brand": "Bp",
      "lat": 40.4235,
      "lng": 0.427056,
      "fuels": {
        "gazole": 1.729,
        "sp95": 1.629,
        "sp98": 1.769
      }
    },
    {
      "id": "9868",
      "cp": "12580",
      "ville": "Benicarlo",
      "adresse": "pol. ind. El collet. Parc 511",
      "brand": "Eurofuel",
      "lat": 40.435861,
      "lng": 0.399111,
      "fuels": {
        "gazole": 1.699,
        "sp95": 1.619,
        "sp98": 1.789
      }
    },
    {
      "id": "12233",
      "cp": "12580",
      "ville": "Benicarlo",
      "adresse": "Poligono Poligono 22  Parcela 77, 77",
      "brand": "Benihort",
      "lat": 40.43425,
      "lng": 0.392417,
      "fuels": {
        "gazole": 1.599,
        "sp95": 1.549,
        "sp98": 1.659
      }
    },
    {
      "id": "3627",
      "cp": "12560",
      "ville": "Benicasim",
      "adresse": "Carretera N-340 km. 987",
      "brand": "Repsol Benicassim",
      "lat": 40.0505,
      "lng": 0.054167,
      "fuels": {
        "gazole": 1.755,
        "sp95": 1.635
      }
    },
    {
      "id": "3548",
      "cp": "12560",
      "ville": "Benicasim",
      "adresse": "Carretera Nacional 340 km. 988",
      "brand": "Bp Montecasim Md",
      "lat": 40.057778,
      "lng": 0.065333,
      "fuels": {
        "gazole": 1.749,
        "sp95": 1.635,
        "sp98": 1.775
      }
    },
    {
      "id": "9028",
      "cp": "12181",
      "ville": "Benlloch",
      "adresse": "C/ Del mar, 116",
      "brand": "coop. La Union De Benlloch",
      "lat": 40.207423,
      "lng": 0.030164,
      "fuels": {
        "gazole": 1.58,
        "sp95": 1.54
      }
    },
    {
      "id": "3559",
      "cp": "12181",
      "ville": "Benlloch",
      "adresse": "Carretera Cv 10 km. 46,70",
      "brand": "Repsol",
      "lat": 40.186583,
      "lng": 0.044556,
      "fuels": {
        "gazole": 1.759,
        "sp95": 1.719
      }
    },
    {
      "id": "3496",
      "cp": "12549",
      "ville": "Betxi",
      "adresse": "Carretera C-223 km. 6,350",
      "brand": "Galp",
      "lat": 39.923194,
      "lng": -0.184611,
      "fuels": {
        "gazole": 1.659,
        "sp95": 1.659
      }
    },
    {
      "id": "3676",
      "cp": "12549",
      "ville": "Betxi",
      "adresse": "Cr Cs-233, 2,8",
      "brand": "Petronor",
      "lat": 39.931306,
      "lng": -0.196389,
      "fuels": {
        "gazole": 1.729,
        "sp95": 1.635,
        "sp98": 1.815
      }
    },
    {
      "id": "11521",
      "cp": "12549",
      "ville": "Betxi",
      "adresse": "Poligono Moli Den llop, Parcela U-6, Sn",
      "brand": "Cooperativa De Betxí",
      "lat": 39.934639,
      "lng": -0.192028,
      "fuels": {
        "gazole": 1.699,
        "sp95": 1.609
      }
    },
    {
      "id": "3493",
      "cp": "12190",
      "ville": "Borriol",
      "adresse": "Avenida Zaragoza S/n, S/N",
      "brand": "Repsol",
      "lat": 40.041778,
      "lng": -0.073722,
      "fuels": {
        "gazole": 1.625,
        "sp95": 1.585
      }
    },
    {
      "id": "3488",
      "cp": "12190",
      "ville": "Borriol",
      "adresse": "Carretera c.v 16 km. 4,1",
      "brand": "Galp",
      "lat": 40.014278,
      "lng": -0.125833,
      "fuels": {
        "gazole": 1.564,
        "sp95": 1.564,
        "sp98": 1.704
      }
    },
    {
      "id": "16346",
      "cp": "12190",
      "ville": "Borriol",
      "adresse": "Carretera Comarcal 238 km. 12",
      "brand": "Global Hrv",
      "lat": 40.018944,
      "lng": -0.091472,
      "fuels": {
        "gazole": 1.625,
        "sp95": 1.579
      }
    },
    {
      "id": "12356",
      "cp": "12190",
      "ville": "Borriol",
      "adresse": "Carretera Zaragoza km. 6,700",
      "brand": "Pañalon",
      "lat": 40.02425,
      "lng": -0.0895,
      "fuels": {
        "gazole": 1.605
      }
    },
    {
      "id": "3743",
      "cp": "12530",
      "ville": "Burriana",
      "adresse": "Autopista Ap-7 (mrg.dcho) km. 445",
      "brand": "Galp",
      "lat": 39.863833,
      "lng": -0.123889,
      "fuels": {
        "gazole": 1.749,
        "sp95": 1.729,
        "sp98": 1.839
      }
    },
    {
      "id": "3735",
      "cp": "12530",
      "ville": "Burriana",
      "adresse": "Autopista Ap-7 (mrg.izdo) km. 445",
      "brand": "Galp",
      "lat": 39.866139,
      "lng": -0.121361,
      "fuels": {
        "gazole": 1.749,
        "sp95": 1.729,
        "sp98": 1.839
      }
    },
    {
      "id": "9031",
      "cp": "12530",
      "ville": "Burriana",
      "adresse": "avda. llombai, S/N",
      "brand": "coop. San Jose De Burriana",
      "lat": 39.88325,
      "lng": -0.08875,
      "fuels": {
        "gazole": 1.719,
        "sp95": 1.629
      }
    },
    {
      "id": "9409",
      "cp": "12530",
      "ville": "Burriana",
      "adresse": "C-236 Km  0,300",
      "brand": "Galp",
      "lat": 39.894167,
      "lng": -0.080111,
      "fuels": {
        "gazole": 1.699,
        "sp95": 1.629,
        "sp98": 1.799
      }
    },
    {
      "id": "16104",
      "cp": "12350",
      "ville": "Burriana",
      "adresse": "Calle corindón, 1",
      "brand": "Ballenoil",
      "lat": 39.88075,
      "lng": -0.101944,
      "fuels": {
        "gazole": 1.478,
        "sp95": 1.398
      }
    },
    {
      "id": "3706",
      "cp": "12530",
      "ville": "Burriana",
      "adresse": "Camino De Nules - Ronda Sur (cv-18 Km 1)",
      "brand": "Moeve-Garcibur",
      "lat": 39.884611,
      "lng": -0.093556,
      "fuels": {
        "gazole": 1.729,
        "sp95": 1.639,
        "sp98": 1.805
      }
    },
    {
      "id": "13755",
      "cp": "12350",
      "ville": "Burriana",
      "adresse": "Carretera Vila-Real Burriana Cv-185 km. 3,5",
      "brand": "Alsa Y Servi Oil Low Cost",
      "lat": 39.899333,
      "lng": -0.083111,
      "fuels": {
        "gazole": 1.529,
        "sp95": 1.469
      }
    },
    {
      "id": "3487",
      "cp": "12530",
      "ville": "Burriana",
      "adresse": "Cl Avenida Jaime chicharro, 6",
      "brand": "Repsol",
      "lat": 39.882778,
      "lng": -0.080611,
      "fuels": {
        "gazole": 1.729,
        "sp95": 1.639,
        "sp98": 1.819
      }
    },
    {
      "id": "3658",
      "cp": "12530",
      "ville": "Burriana",
      "adresse": "Cl Camino De onda, 90",
      "brand": "e.s. Hermanos Simo",
      "lat": 39.895167,
      "lng": -0.096333,
      "fuels": {
        "gazole": 1.735,
        "sp95": 1.645,
        "sp98": 1.825
      }
    },
    {
      "id": "3737",
      "cp": "12180",
      "ville": "Cabanes",
      "adresse": "Autopista Ap-7 (mrg.dcho) km. 404",
      "brand": "Eni",
      "lat": 40.131806,
      "lng": 0.138722,
      "fuels": {
        "gazole": 1.739,
        "sp95": 1.699,
        "sp98": 1.819,
        "gplc": 0.999
      }
    },
    {
      "id": "3746",
      "cp": "12180",
      "ville": "Cabanes",
      "adresse": "Autopista Ap-7 (mrg.izdo) km. 404",
      "brand": "Eni",
      "lat": 40.13325,
      "lng": 0.141111,
      "fuels": {
        "gazole": 1.739,
        "sp95": 1.699,
        "sp98": 1.819,
        "gplc": 0.999
      }
    },
    {
      "id": "12613",
      "cp": "12180",
      "ville": "Cabanes",
      "adresse": "Autovia cv10 km. 37,5",
      "brand": "Eess De Cabanes 40 Pies ",
      "lat": 40.140833,
      "lng": 0.033306,
      "fuels": {
        "gazole": 1.759,
        "sp95": 1.699
      }
    },
    {
      "id": "9018",
      "cp": "12180",
      "ville": "Cabanes",
      "adresse": "Calle Clara campoamor, 1",
      "brand": "Cooperativa Cabanes",
      "lat": 40.156278,
      "lng": 0.039917,
      "fuels": {
        "gazole": 1.58,
        "sp95": 1.5
      }
    },
    {
      "id": "11011",
      "cp": "12006",
      "ville": "Castellon De La Plana",
      "adresse": "Alcampo Hipermercado ( Centro Comercial Salera ) (carretera 340 Km 64.500)",
      "brand": "Alcampo",
      "lat": 39.979472,
      "lng": -0.065389,
      "fuels": {
        "gazole": 1.449,
        "sp95": 1.409,
        "sp98": 1.569
      }
    },
    {
      "id": "11185",
      "cp": "12006",
      "ville": "Castellon De La Plana",
      "adresse": "Av Ronda Sur esq. Cl Enrique Gimeno",
      "brand": "Bp Ronda Sur",
      "lat": 39.978889,
      "lng": -0.066444,
      "fuels": {
        "gazole": 1.719,
        "sp95": 1.635,
        "sp98": 1.775
      }
    },
    {
      "id": "10256",
      "cp": "12100",
      "ville": "Castellon De La Plana",
      "adresse": "avda. Del Puerto S/N   Grao",
      "brand": "Plenergy",
      "lat": 39.972417,
      "lng": 0.008694,
      "fuels": {
        "gazole": 1.479,
        "sp95": 1.409
      }
    },
    {
      "id": "10252",
      "cp": "12006",
      "ville": "Castellon De La Plana",
      "adresse": "Avenida Aenida valencia, 125",
      "brand": "Repsol",
      "lat": 39.971528,
      "lng": -0.05375,
      "fuels": {
        "gazole": 1.755,
        "sp95": 1.639,
        "sp98": 1.789,
        "gplc": 1.109
      }
    },
    {
      "id": "1945",
      "cp": "12003",
      "ville": "Castellon De La Plana",
      "adresse": "Avenida avda. Hermanos Bou 203, ",
      "brand": "q8",
      "lat": 39.981083,
      "lng": -0.023,
      "fuels": {
        "gazole": 1.619,
        "sp95": 1.539,
        "sp98": 1.599
      }
    },
    {
      "id": "15985",
      "cp": "12004",
      "ville": "Castellon De La Plana",
      "adresse": "Avenida benicasim, 24",
      "brand": "Plenergy",
      "lat": 40.000111,
      "lng": -0.039639,
      "fuels": {
        "gazole": 1.459,
        "sp95": 1.429
      }
    },
    {
      "id": "13063",
      "cp": "12004",
      "ville": "Castellon De La Plana",
      "adresse": "Avenida benicasim, esq. Calle Casas De La breva, S/N",
      "brand": "Bp Castello",
      "lat": 39.999583,
      "lng": -0.041333,
      "fuels": {
        "gazole": 1.719,
        "sp95": 1.635,
        "sp98": 1.775
      }
    },
    {
      "id": "16370",
      "cp": "12005",
      "ville": "Castellon De La Plana",
      "adresse": "Avenida Casalduch 140d, 0",
      "brand": "q8",
      "lat": 39.971639,
      "lng": -0.050389,
      "fuels": {
        "gazole": 1.599,
        "sp95": 1.519
      }
    },
    {
      "id": "16320",
      "cp": "12100",
      "ville": "Castellon De La Plana",
      "adresse": "Avenida De Los Hermanos bou, 201",
      "brand": "Ballenoil",
      "lat": 39.980083,
      "lng": -0.018972,
      "fuels": {
        "gazole": 1.449,
        "sp95": 1.409
      }
    },
    {
      "id": "11585",
      "cp": "12003",
      "ville": "Castellon De La Plana",
      "adresse": "Avenida Del Mar S/n, Sin Número",
      "brand": "Carrefour",
      "lat": 39.983306,
      "lng": -0.017972,
      "fuels": {
        "gazole": 1.599,
        "sp95": 1.529,
        "sp98": 1.739
      }
    },
    {
      "id": "3536",
      "cp": "12100",
      "ville": "Castellon De La Plana",
      "adresse": "Avenida Del mar, 468",
      "brand": "Repsol",
      "lat": 39.976694,
      "lng": 0.010667,
      "fuels": {
        "gazole": 1.755,
        "sp95": 1.629,
        "sp98": 1.809
      }
    },
    {
      "id": "15344",
      "cp": "12000",
      "ville": "Castellon De La Plana",
      "adresse": "Avenida Del mar, 65",
      "brand": "Seroil Energy",
      "lat": 39.982944,
      "lng": -0.017722,
      "fuels": {
        "gazole": 1.468,
        "sp95": 1.438
      }
    },
    {
      "id": "16201",
      "cp": "12006",
      "ville": "Castellon De La Plana",
      "adresse": "Avenida Enrique gimeno, 48",
      "brand": "Plenergy",
      "lat": 39.98225,
      "lng": -0.058417,
      "fuels": {
        "gazole": 1.479,
        "sp95": 1.409
      }
    },
    {
      "id": "12373",
      "cp": "12006",
      "ville": "Castellon De La Plana",
      "adresse": "Avenida Europa esq. C/ bélgica, 138",
      "brand": "Bdmed",
      "lat": 39.971722,
      "lng": -0.07575,
      "fuels": {
        "gazole": 1.509,
        "sp95": 1.449
      }
    },
    {
      "id": "12951",
      "cp": "12000",
      "ville": "Castellon De La Plana",
      "adresse": "Avenida europa, 229",
      "brand": "Gmoil",
      "lat": 39.973889,
      "lng": -0.073889,
      "fuels": {
        "gazole": 1.469,
        "sp95": 1.409
      }
    },
    {
      "id": "11210",
      "cp": "12100",
      "ville": "Castellon De La Plana",
      "adresse": "Avenida Hermanos bou, 152",
      "brand": "Bdmed",
      "lat": 39.981167,
      "lng": -0.022833,
      "fuels": {
        "gazole": 1.509,
        "sp95": 1.449
      }
    },
    {
      "id": "16150",
      "cp": "12006",
      "ville": "Castellon De La Plana",
      "adresse": "Avenida villarreal, 98",
      "brand": "Ballenoil",
      "lat": 39.974944,
      "lng": -0.05925,
      "fuels": {
        "gazole": 1.449,
        "sp95": 1.409
      }
    },
    {
      "id": "3604",
      "cp": "12006",
      "ville": "Castellon De La Plana",
      "adresse": "Avinguda Alcora 176, ",
      "brand": "Bp Riu Sec",
      "lat": 39.9885,
      "lng": -0.066278,
      "fuels": {
        "gazole": 1.719,
        "sp95": 1.635,
        "sp98": 1.775
      }
    },
    {
      "id": "16245",
      "cp": "12000",
      "ville": "Castellon De La Plana",
      "adresse": "Avinguda Castell vell, S/N",
      "brand": "Plenergy",
      "lat": 39.999389,
      "lng": -0.045333,
      "fuels": {
        "gazole": 1.459,
        "sp95": 1.429
      }
    },
    {
      "id": "13227",
      "cp": "12000",
      "ville": "Castellon De La Plana",
      "adresse": "Calle Cami Dels mestrets, 57",
      "brand": "Bencinas Mestrets",
      "lat": 40.00475,
      "lng": -0.056333,
      "fuels": {
        "gazole": 1.589,
        "sp95": 1.449,
        "sp98": 1.759,
        "gplc": 1.129
      }
    },
    {
      "id": "3538",
      "cp": "12006",
      "ville": "Castellon De La Plana",
      "adresse": "Calle ctra. Borriol yb, 16",
      "brand": "Bencinas Borriol",
      "lat": 39.993778,
      "lng": -0.057528,
      "fuels": {
        "gazole": 1.589,
        "sp95": 1.499,
        "sp98": 1.759
      }
    },
    {
      "id": "12838",
      "cp": "12000",
      "ville": "Castellon De La Plana",
      "adresse": "Calle Cuadra De lairón, 64",
      "brand": "Masoil",
      "lat": 39.973917,
      "lng": -0.070194,
      "fuels": {
        "gazole": 1.649,
        "sp95": 1.629
      }
    },
    {
      "id": "14042",
      "cp": "12006",
      "ville": "Castellon De La Plana",
      "adresse": "Calle Cuadra lairon, 57",
      "brand": "Face Petroleum",
      "lat": 39.972556,
      "lng": -0.071389,
      "fuels": {
        "gazole": 1.499,
        "sp95": 1.439
      }
    },
    {
      "id": "3670",
      "cp": "12005",
      "ville": "Castellon De La Plana",
      "adresse": "Calle Segarra ribes, S/N",
      "brand": "Grupo Maicas Peiro Bp Fadrell",
      "lat": 39.981,
      "lng": -0.034917,
      "fuels": {
        "gazole": 1.709,
        "sp95": 1.629,
        "sp98": 1.769
      }
    },
    {
      "id": "3629",
      "cp": "12003",
      "ville": "Castellon De La Plana",
      "adresse": "Calle Torralba Del pinar, 16",
      "brand": "Moeve",
      "lat": 39.981861,
      "lng": -0.018583,
      "fuels": {
        "gazole": 1.739,
        "sp95": 1.659
      }
    },
    {
      "id": "3500",
      "cp": "12005",
      "ville": "Castellon De La Plana",
      "adresse": "Carretera Almazora cs236 km. 9,39",
      "brand": "Galp",
      "lat": 39.968361,
      "lng": -0.0525,
      "fuels": {
        "gazole": 1.659,
        "sp95": 1.619
      }
    },
    {
      "id": "11059",
      "cp": "12004",
      "ville": "Castellon De La Plana",
      "adresse": "Carretera Borriol Yb 2 Bis km. ",
      "brand": "Autoil",
      "lat": 39.9925,
      "lng": -0.054944,
      "fuels": {
        "gazole": 1.777,
        "sp95": 1.637
      }
    },
    {
      "id": "12556",
      "cp": "12004",
      "ville": "Castellon De La Plana",
      "adresse": "Carretera N- 340 km. 66,7",
      "brand": "Gasexpress",
      "lat": 39.9945,
      "lng": -0.046944,
      "fuels": {
        "gazole": 1.459,
        "sp95": 1.429
      }
    },
    {
      "id": "3509",
      "cp": "12006",
      "ville": "Castellon De La Plana",
      "adresse": "Carretera N-340 km. 972,2",
      "brand": "Moeve",
      "lat": 39.969139,
      "lng": -0.067972,
      "fuels": {
        "gazole": 1.729,
        "sp95": 1.659
      }
    },
    {
      "id": "3510",
      "cp": "12006",
      "ville": "Castellon De La Plana",
      "adresse": "Carretera N-340 km. 972,2",
      "brand": "Cepsa",
      "lat": 39.969,
      "lng": -0.068694,
      "fuels": {
        "gazole": 1.729,
        "sp95": 1.659
      }
    },
    {
      "id": "10261",
      "cp": "12006",
      "ville": "Castellon De La Plana",
      "adresse": "Carretera Ribesalbes km. S/N",
      "brand": "Ballenoil",
      "lat": 39.979139,
      "lng": -0.067917,
      "fuels": {
        "gazole": 1.449,
        "sp95": 1.409
      }
    },
    {
      "id": "3477",
      "cp": "12005",
      "ville": "Castellon De La Plana",
      "adresse": "Cl Avenida Valencia 221",
      "brand": "Bp Vehicles",
      "lat": 39.964389,
      "lng": -0.064306,
      "fuels": {
        "gazole": 1.709,
        "sp95": 1.635,
        "sp98": 1.775
      }
    },
    {
      "id": "3534",
      "cp": "12005",
      "ville": "Castellon De La Plana",
      "adresse": "Cl Avenida valencia, 96",
      "brand": "Repsol",
      "lat": 39.976056,
      "lng": -0.048444,
      "fuels": {
        "gazole": 1.755,
        "sp95": 1.635,
        "sp98": 1.805
      }
    },
    {
      "id": "3612",
      "cp": "12004",
      "ville": "Castellon De La Plana",
      "adresse": "Cr N-340, 976,7",
      "brand": "Repsol",
      "lat": 40.003417,
      "lng": -0.042889,
      "fuels": {
        "gazole": 1.759,
        "sp95": 1.635,
        "sp98": 1.785
      }
    },
    {
      "id": "3462",
      "cp": "12004",
      "ville": "Castellon De La Plana",
      "adresse": "Cr N-340, 981,8",
      "brand": "Repsol",
      "lat": 40.031889,
      "lng": 0.01325,
      "fuels": {
        "gazole": 1.755,
        "sp95": 1.635,
        "sp98": 1.815
      }
    },
    {
      "id": "3704",
      "cp": "12100",
      "ville": "Castellon De La Plana",
      "adresse": "Muelle Serrano lloberas, S/N",
      "brand": "Moeve",
      "lat": 39.966556,
      "lng": 0.015917,
      "fuels": {
        "gazole": 1.739,
        "sp95": 1.659
      }
    },
    {
      "id": "12624",
      "cp": "12004",
      "ville": "Castellon De La Plana",
      "adresse": "Ronda Norte este, 242",
      "brand": "Bp Ronda Norte",
      "lat": 40.000722,
      "lng": -0.028639,
      "fuels": {
        "gazole": 1.719,
        "sp95": 1.635,
        "sp98": 1.775
      }
    },
    {
      "id": "16359",
      "cp": "12000",
      "ville": "Castellon De La Plana",
      "adresse": "Travesía cam. La unión, 15",
      "brand": "Plenergy",
      "lat": 39.958083,
      "lng": -0.058611,
      "fuels": {
        "gazole": 1.479,
        "sp95": 1.409
      }
    },
    {
      "id": "3503",
      "cp": "12592",
      "ville": "Chilches",
      "adresse": "Carretera N-340 km. 950",
      "brand": "American Petrol",
      "lat": 39.795694,
      "lng": -0.181361,
      "fuels": {
        "gazole": 1.519,
        "sp95": 1.439
      }
    },
    {
      "id": "3504",
      "cp": "12592",
      "ville": "Chilches",
      "adresse": "crta. Del Mar Km 0,5",
      "brand": "Galp",
      "lat": 39.778583,
      "lng": -0.180722,
      "fuels": {
        "gazole": 1.619,
        "sp95": 1.629
      }
    },
    {
      "id": "3677",
      "cp": "12185",
      "ville": "Coves De Vinroma (les)",
      "adresse": "Cr C-238, 45,7",
      "brand": "Repsol",
      "lat": 40.307222,
      "lng": 0.115194,
      "fuels": {
        "gazole": 1.725,
        "sp95": 1.615
      }
    },
    {
      "id": "11218",
      "cp": "12310",
      "ville": "Forcall",
      "adresse": "Cv-14 Km 12,400",
      "brand": "e.s.mibecosl",
      "lat": 40.663583,
      "lng": -0.190417,
      "fuels": {
        "gazole": 1.689,
        "sp95": 1.649,
        "sp98": 1.749
      }
    },
    {
      "id": "3662",
      "cp": "12340",
      "ville": "Jana (la)",
      "adresse": "Cr N-232 20,4",
      "brand": "e.s. Balmapa",
      "lat": 40.514889,
      "lng": 0.254639,
      "fuels": {
        "gazole": 1.657,
        "sp95": 1.624,
        "sp98": 1.769
      }
    },
    {
      "id": "9029",
      "cp": "12450",
      "ville": "Jerica",
      "adresse": "C/castellón, S/N",
      "brand": "coop. Divina Pastora De Jerica",
      "lat": 39.911472,
      "lng": -0.566139,
      "fuels": {
        "gazole": 1.589,
        "sp95": 1.52
      }
    },
    {
      "id": "3741",
      "cp": "12450",
      "ville": "Jerica",
      "adresse": "Carretera Nacional 234 k.m. 42 km. 42",
      "brand": "Shell",
      "lat": 39.912361,
      "lng": -0.564389,
      "fuels": {
        "gazole": 1.669,
        "sp95": 1.629,
        "sp98": 1.769
      }
    },
    {
      "id": "11589",
      "cp": "12591",
      "ville": "Llosa (la)",
      "adresse": "Autovia A-7 Salida 289 Enlace Cv-2311 km. 289",
      "brand": "Repsol",
      "lat": 39.77375,
      "lng": -0.226389,
      "fuels": {
        "gazole": 1.749,
        "sp95": 1.689,
        "sp98": 1.849
      }
    },
    {
      "id": "16148",
      "cp": "12312",
      "ville": "Lomas (las)",
      "adresse": "Poligono 13, 73",
      "brand": "Foresma Desarrollos Sl",
      "lat": 40.639972,
      "lng": -0.337667,
      "fuels": {
        "gazole": 1.67,
        "sp95": 1.592
      }
    },
    {
      "id": "3587",
      "cp": "12120",
      "ville": "Lucena Del Cid",
      "adresse": "Carretera C-232 km. 38,10",
      "brand": "Lucena",
      "lat": 40.135528,
      "lng": -0.280583,
      "fuels": {
        "gazole": 1.725,
        "sp95": 1.629,
        "sp98": 1.809
      }
    },
    {
      "id": "12102",
      "cp": "12594",
      "ville": "Marina D'or",
      "adresse": "Avenida barcelona, S/N",
      "brand": "Autoil Oropesa ",
      "lat": 40.108139,
      "lng": 0.149556,
      "fuels": {
        "gazole": 1.777,
        "sp95": 1.637
      }
    },
    {
      "id": "12927",
      "cp": "12593",
      "ville": "Moncofa",
      "adresse": "Calle segorbe, 3",
      "brand": "Carburantes Cooperativos",
      "lat": 39.810472,
      "lng": -0.152194,
      "fuels": {
        "gazole": 1.599,
        "sp95": 1.55
      }
    },
    {
      "id": "3501",
      "cp": "12593",
      "ville": "Moncofa",
      "adresse": "Cl Cami La Vall  S/N",
      "brand": "Bp Moncofar",
      "lat": 39.810333,
      "lng": -0.1525,
      "fuels": {
        "gazole": 1.719,
        "sp95": 1.655,
        "sp98": 1.795
      }
    },
    {
      "id": "3486",
      "cp": "12448",
      "ville": "Montanejos",
      "adresse": "Cr Cs-211, 18 (cs-211 Km 18,2)",
      "brand": "Carla",
      "lat": 40.064833,
      "lng": -0.528583,
      "fuels": {
        "gazole": 1.589,
        "sp95": 1.549
      }
    },
    {
      "id": "3637",
      "cp": "12300",
      "ville": "Morella",
      "adresse": "Carretera N-232 km. 63,5",
      "brand": "Petronor",
      "lat": 40.609611,
      "lng": -0.094556,
      "fuels": {
        "gazole": 1.729,
        "sp95": 1.659
      }
    },
    {
      "id": "14492",
      "cp": "12520",
      "ville": "Nules",
      "adresse": "Calle B S/n. sec. Indus nº2 pol. La mina, 2",
      "brand": "Bdmed",
      "lat": 39.826583,
      "lng": -0.173,
      "fuels": {
        "gazole": 1.509,
        "sp95": 1.449
      }
    },
    {
      "id": "3464",
      "cp": "12520",
      "ville": "Nules",
      "adresse": "Carretera Cs 220 km. 1,2",
      "brand": "Repsol",
      "lat": 39.856528,
      "lng": -0.168,
      "fuels": {
        "gazole": 1.745,
        "sp95": 1.655,
        "sp98": 1.835
      }
    },
    {
      "id": "3498",
      "cp": "12520",
      "ville": "Nules",
      "adresse": "Carretera cv226 km. 26,6",
      "brand": "Galp",
      "lat": 39.841444,
      "lng": -0.180583,
      "fuels": {
        "gazole": 1.689,
        "sp95": 1.609
      }
    },
    {
      "id": "3499",
      "cp": "12520",
      "ville": "Nules",
      "adresse": "Carretera cv226 km. 26,6",
      "brand": "Galp",
      "lat": 39.841639,
      "lng": -0.180861,
      "fuels": {
        "gazole": 1.749,
        "sp95": 1.659
      }
    },
    {
      "id": "3491",
      "cp": "12520",
      "ville": "Nules",
      "adresse": "Carretera N-340 km. 957",
      "brand": "Cepsa",
      "lat": 39.857694,
      "lng": -0.151028,
      "fuels": {
        "gazole": 1.719,
        "sp95": 1.659
      }
    },
    {
      "id": "12064",
      "cp": "12520",
      "ville": "Nules",
      "adresse": "Diseminado Senda michana, S/N",
      "brand": "Cooperativa Sant Josep",
      "lat": 39.852389,
      "lng": -0.150417,
      "fuels": {
        "gazole": 1.746,
        "sp95": 1.656,
        "sp98": 1.756
      }
    },
    {
      "id": "12524",
      "cp": "12200",
      "ville": "Onda",
      "adresse": "Avenida Castilla La mancha, 7",
      "brand": "Ondamita Oil",
      "lat": 39.966111,
      "lng": -0.247389,
      "fuels": {
        "gazole": 1.495,
        "sp95": 1.399
      }
    },
    {
      "id": "1956",
      "cp": "12200",
      "ville": "Onda",
      "adresse": "Avenida Del mediterraneo, S/N",
      "brand": "Carrefour",
      "lat": 39.964611,
      "lng": -0.251056,
      "fuels": {
        "gazole": 1.389,
        "sp95": 1.349,
        "sp98": 1.759
      }
    },
    {
      "id": "10260",
      "cp": "12200",
      "ville": "Onda",
      "adresse": "Avenida Manuel escobedo, 20",
      "brand": "Cepsa",
      "lat": 39.970722,
      "lng": -0.243417,
      "fuels": {
        "gazole": 1.55,
        "sp95": 1.565
      }
    },
    {
      "id": "3505",
      "cp": "12200",
      "ville": "Onda",
      "adresse": "Avenida mediterrani, 34",
      "brand": "Moeve",
      "lat": 39.96425,
      "lng": -0.247722,
      "fuels": {
        "gazole": 1.679,
        "sp95": 1.629,
        "sp98": 1.789
      }
    },
    {
      "id": "3508",
      "cp": "12200",
      "ville": "Onda",
      "adresse": "Avenida Pais valencia, 34",
      "brand": "Cepsa",
      "lat": 39.965333,
      "lng": -0.260417,
      "fuels": {
        "gazole": 1.55,
        "sp95": 1.565
      }
    },
    {
      "id": "12114",
      "cp": "12200",
      "ville": "Onda",
      "adresse": "Avenida Real De extremadura, 9",
      "brand": "Road Runner",
      "lat": 39.963833,
      "lng": -0.230583,
      "fuels": {
        "gazole": 1.489,
        "sp95": 1.439
      }
    },
    {
      "id": "15421",
      "cp": "12200",
      "ville": "Onda",
      "adresse": "Calle ecuador, 31",
      "brand": "Transportes travill, s.l.",
      "lat": 39.978,
      "lng": -0.15825,
      "fuels": {
        "gazole": 1.779
      }
    },
    {
      "id": "15816",
      "cp": "12200",
      "ville": "Onda",
      "adresse": "Calle Lucena Del cid, 12",
      "brand": "Plenergy",
      "lat": 39.967833,
      "lng": -0.251639,
      "fuels": {
        "gazole": 1.495,
        "sp95": 1.369
      }
    },
    {
      "id": "14535",
      "cp": "12200",
      "ville": "Onda",
      "adresse": "Calle uruguay, 40",
      "brand": "Rallo",
      "lat": 39.987167,
      "lng": -0.141139,
      "fuels": {
        "gazole": 1.505
      }
    },
    {
      "id": "14702",
      "cp": "12200",
      "ville": "Onda",
      "adresse": "Camino Corral De diago, 4",
      "brand": "Bonarea",
      "lat": 39.954944,
      "lng": -0.202056,
      "fuels": {
        "gazole": 1.495,
        "sp95": 1.373
      }
    },
    {
      "id": "11776",
      "cp": "12200",
      "ville": "Onda",
      "adresse": "Carretera Cv 20 Onda-Vila Real (carrer De Vila-real) km. 1",
      "brand": "Confort Auto",
      "lat": 39.956556,
      "lng": -0.209667,
      "fuels": {
        "gazole": 1.493,
        "sp95": 1.495,
        "sp98": 1.699
      }
    },
    {
      "id": "3494",
      "cp": "12200",
      "ville": "Onda",
      "adresse": "Carretera Cv-20 km. 10,2",
      "brand": "Repsol",
      "lat": 39.952167,
      "lng": -0.186056,
      "fuels": {
        "gazole": 1.735,
        "sp95": 1.639
      }
    },
    {
      "id": "3480",
      "cp": "12594",
      "ville": "Oropesa",
      "adresse": "avda.de La plana, 3-5",
      "brand": "Galp",
      "lat": 40.091611,
      "lng": 0.13175,
      "fuels": {
        "sp95": 1.619,
        "sp98": 1.759
      }
    },
    {
      "id": "14051",
      "cp": "12200",
      "ville": "Pantano Del Sichar",
      "adresse": "Calle mejico, 7",
      "brand": "Gmr",
      "lat": 39.981361,
      "lng": -0.156861,
      "fuels": {
        "gazole": 1.54,
        "sp95": 1.85
      }
    },
    {
      "id": "1965",
      "cp": "12598",
      "ville": "Peñiscola",
      "adresse": "Calle estacion, S/N",
      "brand": "Repsol",
      "lat": 40.361139,
      "lng": 0.397111,
      "fuels": {
        "gazole": 1.739,
        "sp95": 1.619
      }
    },
    {
      "id": "13976",
      "cp": "12598",
      "ville": "Peñiscola",
      "adresse": "Carretera De Peñiscola A Benicarlo esq. Cami La Volta km. S/N",
      "brand": "Vcc Peñiscola",
      "lat": 40.393444,
      "lng": 0.407472,
      "fuels": {
        "gazole": 1.494,
        "sp95": 1.494
      }
    },
    {
      "id": "15136",
      "cp": "12598",
      "ville": "Peñiscola",
      "adresse": "Lugar Esquina Carretera De La Estacion (cv141) Con Carretera Vieja De Benicarlo (cv140), S/N",
      "brand": "Bonarea",
      "lat": 40.368278,
      "lng": 0.393528,
      "fuels": {
        "gazole": 1.492,
        "sp95": 1.37
      }
    },
    {
      "id": "11896",
      "cp": "12191",
      "ville": "Pobla Tornesa (la)",
      "adresse": "Autovia cv10 Salida 33 km. 33",
      "brand": "Repsol",
      "lat": 40.105333,
      "lng": 0.008472,
      "fuels": {
        "gazole": 1.775,
        "sp95": 1.699,
        "sp98": 1.798,
        "gplc": 1.199
      }
    },
    {
      "id": "10745",
      "cp": "12595",
      "ville": "Ribera De cabanes, La",
      "adresse": "Carretera Nacional 340 km. 1000",
      "brand": "La Ribera De Cabanes",
      "lat": 40.134694,
      "lng": 0.149306,
      "fuels": {
        "gazole": 1.719,
        "sp95": 1.625,
        "sp98": 1.765
      }
    },
    {
      "id": "11184",
      "cp": "12210",
      "ville": "Ribesalbes",
      "adresse": "Avenida onda, 46",
      "brand": "Gasoelectric Low Cost",
      "lat": 40.018861,
      "lng": -0.277694,
      "fuels": {
        "gazole": 1.369,
        "sp95": 1.359
      }
    },
    {
      "id": "3461",
      "cp": "12510",
      "ville": "San Rafael Del Rio",
      "adresse": "Cl Salvador pons, 30",
      "brand": "Repsol",
      "lat": 40.604417,
      "lng": 0.348917,
      "fuels": {
        "gazole": 1.759,
        "sp95": 1.689,
        "sp98": 1.899
      }
    },
    {
      "id": "3698",
      "cp": "12130",
      "ville": "Sant Joan De Moro",
      "adresse": "Cr Cv-16  p.k. 8",
      "brand": "Repsol",
      "lat": 40.040972,
      "lng": -0.152139,
      "fuels": {
        "gazole": 1.725,
        "sp95": 1.625,
        "sp98": 1.805
      }
    },
    {
      "id": "9032",
      "cp": "12130",
      "ville": "Sant Joan De Moro",
      "adresse": "Partida Rachina S/N",
      "brand": "coop.san Juan De San Juan De Moro",
      "lat": 40.054028,
      "lng": -0.141833,
      "fuels": {
        "gazole": 1.539,
        "sp95": 1.549
      }
    },
    {
      "id": "3532",
      "cp": "12170",
      "ville": "Sant Mateu",
      "adresse": "Avenida constitucion, 50, 1",
      "brand": "Repsol",
      "lat": 40.458194,
      "lng": 0.179944,
      "fuels": {
        "gazole": 1.769,
        "sp95": 1.719,
        "sp98": 1.889
      }
    },
    {
      "id": "3645",
      "cp": "12597",
      "ville": "Santa Magdalena De Pulpis",
      "adresse": "Carretera N-340 km. 1031",
      "brand": "Es Zaragoza",
      "lat": 40.359972,
      "lng": 0.3035,
      "fuels": {
        "gazole": 1.55,
        "sp95": 1.535,
        "sp98": 1.649
      }
    },
    {
      "id": "3502",
      "cp": "12400",
      "ville": "Segorbe",
      "adresse": "Avenida españa, 181",
      "brand": "Galp",
      "lat": 39.847806,
      "lng": -0.493972,
      "fuels": {
        "gazole": 1.759,
        "sp95": 1.639
      }
    },
    {
      "id": "12720",
      "cp": "12400",
      "ville": "Segorbe",
      "adresse": "Avenida mediterraneo, 18",
      "brand": "Autoil Segorbe",
      "lat": 39.844333,
      "lng": -0.479667,
      "fuels": {
        "gazole": 1.777,
        "sp95": 1.637
      }
    },
    {
      "id": "16251",
      "cp": "12400",
      "ville": "Segorbe",
      "adresse": "Avenida mediterraneo, 2",
      "brand": "Gasexpress Segorbe",
      "lat": 39.845444,
      "lng": -0.482278,
      "fuels": {
        "gazole": 1.549,
        "sp95": 1.479
      }
    },
    {
      "id": "3522",
      "cp": "12400",
      "ville": "Segorbe",
      "adresse": "Avenida mediterraneo, S/N",
      "brand": "Petronor",
      "lat": 39.84175,
      "lng": -0.475833,
      "fuels": {
        "gazole": 1.769,
        "sp95": 1.659,
        "sp98": 1.839,
        "gplc": 1.095
      }
    },
    {
      "id": "3628",
      "cp": "12400",
      "ville": "Segorbe",
      "adresse": "Cl Avenida Navarro reverter, 10",
      "brand": "q8",
      "lat": 39.849972,
      "lng": -0.486611,
      "fuels": {
        "gazole": 1.689,
        "sp95": 1.589
      }
    },
    {
      "id": "12100",
      "cp": "12480",
      "ville": "Soneja",
      "adresse": "Carretera Teruel km. 24",
      "brand": "Transportes Rodolfo Y Ventura",
      "lat": 39.811278,
      "lng": -0.428222,
      "fuels": {
        "gazole": 1.56,
        "sp95": 1.444
      }
    },
    {
      "id": "9021",
      "cp": "12480",
      "ville": "Soneja",
      "adresse": "Carretera teruel, S/N km. 0",
      "brand": "coop. nª sª De La Asuncion De Soneja",
      "lat": 39.813056,
      "lng": -0.430833,
      "fuels": {
        "gazole": 1.51,
        "sp95": 1.445
      }
    },
    {
      "id": "3646",
      "cp": "12489",
      "ville": "Sot De Ferrer",
      "adresse": "Carretera Sagunto-Burgos km. 19,6",
      "brand": "Repsol",
      "lat": 39.782917,
      "lng": -0.39375,
      "fuels": {
        "gazole": 1.769,
        "sp95": 1.659,
        "sp98": 1.789
      }
    },
    {
      "id": "3619",
      "cp": "12596",
      "ville": "Torreblanca",
      "adresse": "Carretera N-340 km. 1011,6",
      "brand": "Repsol",
      "lat": 40.221889,
      "lng": 0.201167,
      "fuels": {
        "gazole": 1.765,
        "sp95": 1.639,
        "sp98": 1.819
      }
    },
    {
      "id": "3617",
      "cp": "12596",
      "ville": "Torreblanca",
      "adresse": "N-340 Km 1011,6",
      "brand": "Repsol",
      "lat": 40.222083,
      "lng": 0.201056,
      "fuels": {
        "gazole": 1.765,
        "sp95": 1.639
      }
    },
    {
      "id": "9019",
      "cp": "12194",
      "ville": "Vall D'alba",
      "adresse": "Avenida vilafranca, 66",
      "brand": "coop. Agraria San Isidro De Vall d'alba, coop.v.",
      "lat": 40.178306,
      "lng": -0.033583,
      "fuels": {
        "gazole": 1.58,
        "sp95": 1.5
      }
    },
    {
      "id": "3563",
      "cp": "12194",
      "ville": "Vall D'alba",
      "adresse": "Cv-15 Km 11,4",
      "brand": "Repsol",
      "lat": 40.192639,
      "lng": -0.045389,
      "fuels": {
        "gazole": 1.775,
        "sp95": 1.699,
        "sp98": 1.798
      }
    },
    {
      "id": "3622",
      "cp": "12600",
      "ville": "Vall D'uixo (la)",
      "adresse": "Avenida Corazon De jesus, 170",
      "brand": "Bp Vall D'uxo",
      "lat": 39.822556,
      "lng": -0.221278,
      "fuels": {
        "gazole": 1.719,
        "sp95": 1.655,
        "sp98": 1.795
      }
    },
    {
      "id": "16364",
      "cp": "12600",
      "ville": "Vall D'uixo (la)",
      "adresse": "Avenida De europa, 7",
      "brand": "Petroprix",
      "lat": 39.814472,
      "lng": -0.229389,
      "fuels": {
        "gazole": 1.489,
        "sp95": 1.439
      }
    },
    {
      "id": "3630",
      "cp": "12600",
      "ville": "Vall D'uixo (la)",
      "adresse": "Avenida Jaime i, ",
      "brand": "Bp El Pont",
      "lat": 39.818583,
      "lng": -0.233306,
      "fuels": {
        "gazole": 1.709,
        "sp95": 1.649,
        "sp98": 1.779
      }
    },
    {
      "id": "13133",
      "cp": "12600",
      "ville": "Vall D'uixo (la)",
      "adresse": "Avinguda europa, 15",
      "brand": "Gasexpress",
      "lat": 39.811556,
      "lng": -0.227333,
      "fuels": {
        "gazole": 1.499,
        "sp95": 1.439
      }
    },
    {
      "id": "3671",
      "cp": "12600",
      "ville": "Vall D'uixo (la)",
      "adresse": "Calle andalucia, 32",
      "brand": "Bp",
      "lat": 39.827833,
      "lng": -0.22525,
      "fuels": {
        "gazole": 1.669,
        "sp95": 1.629,
        "sp98": 1.759
      }
    },
    {
      "id": "11725",
      "cp": "12600",
      "ville": "Vall D'uixo (la)",
      "adresse": "Calle Ciutat De lalguer, 15",
      "brand": "coop. Isidro La Vall",
      "lat": 39.821806,
      "lng": -0.212472,
      "fuels": {
        "gazole": 1.599,
        "sp95": 1.549,
        "sp98": 1.699
      }
    },
    {
      "id": "15022",
      "cp": "12600",
      "ville": "Vall D'uixo (la)",
      "adresse": "Calle Molino marco, 21",
      "brand": "Plenergy",
      "lat": 39.822306,
      "lng": -0.218639,
      "fuels": {
        "gazole": 1.489,
        "sp95": 1.439
      }
    },
    {
      "id": "3513",
      "cp": "12600",
      "ville": "Vall D'uixo (la)",
      "adresse": "Cr C-225, 23,3",
      "brand": "Randero",
      "lat": 39.8245,
      "lng": -0.212722,
      "fuels": {
        "gazole": 1.69,
        "sp95": 1.656
      }
    },
    {
      "id": "1952",
      "cp": "12600",
      "ville": "Vall D'uixo (la)",
      "adresse": "Parque Comercial cincovall, 5",
      "brand": "Vcc La Vall",
      "lat": 39.8155,
      "lng": -0.230278,
      "fuels": {
        "gazole": 1.494,
        "sp95": 1.494
      }
    },
    {
      "id": "9030",
      "cp": "12192",
      "ville": "Vilafames",
      "adresse": "Carrer San miguel, 87",
      "brand": "coop. San Isidro De Vilafames",
      "lat": 40.118417,
      "lng": -0.051806,
      "fuels": {
        "gazole": 1.66,
        "sp95": 1.562
      }
    },
    {
      "id": "12050",
      "cp": "12526",
      "ville": "Vilavella (la)",
      "adresse": "Carretera Vall Duixó km. 1",
      "brand": "Cooperativa Agricola Sant Josep",
      "lat": 39.855306,
      "lng": -0.185556,
      "fuels": {
        "gazole": 1.489,
        "sp95": 1.459
      }
    },
    {
      "id": "8263",
      "cp": "12150",
      "ville": "Villafranca Del Cid",
      "adresse": "Avinguda De castello, 96",
      "brand": "Cepsa",
      "lat": 40.432028,
      "lng": -0.251444,
      "fuels": {
        "gazole": 1.759,
        "sp95": 1.689
      }
    },
    {
      "id": "1909",
      "cp": "12540",
      "ville": "Villarreal",
      "adresse": "avda. De francia, 62-66",
      "brand": "Repsol",
      "lat": 39.938611,
      "lng": -0.091583,
      "fuels": {
        "gazole": 1.745,
        "sp95": 1.649,
        "sp98": 1.819
      }
    },
    {
      "id": "1961",
      "cp": "12540",
      "ville": "Villarreal",
      "adresse": "Avenida Av Italia S/n, ",
      "brand": "Petroprix",
      "lat": 39.930528,
      "lng": -0.107389,
      "fuels": {
        "gazole": 1.489,
        "sp95": 1.369
      }
    },
    {
      "id": "8893",
      "cp": "12540",
      "ville": "Villarreal",
      "adresse": "Avenida castello, 75",
      "brand": "Cooperativa Catolico Agraria coop.v.",
      "lat": 39.947944,
      "lng": -0.089444,
      "fuels": {
        "gazole": 1.509,
        "sp95": 1.489,
        "gplc": 1.099
      }
    },
    {
      "id": "3543",
      "cp": "12540",
      "ville": "Villarreal",
      "adresse": "Avenida castellon, 33",
      "brand": "Moeve",
      "lat": 39.945861,
      "lng": -0.094444,
      "fuels": {
        "gazole": 1.589,
        "sp95": 1.577,
        "sp98": 1.774
      }
    },
    {
      "id": "13124",
      "cp": "12540",
      "ville": "Villarreal",
      "adresse": "Avenida castellón, 54",
      "brand": "Gasexpress",
      "lat": 39.9465,
      "lng": -0.091861,
      "fuels": {
        "gazole": 1.499,
        "sp95": 1.419
      }
    },
    {
      "id": "16102",
      "cp": "12540",
      "ville": "Villarreal",
      "adresse": "Avenida europa, 1",
      "brand": "Plenergy",
      "lat": 39.931917,
      "lng": -0.098167,
      "fuels": {
        "gazole": 1.489,
        "sp95": 1.369
      }
    },
    {
      "id": "13138",
      "cp": "12540",
      "ville": "Villarreal",
      "adresse": "Avenida italia, 58",
      "brand": "Petroprix",
      "lat": 39.932306,
      "lng": -0.109222,
      "fuels": {
        "gazole": 1.489,
        "sp95": 1.369
      }
    },
    {
      "id": "1953",
      "cp": "12540",
      "ville": "Villarreal",
      "adresse": "Avenida Matilde salvador, S/N",
      "brand": "Carrefour",
      "lat": 39.929528,
      "lng": -0.105139,
      "fuels": {
        "gazole": 1.489,
        "sp95": 1.479,
        "sp98": 1.759
      }
    },
    {
      "id": "14486",
      "cp": "12540",
      "ville": "Villarreal",
      "adresse": "Carrer De l'ermita, 256",
      "brand": "Red Car Oil",
      "lat": 39.952611,
      "lng": -0.110833,
      "fuels": {
        "gazole": 1.499,
        "sp95": 1.387
      }
    },
    {
      "id": "12871",
      "cp": "12540",
      "ville": "Villarreal",
      "adresse": "Carretera Burriana km. 80",
      "brand": "Bp Vehicles-Villa Real",
      "lat": 39.92975,
      "lng": -0.097556,
      "fuels": {
        "gazole": 1.719,
        "sp95": 1.645,
        "sp98": 1.785
      }
    },
    {
      "id": "3556",
      "cp": "12540",
      "ville": "Villarreal",
      "adresse": "Carretera N-340 Valencia-Barcelona km. 60,7",
      "brand": "Bonarea",
      "lat": 39.949861,
      "lng": -0.085083,
      "fuels": {
        "gazole": 1.494,
        "sp95": 1.371
      }
    },
    {
      "id": "3702",
      "cp": "12540",
      "ville": "Villarreal",
      "adresse": "Carretera Onda Numero 11 km. 0",
      "brand": "Bp Villareal Grupo Maicas Peiro s.l.u.",
      "lat": 39.942444,
      "lng": -0.109639,
      "fuels": {
        "gazole": 1.709,
        "sp95": 1.639,
        "sp98": 1.779
      }
    },
    {
      "id": "10259",
      "cp": "12540",
      "ville": "Villarreal",
      "adresse": "Viver-Pto Burriana Km 65,3",
      "brand": "Cepsa",
      "lat": 39.943333,
      "lng": -0.116528,
      "fuels": {
        "gazole": 1.619,
        "sp95": 1.597
      }
    },
    {
      "id": "3489",
      "cp": "12500",
      "ville": "Vinaros",
      "adresse": "Avenida castellon, 30",
      "brand": "Plenergy",
      "lat": 40.46325,
      "lng": 0.464083,
      "fuels": {
        "gazole": 1.479,
        "sp95": 1.359
      }
    },
    {
      "id": "12824",
      "cp": "12500",
      "ville": "Vinaros",
      "adresse": "Calle dauradors, 8",
      "brand": "Gasexpress Vinaroz",
      "lat": 40.455333,
      "lng": 0.452861,
      "fuels": {
        "gazole": 1.479,
        "sp95": 1.399
      }
    },
    {
      "id": "15889",
      "cp": "12500",
      "ville": "Vinaros",
      "adresse": "Calle Dels dauradors, 16",
      "brand": "Gm Oil ",
      "lat": 40.45675,
      "lng": 0.45,
      "fuels": {
        "gazole": 1.439,
        "sp95": 1.389
      }
    },
    {
      "id": "16496",
      "cp": "12500",
      "ville": "Vinaros",
      "adresse": "Calle santaella, 30",
      "brand": "Bonarea",
      "lat": 40.464056,
      "lng": 0.4645,
      "fuels": {
        "gazole": 1.492,
        "sp95": 1.37
      }
    },
    {
      "id": "3654",
      "cp": "12500",
      "ville": "Vinaros",
      "adresse": "Carretera N 340 km. 142,20",
      "brand": "Moeve",
      "lat": 40.468389,
      "lng": 0.464278,
      "fuels": {
        "gazole": 1.738,
        "sp95": 1.64
      }
    },
    {
      "id": "10627",
      "cp": "12500",
      "ville": "Vinaros",
      "adresse": "Carretera N-340 km. 1051",
      "brand": "Moeve",
      "lat": 40.468889,
      "lng": 0.465139,
      "fuels": {
        "gazole": 1.738,
        "sp95": 1.64,
        "sp98": 1.862
      }
    },
    {
      "id": "1939",
      "cp": "12500",
      "ville": "Vinaros",
      "adresse": "Carretera N-340 km. 1053",
      "brand": "Family Energy",
      "lat": 40.483778,
      "lng": 0.475167,
      "fuels": {
        "gazole": 1.319,
        "sp95": 1.319,
        "sp98": 1.459
      }
    },
    {
      "id": "1954",
      "cp": "12500",
      "ville": "Vinaros",
      "adresse": "Carretera Nacional 340 A Plan Parcial 1 km. 1049",
      "brand": "Carrefour",
      "lat": 40.455167,
      "lng": 0.451944,
      "fuels": {
        "gazole": 1.499,
        "sp95": 1.469,
        "sp98": 1.769
      }
    },
    {
      "id": "15927",
      "cp": "12500",
      "ville": "Vinaros",
      "adresse": "Carretera Valencia - Barcelona km. 37",
      "brand": "Plenergy",
      "lat": 40.481667,
      "lng": 0.473333,
      "fuels": {
        "gazole": 1.479,
        "sp95": 1.359
      }
    },
    {
      "id": "15924",
      "cp": "12500",
      "ville": "Vinaros",
      "adresse": "Carretera Valencia-Barcelona km. 60",
      "brand": "Plenergy",
      "lat": 40.481444,
      "lng": 0.473528,
      "fuels": {
        "gazole": 1.479,
        "sp95": 1.359
      }
    },
    {
      "id": "10104",
      "cp": "12135",
      "ville": "Vistabella Del Maestrazgo",
      "adresse": "Avenida castellon, S/N",
      "brand": "Repsol",
      "lat": 40.2945,
      "lng": -0.289667,
      "fuels": {
        "gazole": 1.834,
        "sp95": 1.839
      }
    },
    {
      "id": "9033",
      "cp": "12460",
      "ville": "Viver",
      "adresse": "C/ abadia, nº 4",
      "brand": "Cooperativa De Viver",
      "lat": 39.919361,
      "lng": -0.594361,
      "fuels": {
        "gazole": 1.529,
        "sp95": 1.499
      }
    }
  ]
}