{
  "code": "23",
  "name": "Jaén",
  "regionCode": "AND",
  "regionName": "Andalucía",
  "asOf": "2026-06-04T18:09:05.647Z",
  "source": "https://sedeaplicaciones.minetur.gob.es/ServiciosRESTCarburantes/PreciosCarburantes/EstacionesTerrestres/",
  "stationCount": 211,
  "fuels": {
    "gazole": {
      "count": 211,
      "mean": 1.6558,
      "median": 1.669,
      "min": 1.455,
      "max": 1.809
    },
    "sp95": {
      "count": 207,
      "mean": 1.5373,
      "median": 1.548,
      "min": 1.375,
      "max": 1.669
    },
    "sp98": {
      "count": 80,
      "mean": 1.7089,
      "median": 1.709,
      "min": 1.399,
      "max": 2.299
    },
    "gplc": {
      "count": 14,
      "mean": 1.0196,
      "median": 0.999,
      "min": 0.899,
      "max": 1.229
    }
  },
  "stations": [
    {
      "id": "16283",
      "cp": "23210",
      "ville": "Adelfar",
      "adresse": "Avenida Linares - Poligono Industrial guadiel, 168",
      "brand": "Moeve",
      "lat": 38.150806,
      "lng": -3.718389,
      "fuels": {
        "gazole": 1.705
      }
    },
    {
      "id": "16354",
      "cp": "23680",
      "ville": "Alcala La Real",
      "adresse": "Avenida andalucia, 97",
      "brand": "Moeve ",
      "lat": 37.450028,
      "lng": -3.920556,
      "fuels": {
        "gazole": 1.619,
        "sp95": 1.529
      }
    },
    {
      "id": "14614",
      "cp": "23680",
      "ville": "Alcala La Real",
      "adresse": "Calle genil, 2",
      "brand": "Petroprix",
      "lat": 37.447417,
      "lng": -3.916333,
      "fuels": {
        "gazole": 1.559,
        "sp95": 1.455
      }
    },
    {
      "id": "5552",
      "cp": "23680",
      "ville": "Alcala La Real",
      "adresse": "Carretera De Jaen km. 8",
      "brand": "q8",
      "lat": 37.467667,
      "lng": -3.927611,
      "fuels": {
        "gazole": 1.639,
        "sp95": 1.499,
        "sp98": 1.639
      }
    },
    {
      "id": "11932",
      "cp": "23680",
      "ville": "Alcala La Real",
      "adresse": "Carretera nac. 432; Cruce crta. Comarcal 335 km. 0",
      "brand": "Shell",
      "lat": 37.452417,
      "lng": -3.935167,
      "fuels": {
        "gazole": 1.629,
        "sp95": 1.519,
        "sp98": 1.629
      }
    },
    {
      "id": "6877",
      "cp": "23680",
      "ville": "Alcala La Real",
      "adresse": "Cl Avda andalucia, s.n.",
      "brand": "Repsol",
      "lat": 37.451,
      "lng": -3.920639,
      "fuels": {
        "gazole": 1.689,
        "sp95": 1.555,
        "sp98": 1.715
      }
    },
    {
      "id": "6754",
      "cp": "23680",
      "ville": "Alcala La Real",
      "adresse": "Cr Cn-432 Km 393.5",
      "brand": "Bp",
      "lat": 37.422667,
      "lng": -3.872389,
      "fuels": {
        "gazole": 1.659,
        "sp95": 1.589,
        "sp98": 1.729
      }
    },
    {
      "id": "6767",
      "cp": "23660",
      "ville": "Alcaudete",
      "adresse": "Avenida De andalucia, 45",
      "brand": "Shell",
      "lat": 37.591139,
      "lng": -4.078222,
      "fuels": {
        "gazole": 1.689,
        "sp95": 1.509,
        "gplc": 1.009
      }
    },
    {
      "id": "5729",
      "cp": "23660",
      "ville": "Alcaudete",
      "adresse": "Calle Alcalde Fernando tejero, S/N",
      "brand": "Repsol",
      "lat": 37.587417,
      "lng": -4.080944,
      "fuels": {
        "gazole": 1.709,
        "sp95": 1.529
      }
    },
    {
      "id": "5747",
      "cp": "23660",
      "ville": "Alcaudete",
      "adresse": "Carretera Int a316 n432 km. 103",
      "brand": "Cepsa",
      "lat": 37.587833,
      "lng": -4.13125,
      "fuels": {
        "gazole": 1.719,
        "sp95": 1.539,
        "sp98": 1.739
      }
    },
    {
      "id": "10550",
      "cp": "23660",
      "ville": "Alcaudete",
      "adresse": "Carretera nal.432 km.367.950",
      "brand": "Gcl",
      "lat": 37.543833,
      "lng": -4.024389,
      "fuels": {
        "gazole": 1.599,
        "sp95": 1.459
      }
    },
    {
      "id": "14639",
      "cp": "23267",
      "ville": "Aldeahermosa",
      "adresse": "Carretera Castellar-Aldeahermosa km. 0,5",
      "brand": "Estación De Servicio Aceites Aldeahermosa",
      "lat": 38.324583,
      "lng": -3.123722,
      "fuels": {
        "gazole": 1.599,
        "sp95": 1.499
      }
    },
    {
      "id": "6770",
      "cp": "23740",
      "ville": "Andujar",
      "adresse": "Autovia A-4 km. 316,7",
      "brand": "Moeve",
      "lat": 38.043667,
      "lng": -3.984889,
      "fuels": {
        "gazole": 1.739,
        "sp95": 1.553
      }
    },
    {
      "id": "10425",
      "cp": "23740",
      "ville": "Andujar",
      "adresse": "Autovia E-5/A-4 km. 326",
      "brand": "El Balcon De Andalucia",
      "lat": 38.029472,
      "lng": -4.079778,
      "fuels": {
        "gazole": 1.729,
        "sp95": 1.569,
        "sp98": 1.679,
        "gplc": 0.959
      }
    },
    {
      "id": "16091",
      "cp": "23740",
      "ville": "Andujar",
      "adresse": "Avenida andalucía, 8",
      "brand": "Petroprix",
      "lat": 38.033167,
      "lng": -4.055667,
      "fuels": {
        "gazole": 1.539,
        "sp95": 1.449
      }
    },
    {
      "id": "5553",
      "cp": "23740",
      "ville": "Andujar",
      "adresse": "Avenida avda. Blas Infante S/n, ",
      "brand": "q8",
      "lat": 38.039361,
      "lng": -4.039583,
      "fuels": {
        "gazole": 1.559,
        "sp95": 1.479,
        "sp98": 1.579
      }
    },
    {
      "id": "6429",
      "cp": "23740",
      "ville": "Andujar",
      "adresse": "Avenida Blas infante, 14",
      "brand": "Carrefour",
      "lat": 38.038917,
      "lng": -4.038389,
      "fuels": {
        "gazole": 1.549,
        "sp95": 1.479,
        "sp98": 1.599
      }
    },
    {
      "id": "6531",
      "cp": "23740",
      "ville": "Andujar",
      "adresse": "Avenida Blas infante, S/n, p.e. europa, S/N",
      "brand": "e.s. Europa",
      "lat": 38.047833,
      "lng": -4.040694,
      "fuels": {
        "gazole": 1.549,
        "sp95": 1.479,
        "sp98": 1.659
      }
    },
    {
      "id": "13745",
      "cp": "23740",
      "ville": "Andujar",
      "adresse": "Avenida bruselas, 7",
      "brand": "Autonetoil",
      "lat": 38.036306,
      "lng": -4.038361,
      "fuels": {
        "gazole": 1.559,
        "sp95": 1.459
      }
    },
    {
      "id": "7025",
      "cp": "23740",
      "ville": "Andujar",
      "adresse": "Camino Del Cementerio Km 5",
      "brand": "e.s. Iliturgi",
      "lat": 38.044028,
      "lng": -4.057583,
      "fuels": {
        "gazole": 1.679,
        "sp95": 1.579
      }
    },
    {
      "id": "12576",
      "cp": "23740",
      "ville": "Andujar",
      "adresse": "Carretera A-311 km. 35,000",
      "brand": "e.s. Vegas De Triana",
      "lat": 38.021611,
      "lng": -4.053583,
      "fuels": {
        "gazole": 1.565,
        "sp95": 1.485
      }
    },
    {
      "id": "15804",
      "cp": "23740",
      "ville": "Andujar",
      "adresse": "Carretera Cr Madrid-Cadiz km. 324",
      "brand": "e.s. Los Marcos Areaparking 24h",
      "lat": 38.029972,
      "lng": -4.056278,
      "fuels": {
        "gazole": 1.539,
        "sp95": 1.499
      }
    },
    {
      "id": "5738",
      "cp": "23740",
      "ville": "Andujar",
      "adresse": "Paseo colon, S/N",
      "brand": "Repsol",
      "lat": 38.035583,
      "lng": -4.056778,
      "fuels": {
        "gazole": 1.699,
        "sp95": 1.565,
        "sp98": 1.685
      }
    },
    {
      "id": "6761",
      "cp": "23740",
      "ville": "Andujar",
      "adresse": "Poligono La ceca, 23",
      "brand": "Cepsa",
      "lat": 38.033917,
      "lng": -4.056306,
      "fuels": {
        "gazole": 1.739,
        "sp95": 1.619,
        "sp98": 1.769
      }
    },
    {
      "id": "6953",
      "cp": "23760",
      "ville": "Arjona",
      "adresse": "Carretera Andujar-Arjona km. 13,7",
      "brand": "Repsol",
      "lat": 37.938306,
      "lng": -4.066944,
      "fuels": {
        "gazole": 1.699,
        "sp95": 1.549
      }
    },
    {
      "id": "7032",
      "cp": "23750",
      "ville": "Arjonilla",
      "adresse": "C/Ctra arjona, Km 58,0",
      "brand": "Pozonuevo",
      "lat": 37.97175,
      "lng": -4.097167,
      "fuels": {
        "gazole": 1.729,
        "sp95": 1.599,
        "sp98": 1.729
      }
    },
    {
      "id": "6810",
      "cp": "23230",
      "ville": "Arquillos",
      "adresse": "Carretera A-312 km. 28",
      "brand": "Repsol",
      "lat": 38.183306,
      "lng": -3.37575,
      "fuels": {
        "gazole": 1.675,
        "sp95": 1.529
      }
    },
    {
      "id": "6935",
      "cp": "23340",
      "ville": "Arroyo Del Ojanco",
      "adresse": "Cr N-322, 215",
      "brand": "Repsol",
      "lat": 38.316806,
      "lng": -2.902083,
      "fuels": {
        "gazole": 1.675,
        "sp95": 1.535,
        "sp98": 1.695
      }
    },
    {
      "id": "6887",
      "cp": "23440",
      "ville": "Baeza",
      "adresse": "Avenida Puche pardo, S/N",
      "brand": "Repsol",
      "lat": 37.997722,
      "lng": -3.4575,
      "fuels": {
        "gazole": 1.689,
        "sp95": 1.569,
        "sp98": 1.719
      }
    },
    {
      "id": "7016",
      "cp": "23440",
      "ville": "Baeza",
      "adresse": "Calle guadalquivir, 1",
      "brand": "Shell",
      "lat": 37.992222,
      "lng": -3.479389,
      "fuels": {
        "gazole": 1.619,
        "sp95": 1.499,
        "sp98": 1.599
      }
    },
    {
      "id": "7029",
      "cp": "23440",
      "ville": "Baeza",
      "adresse": "Camino Viejo De Jaén S/N",
      "brand": "Oleicola Jaen s.a.",
      "lat": 37.986889,
      "lng": -3.479389,
      "fuels": {
        "gazole": 1.549
      }
    },
    {
      "id": "14052",
      "cp": "23440",
      "ville": "Baeza",
      "adresse": "Carretera 326 km. 12,1",
      "brand": "Bp Baeza-San Gonzalo",
      "lat": 38.002194,
      "lng": -3.479194,
      "fuels": {
        "gazole": 1.679,
        "sp95": 1.569,
        "sp98": 1.709,
        "gplc": 0.96
      }
    },
    {
      "id": "16306",
      "cp": "23440",
      "ville": "Baeza",
      "adresse": "Carretera Úbeda km. 0,5",
      "brand": "Ballenoil",
      "lat": 37.999694,
      "lng": -3.452917,
      "fuels": {
        "gazole": 1.539,
        "sp95": 1.429
      }
    },
    {
      "id": "11734",
      "cp": "23710",
      "ville": "Bailen",
      "adresse": "Autovia E-5/A-4 km. 288",
      "brand": "Bp Abades Bailen",
      "lat": 38.1435,
      "lng": -3.7285,
      "fuels": {
        "gazole": 1.689,
        "sp95": 1.569,
        "sp98": 1.709
      }
    },
    {
      "id": "5095",
      "cp": "23710",
      "ville": "Bailen",
      "adresse": "Avenida Madrid-cadiz, 295",
      "brand": "Area De Servicio El Delfin",
      "lat": 38.093694,
      "lng": -3.768889,
      "fuels": {
        "gazole": 1.699,
        "sp95": 1.569,
        "gplc": 1.229
      }
    },
    {
      "id": "6783",
      "cp": "23710",
      "ville": "Bailen",
      "adresse": "Carrera Nacional Iv Km 291, N",
      "brand": "Cepsa",
      "lat": 38.125806,
      "lng": -3.754722,
      "fuels": {
        "gazole": 1.703,
        "sp95": 1.583
      }
    },
    {
      "id": "14432",
      "cp": "23710",
      "ville": "Bailen",
      "adresse": "Carretera Antigua Carretera Madrid - Cadiz , Km - 84 km. 84",
      "brand": "Urban Oil",
      "lat": 38.090306,
      "lng": -3.782861,
      "fuels": {
        "gazole": 1.539,
        "sp95": 1.419
      }
    },
    {
      "id": "16371",
      "cp": "23710",
      "ville": "Bailen",
      "adresse": "Carretera Madrid-Cadiz km. 60",
      "brand": "Petroprix",
      "lat": 38.090722,
      "lng": -3.771528,
      "fuels": {
        "gazole": 1.499,
        "sp95": 1.399
      }
    },
    {
      "id": "6781",
      "cp": "23710",
      "ville": "Bailen",
      "adresse": "Carretera N-Iva km. 294",
      "brand": "Repsol",
      "lat": 38.097944,
      "lng": -3.76675,
      "fuels": {
        "gazole": 1.699,
        "sp95": 1.565
      }
    },
    {
      "id": "6751",
      "cp": "23710",
      "ville": "Bailen",
      "adresse": "Cr N-323   a, 0",
      "brand": "Repsol",
      "lat": 38.088833,
      "lng": -3.779111,
      "fuels": {
        "gazole": 1.705,
        "sp95": 1.575,
        "sp98": 1.725
      }
    },
    {
      "id": "11492",
      "cp": "23711",
      "ville": "Baños De La Encina",
      "adresse": "Carretera Baños - Linares S/N km. 0800",
      "brand": "Agla",
      "lat": 38.173083,
      "lng": -3.764611,
      "fuels": {
        "gazole": 1.629,
        "sp95": 1.559
      }
    },
    {
      "id": "5760",
      "cp": "23280",
      "ville": "Beas De Segura",
      "adresse": "Carretera Linares-Orcera km. 80,5",
      "brand": "Repsol",
      "lat": 38.261444,
      "lng": -2.916694,
      "fuels": {
        "gazole": 1.669,
        "sp95": 1.549,
        "sp98": 1.689
      }
    },
    {
      "id": "12806",
      "cp": "23280",
      "ville": "Beas De Segura",
      "adresse": "Poligono Industrial El cornicabral, 516",
      "brand": "Seguroil",
      "lat": 38.269722,
      "lng": -2.947889,
      "fuels": {
        "gazole": 1.52,
        "sp95": 1.45
      }
    },
    {
      "id": "6460",
      "cp": "23537",
      "ville": "Bedmar",
      "adresse": "Carretera Mancha Real-Cazorla km. 28,300",
      "brand": "Agla-Es Virgen De Cuadros",
      "lat": 37.827,
      "lng": -3.415028,
      "fuels": {
        "gazole": 1.689,
        "sp95": 1.579
      }
    },
    {
      "id": "8934",
      "cp": "23520",
      "ville": "Begijar",
      "adresse": "avd. Jaen S/N (jv 3043 Km 11,250)",
      "brand": "e.s. \"santiago apóstol\"",
      "lat": 37.980056,
      "lng": -3.532833,
      "fuels": {
        "gazole": 1.699,
        "sp95": 1.559
      }
    },
    {
      "id": "6774",
      "cp": "23568",
      "ville": "Belmez De La Moraleda",
      "adresse": "Carretera a401 km. 89",
      "brand": "Blanca",
      "lat": 37.724,
      "lng": -3.370139,
      "fuels": {
        "gazole": 1.689,
        "sp95": 1.589
      }
    },
    {
      "id": "6766",
      "cp": "23479",
      "ville": "Burunchel",
      "adresse": "Carretera De La Sierra km. 21,5",
      "brand": "Cepsa",
      "lat": 37.940361,
      "lng": -2.956611,
      "fuels": {
        "gazole": 1.679,
        "sp95": 1.559
      }
    },
    {
      "id": "6794",
      "cp": "23550",
      "ville": "Cabra Del Santo Cristo",
      "adresse": "Calle huertas, S/N",
      "brand": "Repsol",
      "lat": 37.703167,
      "lng": -3.286694,
      "fuels": {
        "gazole": 1.669,
        "sp95": 1.529
      }
    },
    {
      "id": "8093",
      "cp": "23120",
      "ville": "Cambil",
      "adresse": "ctra. De La Cerradura/Huelma",
      "brand": "Agla",
      "lat": 37.682889,
      "lng": -3.566972,
      "fuels": {
        "gazole": 1.569,
        "sp95": 1.499
      }
    },
    {
      "id": "10821",
      "cp": "23130",
      "ville": "Campillo De Arenas",
      "adresse": "Carretera A-44 km. 74,1",
      "brand": "s.c.a. ntra. sra. De La Cabeza",
      "lat": 37.558722,
      "lng": -3.624111,
      "fuels": {
        "gazole": 1.659,
        "sp95": 1.559
      }
    },
    {
      "id": "6876",
      "cp": "23130",
      "ville": "Campillo De Arenas",
      "adresse": "Cl Autovia Bailen-Motril i, 69,4",
      "brand": "Repsol",
      "lat": 37.592694,
      "lng": -3.603417,
      "fuels": {
        "gazole": 1.709,
        "sp95": 1.585,
        "sp98": 1.695
      }
    },
    {
      "id": "8360",
      "cp": "23211",
      "ville": "Carboneros",
      "adresse": "Calle linares, 1",
      "brand": "Chevron",
      "lat": 38.226806,
      "lng": -3.631194,
      "fuels": {
        "gazole": 1.749,
        "sp95": 1.649
      }
    },
    {
      "id": "6790",
      "cp": "23191",
      "ville": "Carchel",
      "adresse": "Carretera A-44 km. 57,4",
      "brand": "Moeve",
      "lat": 37.678222,
      "lng": -3.626472,
      "fuels": {
        "gazole": 1.711,
        "sp95": 1.593,
        "sp98": 1.697
      }
    },
    {
      "id": "6780",
      "cp": "23200",
      "ville": "Carolina (la)",
      "adresse": "Autovia A-4 km. 270",
      "brand": "Moeve",
      "lat": 38.266861,
      "lng": -3.613667,
      "fuels": {
        "gazole": 1.721,
        "sp95": 1.573
      }
    },
    {
      "id": "6504",
      "cp": "23200",
      "ville": "Carolina (la)",
      "adresse": "Autovia Autovia De Andalucia km. 266",
      "brand": "Orellana Perdiz",
      "lat": 38.281917,
      "lng": -3.591167,
      "fuels": {
        "gazole": 1.749,
        "sp95": 1.649,
        "sp98": 1.799
      }
    },
    {
      "id": "6758",
      "cp": "23200",
      "ville": "Carolina (la)",
      "adresse": "Autovia N-4 km. 264,6",
      "brand": "Orellana Perdiz",
      "lat": 38.295167,
      "lng": -3.589139,
      "fuels": {
        "gazole": 1.719,
        "sp95": 1.589,
        "sp98": 1.739
      }
    },
    {
      "id": "7033",
      "cp": "23200",
      "ville": "Carolina (la)",
      "adresse": "Calle Fariñas ferrero, S/N",
      "brand": "e.s. Paseo De La Virgen",
      "lat": 38.278361,
      "lng": -3.605889,
      "fuels": {
        "gazole": 1.699,
        "sp95": 1.509,
        "sp98": 1.679
      }
    },
    {
      "id": "13961",
      "cp": "23200",
      "ville": "Carolina (la)",
      "adresse": "Carretera Madrid-cadiz, N-4 km. 269,2",
      "brand": "Gasolwin",
      "lat": 38.267528,
      "lng": -3.612083,
      "fuels": {
        "gazole": 1.699,
        "sp95": 1.499,
        "gplc": 0.899
      }
    },
    {
      "id": "6897",
      "cp": "23200",
      "ville": "Carolina (la)",
      "adresse": "Carretera Nacional Iv km. 269 km. 269",
      "brand": "Repsol",
      "lat": 38.272333,
      "lng": -3.609972,
      "fuels": {
        "gazole": 1.725,
        "sp95": 1.585,
        "sp98": 1.735
      }
    },
    {
      "id": "13268",
      "cp": "23260",
      "ville": "Castellar",
      "adresse": "Carretera A-312 km. 53",
      "brand": "q8 Castellar",
      "lat": 38.260472,
      "lng": -3.136917,
      "fuels": {
        "gazole": 1.69,
        "sp95": 1.55
      }
    },
    {
      "id": "5094",
      "cp": "23470",
      "ville": "Cazorla",
      "adresse": "Carretera A-319 km. 11,5",
      "brand": "Galp",
      "lat": 37.920472,
      "lng": -3.018917,
      "fuels": {
        "gazole": 1.687,
        "sp95": 1.579,
        "sp98": 1.689
      }
    },
    {
      "id": "12353",
      "cp": "23264",
      "ville": "Chiclana De Segura",
      "adresse": "Carretera J-6230 km. 3",
      "brand": "Jaencoop Energy",
      "lat": 38.307472,
      "lng": -3.045167,
      "fuels": {
        "gazole": 1.649,
        "sp95": 1.519
      }
    },
    {
      "id": "13710",
      "cp": "23293",
      "ville": "Cortijos Nuevos",
      "adresse": "Carretera Del Ojuelo km. 0,5",
      "brand": "Jaencoop Energy Cortijos Nuevos",
      "lat": 38.251528,
      "lng": -2.718,
      "fuels": {
        "gazole": 1.649,
        "sp95": 1.519
      }
    },
    {
      "id": "6825",
      "cp": "23293",
      "ville": "Cortijos Nuevos",
      "adresse": "Carretera Linares Orcera km. 102",
      "brand": "Repsol",
      "lat": 38.248056,
      "lng": -2.727528,
      "fuels": {
        "gazole": 1.749,
        "sp95": 1.586
      }
    },
    {
      "id": "13699",
      "cp": "23686",
      "ville": "Ermita Nueva",
      "adresse": "Carretera Carretera Nacional 432 km. 396",
      "brand": "Repsol",
      "lat": 37.411611,
      "lng": -3.857944,
      "fuels": {
        "gazole": 1.689,
        "sp95": 1.669
      }
    },
    {
      "id": "9411",
      "cp": "23690",
      "ville": "Frailes",
      "adresse": "Carretera crta. Alcala-Frailes km. 10",
      "brand": "Agla",
      "lat": 37.473417,
      "lng": -3.836556,
      "fuels": {
        "gazole": 1.689,
        "sp95": 1.659,
        "sp98": 2.299
      }
    },
    {
      "id": "7019",
      "cp": "23180",
      "ville": "Fuerte Del Rey",
      "adresse": "A-311 (jaen-andujar) Km 9,4",
      "brand": "Agla",
      "lat": 37.87725,
      "lng": -3.876278,
      "fuels": {
        "gazole": 1.609,
        "sp95": 1.489
      }
    },
    {
      "id": "8309",
      "cp": "23170",
      "ville": "Guardia De Jaen (la)",
      "adresse": "Carretera Autovía De Jaén km. Sn",
      "brand": "Agla",
      "lat": 37.747583,
      "lng": -3.696472,
      "fuels": {
        "gazole": 1.679,
        "sp95": 1.599
      }
    },
    {
      "id": "6878",
      "cp": "23170",
      "ville": "Guardia De Jaen (la)",
      "adresse": "Carretera N-323-A km. 40,4",
      "brand": "Repsol",
      "lat": 37.777861,
      "lng": -3.733889,
      "fuels": {
        "gazole": 1.725,
        "sp95": 1.589,
        "sp98": 1.729
      }
    },
    {
      "id": "9811",
      "cp": "23210",
      "ville": "Guarroman",
      "adresse": "Autovia A-4 km. 303,2",
      "brand": "Bp ",
      "lat": 38.077833,
      "lng": -3.848639,
      "fuels": {
        "gazole": 1.68,
        "sp95": 1.57,
        "sp98": 1.7
      }
    },
    {
      "id": "6505",
      "cp": "23210",
      "ville": "Guarroman",
      "adresse": "Autovia A-4 Madrid- Cadiz   km. 283 km. ",
      "brand": "e.s. Guarroman",
      "lat": 38.180472,
      "lng": -3.693083,
      "fuels": {
        "gazole": 1.729,
        "sp95": 1.599
      }
    },
    {
      "id": "5595",
      "cp": "23210",
      "ville": "Guarroman",
      "adresse": "Autovia A-5 km. 303",
      "brand": "Asc Carburantes",
      "lat": 38.079056,
      "lng": -3.845833,
      "fuels": {
        "gazole": 1.619,
        "sp95": 1.419
      }
    },
    {
      "id": "9009",
      "cp": "23210",
      "ville": "Guarroman",
      "adresse": "Carretera N-Iv km. 280",
      "brand": "Valcarce",
      "lat": 38.194667,
      "lng": -3.6715,
      "fuels": {
        "gazole": 1.669
      }
    },
    {
      "id": "6940",
      "cp": "23210",
      "ville": "Guarroman",
      "adresse": "Carretera n4 km. 280,5",
      "brand": "Repsol",
      "lat": 38.193306,
      "lng": -3.671972,
      "fuels": {
        "gazole": 1.709,
        "sp95": 1.579,
        "sp98": 1.689
      }
    },
    {
      "id": "5723",
      "cp": "23210",
      "ville": "Guarroman",
      "adresse": "Cr N-4, 280",
      "brand": "Repsol",
      "lat": 38.196361,
      "lng": -3.673444,
      "fuels": {
        "gazole": 1.709,
        "sp95": 1.579,
        "sp98": 1.689,
        "gplc": 1.049
      }
    },
    {
      "id": "6456",
      "cp": "23210",
      "ville": "Guarroman",
      "adresse": "N-Lv Salida 288, Km 288",
      "brand": "Andamur \"guarroman\"",
      "lat": 38.142917,
      "lng": -3.723639,
      "fuels": {
        "gazole": 1.629,
        "sp95": 1.558,
        "sp98": 1.699
      }
    },
    {
      "id": "5596",
      "cp": "23210",
      "ville": "Guarroman",
      "adresse": "Poligono guadiel, 139",
      "brand": "Ids",
      "lat": 38.141056,
      "lng": -3.719694,
      "fuels": {
        "gazole": 1.633
      }
    },
    {
      "id": "6768",
      "cp": "23560",
      "ville": "Huelma",
      "adresse": "Carretera A-401 km. 55,300",
      "brand": "e.s.las Piletas",
      "lat": 37.613472,
      "lng": -3.395361,
      "fuels": {
        "gazole": 1.599,
        "sp95": 1.509
      }
    },
    {
      "id": "6675",
      "cp": "23560",
      "ville": "Huelma",
      "adresse": "Carretera Cordoba Almeria km. 158",
      "brand": "Repsol",
      "lat": 37.647778,
      "lng": -3.452778,
      "fuels": {
        "gazole": 1.619,
        "sp95": 1.559,
        "sp98": 1.659
      }
    },
    {
      "id": "13014",
      "cp": "23487",
      "ville": "Huesa",
      "adresse": "Carretera Quesada km. 1,5",
      "brand": "Ee Ss hnos. Moreno Padilla",
      "lat": 37.774194,
      "lng": -3.080917,
      "fuels": {
        "gazole": 1.749,
        "sp95": 1.579
      }
    },
    {
      "id": "6506",
      "cp": "23450",
      "ville": "Ibros",
      "adresse": "Carretera Comarcal 326 km. 9,7",
      "brand": "e.s. Virgen De Los remedios.",
      "lat": 38.016583,
      "lng": -3.493722,
      "fuels": {
        "gazole": 1.659,
        "sp95": 1.599
      }
    },
    {
      "id": "6671",
      "cp": "23450",
      "ville": "Ibros",
      "adresse": "Cr N-322, 128",
      "brand": "Repsol",
      "lat": 38.071333,
      "lng": -3.578167,
      "fuels": {
        "gazole": 1.739,
        "sp95": 1.669
      }
    },
    {
      "id": "13211",
      "cp": "23338",
      "ville": "Iznatoraf",
      "adresse": "Calle molinos, 18",
      "brand": "Jaencoop",
      "lat": 38.155556,
      "lng": -3.033417,
      "fuels": {
        "gazole": 1.649,
        "sp95": 1.519
      }
    },
    {
      "id": "13701",
      "cp": "23629",
      "ville": "Jabalquinto",
      "adresse": "Carretera De Linares km. 1",
      "brand": "Jaencoop Energy",
      "lat": 38.021889,
      "lng": -3.723167,
      "fuels": {
        "gazole": 1.649,
        "sp95": 1.519
      }
    },
    {
      "id": "6969",
      "cp": "23712",
      "ville": "Jabalquinto",
      "adresse": "Cr N-323, 11,9",
      "brand": "Repsol",
      "lat": 38.023833,
      "lng": -3.779222,
      "fuels": {
        "gazole": 1.709,
        "sp95": 1.585,
        "sp98": 1.685
      }
    },
    {
      "id": "6788",
      "cp": "23001",
      "ville": "Jaen",
      "adresse": "avda. granada, 30 (n-323a Km 35,6)",
      "brand": "Cepsa",
      "lat": 37.769389,
      "lng": -3.778278,
      "fuels": {
        "gazole": 1.705,
        "sp95": 1.583
      }
    },
    {
      "id": "6787",
      "cp": "23000",
      "ville": "Jaen",
      "adresse": "Avenida De granada, s,n",
      "brand": "Ballenoil",
      "lat": 37.77375,
      "lng": -3.763028,
      "fuels": {
        "gazole": 1.599,
        "sp95": 1.479
      }
    },
    {
      "id": "5786",
      "cp": "23005",
      "ville": "Jaen",
      "adresse": "Calle Carretera De cordoba, S/N",
      "brand": "Cepsa",
      "lat": 37.778,
      "lng": -3.811306,
      "fuels": {
        "gazole": 1.714,
        "sp95": 1.583,
        "sp98": 1.697
      }
    },
    {
      "id": "12548",
      "cp": "23009",
      "ville": "Jaen",
      "adresse": "Calle castellar, S/N",
      "brand": "Petroprix",
      "lat": 37.794667,
      "lng": -3.785694,
      "fuels": {
        "gazole": 1.599,
        "sp95": 1.479
      }
    },
    {
      "id": "12870",
      "cp": "23009",
      "ville": "Jaen",
      "adresse": "Calle De Los plateros, 1",
      "brand": "energy24h",
      "lat": 37.778806,
      "lng": -3.756694,
      "fuels": {
        "gazole": 1.609,
        "sp95": 1.489
      }
    },
    {
      "id": "14541",
      "cp": "23009",
      "ville": "Jaen",
      "adresse": "Calle espeluy, 2",
      "brand": "Petroprix",
      "lat": 37.797972,
      "lng": -3.779444,
      "fuels": {
        "gazole": 1.599,
        "sp95": 1.479
      }
    },
    {
      "id": "14007",
      "cp": "23009",
      "ville": "Jaen",
      "adresse": "Calle huelma, 147",
      "brand": "Energy Carburantes",
      "lat": 37.7935,
      "lng": -3.787028,
      "fuels": {
        "gazole": 1.609,
        "sp95": 1.489
      }
    },
    {
      "id": "14945",
      "cp": "23009",
      "ville": "Jaen",
      "adresse": "Camino Las lagunillas, 1",
      "brand": "Plenergy",
      "lat": 37.790056,
      "lng": -3.771917,
      "fuels": {
        "gazole": 1.599,
        "sp95": 1.479
      }
    },
    {
      "id": "6785",
      "cp": "23008",
      "ville": "Jaen",
      "adresse": "Carrera n323a, 32",
      "brand": "Cepsa",
      "lat": 37.823944,
      "lng": -3.770917,
      "fuels": {
        "gazole": 1.739,
        "sp95": 1.619
      }
    },
    {
      "id": "11577",
      "cp": "23002",
      "ville": "Jaen",
      "adresse": "Carretera A-44 km. 32",
      "brand": "Shell",
      "lat": 37.824583,
      "lng": -3.770556,
      "fuels": {
        "gazole": 1.739,
        "sp95": 1.619,
        "sp98": 1.719
      }
    },
    {
      "id": "12931",
      "cp": "23009",
      "ville": "Jaen",
      "adresse": "Carretera Bailen A Motril Km 37500 km. 37500",
      "brand": "Carrefour",
      "lat": 37.782194,
      "lng": -3.768972,
      "fuels": {
        "gazole": 1.689,
        "sp95": 1.569,
        "sp98": 1.719
      }
    },
    {
      "id": "7027",
      "cp": "23009",
      "ville": "Jaen",
      "adresse": "Carretera Bailen-Motril km. 332",
      "brand": "Plenergy",
      "lat": 37.787667,
      "lng": -3.783056,
      "fuels": {
        "gazole": 1.599,
        "sp95": 1.479
      }
    },
    {
      "id": "6706",
      "cp": "23009",
      "ville": "Jaen",
      "adresse": "Carretera Madrid S/N km. ",
      "brand": "Moeve",
      "lat": 37.787167,
      "lng": -3.783361,
      "fuels": {
        "gazole": 1.715,
        "sp95": 1.613,
        "sp98": 1.693,
        "gplc": 0.994
      }
    },
    {
      "id": "15795",
      "cp": "23009",
      "ville": "Jaen",
      "adresse": "Carretera Madrid S/N km. 1",
      "brand": "Energy Carburantes",
      "lat": 37.798222,
      "lng": -3.778611,
      "fuels": {
        "gazole": 1.609,
        "sp95": 1.489
      }
    },
    {
      "id": "6703",
      "cp": "23001",
      "ville": "Jaen",
      "adresse": "Carretera N-321 km. 60,3",
      "brand": "Repsol",
      "lat": 37.784361,
      "lng": -3.826611,
      "fuels": {
        "gazole": 1.725,
        "sp95": 1.585,
        "sp98": 1.735
      }
    },
    {
      "id": "15507",
      "cp": "23009",
      "ville": "Jaen",
      "adresse": "Carretera N-323 km. 37",
      "brand": "Ghnplus",
      "lat": 37.780639,
      "lng": -3.764583,
      "fuels": {
        "gazole": 1.619,
        "sp95": 1.499
      }
    },
    {
      "id": "8435",
      "cp": "23009",
      "ville": "Jaen",
      "adresse": "Carretera Torrequebradilla km. S/N",
      "brand": "Shell",
      "lat": 37.785889,
      "lng": -3.774694,
      "fuels": {
        "gazole": 1.699,
        "sp95": 1.609,
        "sp98": 1.709,
        "gplc": 0.989
      }
    },
    {
      "id": "12032",
      "cp": "23009",
      "ville": "Jaen",
      "adresse": "Poligono rosales, travesia, 2",
      "brand": "Bp Los Rosales",
      "lat": 37.788639,
      "lng": -3.784917,
      "fuels": {
        "gazole": 1.705,
        "sp95": 1.585,
        "sp98": 1.725
      }
    },
    {
      "id": "14941",
      "cp": "23009",
      "ville": "Jaen",
      "adresse": "Ronda De Los olivares, 107",
      "brand": "Petroprix",
      "lat": 37.793667,
      "lng": -3.791917,
      "fuels": {
        "gazole": 1.599,
        "sp95": 1.479
      }
    },
    {
      "id": "6789",
      "cp": "23009",
      "ville": "Jaen",
      "adresse": "Ronda De Los olvares, 71",
      "brand": "Moeve",
      "lat": 37.79975,
      "lng": -3.790778,
      "fuels": {
        "gazole": 1.729,
        "sp95": 1.613,
        "sp98": 1.693
      }
    },
    {
      "id": "14624",
      "cp": "23008",
      "ville": "Jaen",
      "adresse": "Ronda De marroquíes, 8",
      "brand": "Econoil",
      "lat": 37.791778,
      "lng": -3.784083,
      "fuels": {
        "gazole": 1.599,
        "sp95": 1.479
      }
    },
    {
      "id": "13189",
      "cp": "23009",
      "ville": "Jaen",
      "adresse": "Ronda Los olivares, S/N",
      "brand": "Repsol",
      "lat": 37.793139,
      "lng": -3.791333,
      "fuels": {
        "gazole": 1.725,
        "sp95": 1.595,
        "sp98": 1.735
      }
    },
    {
      "id": "6530",
      "cp": "23658",
      "ville": "Jamilena",
      "adresse": "Carretera Jamilena km. 1",
      "brand": "e.s.  Jamilena",
      "lat": 37.751722,
      "lng": -3.918278,
      "fuels": {
        "gazole": 1.569,
        "sp95": 1.499
      }
    },
    {
      "id": "6462",
      "cp": "23530",
      "ville": "Jimena",
      "adresse": "Carretera a320 km. 22,5",
      "brand": "e.s. Canava",
      "lat": 37.836917,
      "lng": -3.469194,
      "fuels": {
        "gazole": 1.679,
        "sp95": 1.609
      }
    },
    {
      "id": "6702",
      "cp": "23500",
      "ville": "Jodar",
      "adresse": "Avenida Jose Gallego montiel, S/N",
      "brand": "Bp Jodar",
      "lat": 37.832639,
      "lng": -3.356667,
      "fuels": {
        "gazole": 1.685,
        "sp95": 1.575
      }
    },
    {
      "id": "13529",
      "cp": "23500",
      "ville": "Jodar",
      "adresse": "Carretera Circunvalacion km. S/N",
      "brand": "Repsol",
      "lat": 37.835389,
      "lng": -3.34725,
      "fuels": {
        "gazole": 1.689,
        "sp95": 1.569
      }
    },
    {
      "id": "8095",
      "cp": "23700",
      "ville": "Linares",
      "adresse": "avda. 1º Mayo S/N",
      "brand": "Gasolinera Santana",
      "lat": 38.104306,
      "lng": -3.622444,
      "fuels": {
        "gazole": 1.699,
        "sp95": 1.509,
        "sp98": 1.809
      }
    },
    {
      "id": "6532",
      "cp": "23700",
      "ville": "Linares",
      "adresse": "Avenida San cristobal, S/N (c.c alcampo), ",
      "brand": "Alcampo",
      "lat": 38.08975,
      "lng": -3.647417,
      "fuels": {
        "gazole": 1.455,
        "sp95": 1.375,
        "sp98": 1.399
      }
    },
    {
      "id": "14658",
      "cp": "23700",
      "ville": "Linares",
      "adresse": "Avenida San cristobal, Sn",
      "brand": "Gasolineras Hf",
      "lat": 38.090556,
      "lng": -3.648417,
      "fuels": {
        "gazole": 1.508,
        "sp95": 1.435
      }
    },
    {
      "id": "5655",
      "cp": "23700",
      "ville": "Linares",
      "adresse": "C/Aurea galindo,69 (carretera Km 119)",
      "brand": "Repsol",
      "lat": 38.092806,
      "lng": -3.644583,
      "fuels": {
        "gazole": 1.679,
        "sp95": 1.579
      }
    },
    {
      "id": "13995",
      "cp": "23700",
      "ville": "Linares",
      "adresse": "Calle Juan Diego De Dios barrero, 30",
      "brand": "Mlc",
      "lat": 38.085167,
      "lng": -3.640361,
      "fuels": {
        "gazole": 1.659,
        "sp95": 1.569,
        "sp98": 1.769
      }
    },
    {
      "id": "6778",
      "cp": "23700",
      "ville": "Linares",
      "adresse": "Calle Juan Diego De Dios barrero, S/N",
      "brand": "Moeve",
      "lat": 38.086417,
      "lng": -3.640472,
      "fuels": {
        "gazole": 1.684,
        "sp95": 1.583,
        "sp98": 1.697
      }
    },
    {
      "id": "12629",
      "cp": "23700",
      "ville": "Linares",
      "adresse": "Carretera A-312 km. 2",
      "brand": "s.c.a. Sanagustin",
      "lat": 38.111667,
      "lng": -3.6075,
      "fuels": {
        "gazole": 1.699,
        "sp95": 1.509
      }
    },
    {
      "id": "6775",
      "cp": "23700",
      "ville": "Linares",
      "adresse": "Carretera Baños (a-6100) km. S/N",
      "brand": "Cepsa",
      "lat": 38.104361,
      "lng": -3.647583,
      "fuels": {
        "gazole": 1.689,
        "sp95": 1.589
      }
    },
    {
      "id": "16151",
      "cp": "23700",
      "ville": "Linares",
      "adresse": "Carretera ctra. N-322 Cordoba-Valencia km. 6",
      "brand": "Ballenoil",
      "lat": 38.091944,
      "lng": -3.652361,
      "fuels": {
        "gazole": 1.455,
        "sp95": 1.375
      }
    },
    {
      "id": "7023",
      "cp": "23700",
      "ville": "Linares",
      "adresse": "Carretera De Pozo Ancho S/N",
      "brand": "Bp Oil España e.s.san Gonzalo",
      "lat": 38.111722,
      "lng": -3.637917,
      "fuels": {
        "gazole": 1.679,
        "sp95": 1.569,
        "sp98": 1.709,
        "gplc": 0.96
      }
    },
    {
      "id": "9814",
      "cp": "23700",
      "ville": "Linares",
      "adresse": "Carretera N-322 km. 119",
      "brand": "Bp Linares",
      "lat": 38.091389,
      "lng": -3.650361,
      "fuels": {
        "gazole": 1.679,
        "sp95": 1.569,
        "sp98": 1.709
      }
    },
    {
      "id": "6910",
      "cp": "23700",
      "ville": "Linares",
      "adresse": "Cl Avenida De españa, 3",
      "brand": "Repsol",
      "lat": 38.090222,
      "lng": -3.626222,
      "fuels": {
        "gazole": 1.689,
        "sp95": 1.595,
        "sp98": 1.725,
        "gplc": 1.039
      }
    },
    {
      "id": "6502",
      "cp": "23780",
      "ville": "Lopera",
      "adresse": "Carretera Comarcal 527 km. 29",
      "brand": "e.s. La Loperana",
      "lat": 37.948722,
      "lng": -4.219722,
      "fuels": {
        "gazole": 1.679,
        "sp95": 1.509
      }
    },
    {
      "id": "5084",
      "cp": "23780",
      "ville": "Lopera",
      "adresse": "Carretera Comarcal 527 km. 29,100",
      "brand": "Estacion De Servicio Diego Pileta  Y Autolavado Agua osmotizada: Hijos De Diego Pileta",
      "lat": 37.948694,
      "lng": -4.217194,
      "fuels": {
        "gazole": 1.669,
        "sp95": 1.505
      }
    },
    {
      "id": "6943",
      "cp": "23780",
      "ville": "Lopera",
      "adresse": "Carretera N-4 km. 346,6",
      "brand": "Repsol",
      "lat": 37.989972,
      "lng": -4.26125,
      "fuels": {
        "gazole": 1.669,
        "sp95": 1.545,
        "sp98": 1.705
      }
    },
    {
      "id": "6942",
      "cp": "23780",
      "ville": "Lopera",
      "adresse": "Carretera Nacional 4 km. 346,6",
      "brand": "Repsol",
      "lat": 37.990056,
      "lng": -4.261278,
      "fuels": {
        "gazole": 1.669,
        "sp95": 1.545
      }
    },
    {
      "id": "6764",
      "cp": "23100",
      "ville": "Mancha Real",
      "adresse": "Avenida torres, S/N",
      "brand": "Repsol",
      "lat": 37.783889,
      "lng": -3.600111,
      "fuels": {
        "gazole": 1.659,
        "sp95": 1.575
      }
    },
    {
      "id": "12380",
      "cp": "23100",
      "ville": "Mancha Real",
      "adresse": "Calle La lonja, 4",
      "brand": "Bp  ",
      "lat": 37.788972,
      "lng": -3.617778,
      "fuels": {
        "gazole": 1.659,
        "sp95": 1.575,
        "sp98": 1.715
      }
    },
    {
      "id": "15657",
      "cp": "23100",
      "ville": "Mancha Real",
      "adresse": "Carretera A-316, Rotonda Nuevo Acceso A Mancha Real km. 38",
      "brand": "Bp",
      "lat": 37.80425,
      "lng": -3.625417,
      "fuels": {
        "gazole": 1.659,
        "sp95": 1.575,
        "sp98": 1.715
      }
    },
    {
      "id": "15194",
      "cp": "23770",
      "ville": "Marmolejo",
      "adresse": "Avenida De áfrica, 104",
      "brand": "q8",
      "lat": 38.029222,
      "lng": -4.166361,
      "fuels": {
        "gazole": 1.559,
        "sp95": 1.459
      }
    },
    {
      "id": "6803",
      "cp": "23770",
      "ville": "Marmolejo",
      "adresse": "Calle Camino De La estacion, Sn",
      "brand": "codo_cm",
      "lat": 38.040778,
      "lng": -4.169833,
      "fuels": {
        "gazole": 1.669,
        "sp95": 1.535,
        "sp98": 1.695
      }
    },
    {
      "id": "7021",
      "cp": "23770",
      "ville": "Marmolejo",
      "adresse": "Carretera N-Iv km. 339",
      "brand": "Tamoil",
      "lat": 38.005583,
      "lng": -4.193028,
      "fuels": {
        "gazole": 1.499,
        "sp95": 1.399
      }
    },
    {
      "id": "5775",
      "cp": "23770",
      "ville": "Marmolejo",
      "adresse": "Cr N-4, 335,5",
      "brand": "codo_cm",
      "lat": 38.027083,
      "lng": -4.165944,
      "fuels": {
        "gazole": 1.669,
        "sp95": 1.545,
        "sp98": 1.705
      }
    },
    {
      "id": "6821",
      "cp": "23600",
      "ville": "Martos",
      "adresse": "Avenida De europa, 1",
      "brand": "Repsol",
      "lat": 37.71425,
      "lng": -3.976917,
      "fuels": {
        "gazole": 1.679,
        "sp95": 1.579,
        "sp98": 1.729
      }
    },
    {
      "id": "6463",
      "cp": "23600",
      "ville": "Martos",
      "adresse": "Calle bailen, 2, ",
      "brand": "Bp Oil Martos",
      "lat": 37.708444,
      "lng": -3.970583,
      "fuels": {
        "gazole": 1.679,
        "sp95": 1.579,
        "sp98": 1.779
      }
    },
    {
      "id": "14669",
      "cp": "23600",
      "ville": "Martos",
      "adresse": "Calle Cazorla Esquina Camino rompeserones, 11",
      "brand": "Shell",
      "lat": 37.704139,
      "lng": -3.973,
      "fuels": {
        "gazole": 1.589,
        "sp95": 1.485
      }
    },
    {
      "id": "12792",
      "cp": "23600",
      "ville": "Martos",
      "adresse": "Calle linares, 11",
      "brand": "Petroprix",
      "lat": 37.709444,
      "lng": -3.969306,
      "fuels": {
        "gazole": 1.579,
        "sp95": 1.475
      }
    },
    {
      "id": "6908",
      "cp": "23600",
      "ville": "Martos",
      "adresse": "Calle Teniente General chamorro, 114",
      "brand": "Repsol",
      "lat": 37.727167,
      "lng": -3.974889,
      "fuels": {
        "gazole": 1.679,
        "sp95": 1.589,
        "sp98": 1.729
      }
    },
    {
      "id": "14818",
      "cp": "23620",
      "ville": "Mengibar",
      "adresse": "Calle bailen, 44",
      "brand": "Repsol",
      "lat": 37.975861,
      "lng": -3.801167,
      "fuels": {
        "gazole": 1.719,
        "sp95": 1.589,
        "sp98": 1.739
      }
    },
    {
      "id": "6461",
      "cp": "23620",
      "ville": "Mengibar",
      "adresse": "N-323a (bailén-motril) Km 14,4",
      "brand": "Arenas camacho, s.l.",
      "lat": 37.97025,
      "lng": -3.798028,
      "fuels": {
        "gazole": 1.679,
        "sp95": 1.539,
        "sp98": 1.659,
        "gplc": 0.999
      }
    },
    {
      "id": "15430",
      "cp": "23240",
      "ville": "Navas De San Juan",
      "adresse": "Carretera Linares km. 32,750",
      "brand": "Meroil",
      "lat": 38.186556,
      "lng": -3.32425,
      "fuels": {
        "gazole": 1.699,
        "sp95": 1.559
      }
    },
    {
      "id": "5809",
      "cp": "23240",
      "ville": "Navas De San Juan",
      "adresse": "Carretera Navas Puente Ariza km. 0,25",
      "brand": "Repsol",
      "lat": 38.183722,
      "lng": -3.321861,
      "fuels": {
        "gazole": 1.669,
        "sp95": 1.529,
        "sp98": 1.689
      }
    },
    {
      "id": "7026",
      "cp": "23140",
      "ville": "Noalejo",
      "adresse": "Avenida canovas, 15",
      "brand": "Shell",
      "lat": 37.529833,
      "lng": -3.637667,
      "fuels": {
        "gazole": 1.639,
        "sp95": 1.579,
        "sp98": 1.719
      }
    },
    {
      "id": "6793",
      "cp": "23370",
      "ville": "Orcera",
      "adresse": "Calle Joaquin paya, 13",
      "brand": "Cepsa",
      "lat": 38.317167,
      "lng": -2.665306,
      "fuels": {
        "gazole": 1.699,
        "sp95": 1.619
      }
    },
    {
      "id": "6898",
      "cp": "23460",
      "ville": "Peal De Becerro",
      "adresse": "Cr Ja-3120 Torreperogil-peal, 21,6",
      "brand": "Repsol",
      "lat": 37.915722,
      "lng": -3.131639,
      "fuels": {
        "gazole": 1.725,
        "sp95": 1.535,
        "sp98": 1.695
      }
    },
    {
      "id": "6678",
      "cp": "23790",
      "ville": "Porcuna",
      "adresse": "Avenida Joaquin costa, S/N",
      "brand": "Repsol",
      "lat": 37.872667,
      "lng": -4.176139,
      "fuels": {
        "gazole": 1.719,
        "sp95": 1.529
      }
    },
    {
      "id": "6773",
      "cp": "23790",
      "ville": "Porcuna",
      "adresse": "Carretera A-306 km. 34",
      "brand": "Cepsa",
      "lat": 37.868222,
      "lng": -4.164972,
      "fuels": {
        "gazole": 1.759,
        "sp95": 1.609,
        "sp98": 1.819
      }
    },
    {
      "id": "5674",
      "cp": "23485",
      "ville": "Pozo Alcon",
      "adresse": "a315 Torreperogil A Baza Km 63,15",
      "brand": "Galp",
      "lat": 37.70725,
      "lng": -2.939667,
      "fuels": {
        "gazole": 1.629,
        "sp95": 1.599,
        "sp98": 1.739
      }
    },
    {
      "id": "6948",
      "cp": "23485",
      "ville": "Pozo Alcon",
      "adresse": "Avenida De Los dolores, 81",
      "brand": "Repsol",
      "lat": 37.699806,
      "lng": -2.934056,
      "fuels": {
        "gazole": 1.629,
        "sp95": 1.599,
        "sp98": 1.719
      }
    },
    {
      "id": "6867",
      "cp": "23350",
      "ville": "Puente De Genave",
      "adresse": "Avenida andalucia, 131",
      "brand": "Repsol",
      "lat": 38.357528,
      "lng": -2.799222,
      "fuels": {
        "gazole": 1.669,
        "sp95": 1.529
      }
    },
    {
      "id": "6763",
      "cp": "23360",
      "ville": "Puerta De Segura (la)",
      "adresse": "Avenida De andalucia, S/N",
      "brand": "Cepsa",
      "lat": 38.359583,
      "lng": -2.744139,
      "fuels": {
        "gazole": 1.679,
        "sp95": 1.599,
        "sp98": 1.749
      }
    },
    {
      "id": "13294",
      "cp": "23360",
      "ville": "Puerta De Segura (la)",
      "adresse": "Poligono Llanos De armijo, parcela, 4",
      "brand": "Energy Carburantes",
      "lat": 38.361472,
      "lng": -2.755833,
      "fuels": {
        "gazole": 1.609,
        "sp95": 1.525
      }
    },
    {
      "id": "7018",
      "cp": "23480",
      "ville": "Quesada",
      "adresse": "Avda De ubeda, 37",
      "brand": "Hermanos Moreno Padilla",
      "lat": 37.845611,
      "lng": -3.071056,
      "fuels": {
        "gazole": 1.749,
        "sp95": 1.579
      }
    },
    {
      "id": "13050",
      "cp": "23480",
      "ville": "Quesada",
      "adresse": "Calle Fontaneros (pol.ind.), S/N",
      "brand": "Esfer-Oil",
      "lat": 37.860583,
      "lng": -3.086194,
      "fuels": {
        "gazole": 1.75,
        "sp95": 1.58,
        "gplc": 1.15
      }
    },
    {
      "id": "9401",
      "cp": "23684",
      "ville": "Rabita (la)",
      "adresse": "San Jose - La Rabita Km 8,9",
      "brand": "23eso68f",
      "lat": 37.500528,
      "lng": -4.054083,
      "fuels": {
        "gazole": 1.659,
        "sp95": 1.548,
        "sp98": 1.679
      }
    },
    {
      "id": "6756",
      "cp": "23430",
      "ville": "Rus",
      "adresse": "Cr N-322, Km 138,5",
      "brand": "Agla",
      "lat": 38.04125,
      "lng": -3.458111,
      "fuels": {
        "gazole": 1.62,
        "sp95": 1.49
      }
    },
    {
      "id": "6791",
      "cp": "23430",
      "ville": "Rus",
      "adresse": "Paraje Virgen Del val, S/N",
      "brand": "Agla",
      "lat": 38.046972,
      "lng": -3.475306,
      "fuels": {
        "gazole": 1.62,
        "sp95": 1.49
      }
    },
    {
      "id": "5649",
      "cp": "23410",
      "ville": "Sabiote",
      "adresse": "Cr C-604, 6,2",
      "brand": "Repsol",
      "lat": 38.059833,
      "lng": -3.320306,
      "fuels": {
        "gazole": 1.669,
        "sp95": 1.549,
        "sp98": 1.709
      }
    },
    {
      "id": "6503",
      "cp": "23213",
      "ville": "Santa Elena",
      "adresse": "Autovia A-4 km. 259",
      "brand": "Galp",
      "lat": 38.32925,
      "lng": -3.544917,
      "fuels": {
        "gazole": 1.729,
        "sp95": 1.589,
        "sp98": 1.679,
        "gplc": 0.999
      }
    },
    {
      "id": "6459",
      "cp": "23213",
      "ville": "Santa Elena",
      "adresse": "Autovia De Andalucia Km 259,1",
      "brand": "e.s. mira, s.l.",
      "lat": 38.329917,
      "lng": -3.545361,
      "fuels": {
        "gazole": 1.649,
        "sp95": 1.499
      }
    },
    {
      "id": "8373",
      "cp": "23213",
      "ville": "Santa Elena",
      "adresse": "Carrera Autovia Andalucia , Km 258, 258",
      "brand": "Repsol",
      "lat": 38.336917,
      "lng": -3.545222,
      "fuels": {
        "gazole": 1.739,
        "sp95": 1.609
      }
    },
    {
      "id": "11729",
      "cp": "23213",
      "ville": "Santa Elena",
      "adresse": "Carretera E-5/A-4 km. 262",
      "brand": "Bp Puerta Andalucia",
      "lat": 38.313278,
      "lng": -3.57125,
      "fuels": {
        "gazole": 1.689,
        "sp95": 1.569,
        "sp98": 1.709
      }
    },
    {
      "id": "6916",
      "cp": "23290",
      "ville": "Santiago De La Espada",
      "adresse": "Avenida andalucia, 59",
      "brand": "Campsa",
      "lat": 38.10975,
      "lng": -2.557,
      "fuels": {
        "gazole": 1.679,
        "sp95": 1.529
      }
    },
    {
      "id": "6519",
      "cp": "23250",
      "ville": "Santisteban Del Puerto",
      "adresse": "Carrera Linares-Orcera pk. 48, S/N",
      "brand": "Repsol",
      "lat": 38.251944,
      "lng": -3.199389,
      "fuels": {
        "gazole": 1.719,
        "sp95": 1.575
      }
    },
    {
      "id": "12342",
      "cp": "23250",
      "ville": "Santisteban Del Puerto",
      "adresse": "Paraje La laguna, S/N",
      "brand": "Jaencoop",
      "lat": 38.261056,
      "lng": -3.211167,
      "fuels": {
        "gazole": 1.649,
        "sp95": 1.519
      }
    },
    {
      "id": "14475",
      "cp": "23250",
      "ville": "Santisteban Del Puerto",
      "adresse": "Poligono pol. ind.  El condado. C/ sorihuela, S/N",
      "brand": "Seguroil Slu",
      "lat": 38.259944,
      "lng": -3.176222,
      "fuels": {
        "gazole": 1.52,
        "sp95": 1.45
      }
    },
    {
      "id": "6776",
      "cp": "23311",
      "ville": "Santo Tome",
      "adresse": "Carretera De Peal km. 15,100",
      "brand": "Cepsa",
      "lat": 38.028778,
      "lng": -3.103111,
      "fuels": {
        "gazole": 1.685,
        "sp95": 1.605,
        "sp98": 1.719
      }
    },
    {
      "id": "6683",
      "cp": "23380",
      "ville": "Siles",
      "adresse": "Cl L-700 Estacion De Servicio 17",
      "brand": "Repsol Garrimarti",
      "lat": 38.384944,
      "lng": -2.586056,
      "fuels": {
        "gazole": 1.679,
        "sp95": 1.569
      }
    },
    {
      "id": "14067",
      "cp": "23270",
      "ville": "Sorihuela Del Guadalimar",
      "adresse": "Avenida andalucia, 0",
      "brand": "Jaencoop Energy",
      "lat": 38.24,
      "lng": -3.050972,
      "fuels": {
        "gazole": 1.649,
        "sp95": 1.519
      }
    },
    {
      "id": "6784",
      "cp": "23270",
      "ville": "Sorihuela Del Guadalimar",
      "adresse": "Avenida andalucia, s,n",
      "brand": "Repsol",
      "lat": 38.245778,
      "lng": -3.051028,
      "fuels": {
        "gazole": 1.669,
        "sp95": 1.529
      }
    },
    {
      "id": "6772",
      "cp": "23510",
      "ville": "Torreblascopedro",
      "adresse": "Avenida av. De Campillo Del rio, 37",
      "brand": "Agla",
      "lat": 37.995028,
      "lng": -3.643111,
      "fuels": {
        "gazole": 1.639,
        "sp95": 1.539
      }
    },
    {
      "id": "16081",
      "cp": "23640",
      "ville": "Torredelcampo",
      "adresse": "Avenida avda. De bailen, S/N Esquina A C/ cazorla, S/N",
      "brand": "Urban Oil",
      "lat": 37.778528,
      "lng": -3.883333,
      "fuels": {
        "gazole": 1.585,
        "sp95": 1.415
      }
    },
    {
      "id": "16005",
      "cp": "23640",
      "ville": "Torredelcampo",
      "adresse": "Calle Avednida De Los Llanos Esquina escañuela, S/N",
      "brand": "Energy Carburantes",
      "lat": 37.769667,
      "lng": -3.899889,
      "fuels": {
        "gazole": 1.585,
        "sp95": 1.419
      }
    },
    {
      "id": "6755",
      "cp": "23640",
      "ville": "Torredelcampo",
      "adresse": "Calle San bartolome, ",
      "brand": "Cepsa - San Andres",
      "lat": 37.773917,
      "lng": -3.899361,
      "fuels": {
        "gazole": 1.739,
        "sp95": 1.659,
        "sp98": 1.769
      }
    },
    {
      "id": "6472",
      "cp": "23640",
      "ville": "Torredelcampo",
      "adresse": "Carrera A-316 Ubeda- Cabra p.k 6.450, S/N",
      "brand": "Repsol",
      "lat": 37.782,
      "lng": -3.85725,
      "fuels": {
        "gazole": 1.719,
        "sp95": 1.575
      }
    },
    {
      "id": "5096",
      "cp": "23640",
      "ville": "Torredelcampo",
      "adresse": "Carretera N-321 km. 68,5",
      "brand": "Ballenoil",
      "lat": 37.776583,
      "lng": -3.88875,
      "fuels": {
        "gazole": 1.585,
        "sp95": 1.415
      }
    },
    {
      "id": "9580",
      "cp": "23640",
      "ville": "Torredelcampo",
      "adresse": "ctra. De megatin, S/N Km 68",
      "brand": "oleocampo, s.coop.and. De 2º Grado",
      "lat": 37.778265,
      "lng": -3.880976,
      "fuels": {
        "gazole": 1.589,
        "sp95": 1.419
      }
    },
    {
      "id": "16410",
      "cp": "23650",
      "ville": "Torredonjimeno",
      "adresse": "Avenida jaen, 69",
      "brand": "Euronor Energy ",
      "lat": 37.76325,
      "lng": -3.939694,
      "fuels": {
        "gazole": 1.539,
        "sp95": 1.439
      }
    },
    {
      "id": "6863",
      "cp": "23650",
      "ville": "Torredonjimeno",
      "adresse": "Calle avda. De jaen, 17",
      "brand": "Repsol",
      "lat": 37.763528,
      "lng": -3.944861,
      "fuels": {
        "gazole": 1.779,
        "sp95": 1.659
      }
    },
    {
      "id": "8971",
      "cp": "23650",
      "ville": "Torredonjimeno",
      "adresse": "Calle villardompardo, S/n, 0",
      "brand": "Donjimeno",
      "lat": 37.772944,
      "lng": -3.967667,
      "fuels": {
        "gazole": 1.679,
        "sp95": 1.509
      }
    },
    {
      "id": "7024",
      "cp": "23650",
      "ville": "Torredonjimeno",
      "adresse": "Carretera Jaen km. S/N",
      "brand": "Galp",
      "lat": 37.762722,
      "lng": -3.935361,
      "fuels": {
        "gazole": 1.809,
        "sp95": 1.669
      }
    },
    {
      "id": "14366",
      "cp": "23320",
      "ville": "Torreperogil",
      "adresse": "Calle sevilla, 22",
      "brand": "E S Petroandalus",
      "lat": 38.03175,
      "lng": -3.304417,
      "fuels": {
        "gazole": 1.569,
        "sp95": 1.459
      }
    },
    {
      "id": "6913",
      "cp": "23320",
      "ville": "Torreperogil",
      "adresse": "Cr N-322, 154,0",
      "brand": "Repsol",
      "lat": 38.035444,
      "lng": -3.295139,
      "fuels": {
        "gazole": 1.685,
        "sp95": 1.549,
        "sp98": 1.709
      }
    },
    {
      "id": "15531",
      "cp": "23391",
      "ville": "Torres De Albanchez",
      "adresse": "Avenida andalucia, S/N",
      "brand": "Jaencoop Energy Torres De Albanchez",
      "lat": 38.414611,
      "lng": -2.672278,
      "fuels": {
        "gazole": 1.649,
        "sp95": 1.519
      }
    },
    {
      "id": "15179",
      "cp": "23400",
      "ville": "Ubeda",
      "adresse": "Avenida Ciudad De linares, 25",
      "brand": "Plenergy",
      "lat": 38.018639,
      "lng": -3.382972,
      "fuels": {
        "gazole": 1.539,
        "sp95": 1.429
      }
    },
    {
      "id": "6938",
      "cp": "23400",
      "ville": "Ubeda",
      "adresse": "Avenida Cristo rey, S/N",
      "brand": "Campsa",
      "lat": 38.014389,
      "lng": -3.383806,
      "fuels": {
        "gazole": 1.689,
        "sp95": 1.569,
        "sp98": 1.679,
        "gplc": 1.039
      }
    },
    {
      "id": "6430",
      "cp": "23400",
      "ville": "Ubeda",
      "adresse": "Avenida De linares, S/N",
      "brand": "Carrefour",
      "lat": 38.016722,
      "lng": -3.3815,
      "fuels": {
        "gazole": 1.599,
        "sp95": 1.499,
        "sp98": 1.599
      }
    },
    {
      "id": "13188",
      "cp": "23400",
      "ville": "Ubeda",
      "adresse": "Calle Carretera De vilches, 107",
      "brand": "Dieselprix",
      "lat": 38.026917,
      "lng": -3.369639,
      "fuels": {
        "gazole": 1.565,
        "sp95": 1.465
      }
    },
    {
      "id": "10059",
      "cp": "23400",
      "ville": "Ubeda",
      "adresse": "Calle Carretera De vilches, S/N",
      "brand": "Repsol",
      "lat": 38.026167,
      "lng": -3.369528,
      "fuels": {
        "gazole": 1.689,
        "sp95": 1.569,
        "sp98": 1.679
      }
    },
    {
      "id": "12414",
      "cp": "23400",
      "ville": "Ubeda",
      "adresse": "Calle Comendador messias, 44",
      "brand": "Petroandalus s.a.",
      "lat": 38.0075,
      "lng": -3.377444,
      "fuels": {
        "gazole": 1.569,
        "sp95": 1.459
      }
    },
    {
      "id": "9734",
      "cp": "23400",
      "ville": "Ubeda",
      "adresse": "Calle Leon Xiii S/N (n-323 km. 125,20), ",
      "brand": "Bp Puerta Del Sol",
      "lat": 38.021944,
      "lng": -3.367778,
      "fuels": {
        "gazole": 1.685,
        "sp95": 1.575
      }
    },
    {
      "id": "6518",
      "cp": "23400",
      "ville": "Ubeda",
      "adresse": "Carretera Cordoba-Valencia Km 149 km. 149",
      "brand": "Euroil Cuatrocaminos",
      "lat": 38.019889,
      "lng": -3.370556,
      "fuels": {
        "gazole": 1.569,
        "sp95": 1.459
      }
    },
    {
      "id": "12601",
      "cp": "23400",
      "ville": "Ubeda",
      "adresse": "Carretera Jodar km. S/N",
      "brand": "Jaencoop",
      "lat": 38.004556,
      "lng": -3.390194,
      "fuels": {
        "gazole": 1.649,
        "sp95": 1.519
      }
    },
    {
      "id": "6817",
      "cp": "23400",
      "ville": "Ubeda",
      "adresse": "Cl Avenida De La Libertad 76",
      "brand": " Repsol Ubeda",
      "lat": 38.016278,
      "lng": -3.363806,
      "fuels": {
        "gazole": 1.689,
        "sp95": 1.569,
        "sp98": 1.679
      }
    },
    {
      "id": "10006",
      "cp": "23400",
      "ville": "Ubeda",
      "adresse": "N-322 Km 151.800",
      "brand": "Euroil Larecta",
      "lat": 38.031389,
      "lng": -3.334167,
      "fuels": {
        "gazole": 1.569,
        "sp95": 1.459
      }
    },
    {
      "id": "15693",
      "cp": "23150",
      "ville": "Valdepeñas De Jaen",
      "adresse": "Calle Avenida De andalucia, 35",
      "brand": "Oleicola Valdepeñas De Jaen s.c.a",
      "lat": 37.593722,
      "lng": -3.816333,
      "fuels": {
        "gazole": 1.62,
        "sp95": 1.48
      }
    },
    {
      "id": "6458",
      "cp": "23150",
      "ville": "Valdepeñas De Jaen",
      "adresse": "Carretera A-6050 km. 29",
      "brand": "Estacion De Servicio Ortega",
      "lat": 37.600556,
      "lng": -3.812056,
      "fuels": {
        "gazole": 1.599,
        "sp95": 1.475
      }
    },
    {
      "id": "11169",
      "cp": "23265",
      "ville": "Venta De Los Santos",
      "adresse": "Carretera A 6203 km. 39,200",
      "brand": "Stmo Cristo De La Expiracion",
      "lat": 38.362333,
      "lng": -3.064778,
      "fuels": {
        "gazole": 1.599,
        "sp95": 1.499
      }
    },
    {
      "id": "6909",
      "cp": "23220",
      "ville": "Vilches",
      "adresse": "Avenida almeria, Sn",
      "brand": "Repsol",
      "lat": 38.217028,
      "lng": -3.513444,
      "fuels": {
        "gazole": 1.695,
        "sp95": 1.549
      }
    },
    {
      "id": "8930",
      "cp": "23220",
      "ville": "Vilches",
      "adresse": "Poligono La Molera Parcela 17 - cl. molineros, 8",
      "brand": "Libre",
      "lat": 38.211833,
      "lng": -3.508778,
      "fuels": {
        "gazole": 1.659,
        "sp95": 1.549
      }
    },
    {
      "id": "5606",
      "cp": "23300",
      "ville": "Villacarrillo",
      "adresse": "Avenida Gomez De llano, 73",
      "brand": "Petronor",
      "lat": 38.119306,
      "lng": -3.077972,
      "fuels": {
        "gazole": 1.669,
        "sp95": 1.529
      }
    },
    {
      "id": "12569",
      "cp": "23300",
      "ville": "Villacarrillo",
      "adresse": "Carretera Cordoba-Valencia km. 175",
      "brand": "Jaencoop Energy",
      "lat": 38.106056,
      "lng": -3.0995,
      "fuels": {
        "gazole": 1.649,
        "sp95": 1.519
      }
    },
    {
      "id": "12609",
      "cp": "23300",
      "ville": "Villacarrillo",
      "adresse": "Carretera Mogon km. S/N",
      "brand": "Jaencoop",
      "lat": 38.110111,
      "lng": -3.077111,
      "fuels": {
        "gazole": 1.649,
        "sp95": 1.519
      }
    },
    {
      "id": "6777",
      "cp": "23300",
      "ville": "Villacarrillo",
      "adresse": "Carretera N-322 (córdoba-valencia) km. 175,8",
      "brand": "Eni",
      "lat": 38.112694,
      "lng": -3.096556,
      "fuels": {
        "gazole": 1.649,
        "sp95": 1.519,
        "sp98": 1.699
      }
    },
    {
      "id": "9864",
      "cp": "23730",
      "ville": "Villanueva De La Reina",
      "adresse": "J-231 Km 0,700",
      "brand": "Aceites Guadalquivir",
      "lat": 38.009333,
      "lng": -3.905028,
      "fuels": {
        "gazole": 1.503,
        "sp95": 1.427
      }
    },
    {
      "id": "6928",
      "cp": "23330",
      "ville": "Villanueva Del Arzobispo",
      "adresse": "Avenida Valencia de, 116",
      "brand": "Repsol",
      "lat": 38.172556,
      "lng": -3.004083,
      "fuels": {
        "gazole": 1.685,
        "sp95": 1.539,
        "sp98": 1.689
      }
    },
    {
      "id": "12275",
      "cp": "23330",
      "ville": "Villanueva Del Arzobispo",
      "adresse": "Avenida Valencia de, S/N",
      "brand": "Jaencoop",
      "lat": 38.174889,
      "lng": -3.000694,
      "fuels": {
        "gazole": 1.649,
        "sp95": 1.519
      }
    },
    {
      "id": "14420",
      "cp": "23330",
      "ville": "Villanueva Del Arzobispo",
      "adresse": "Avenida Valencia de, S/N",
      "brand": "Jaencoop Energy Villanueva Ii",
      "lat": 38.174806,
      "lng": -2.999778,
      "fuels": {
        "gazole": 1.649,
        "sp95": 1.519
      }
    },
    {
      "id": "6769",
      "cp": "23160",
      "ville": "Villares (los)",
      "adresse": "Carretera Valdepeñas km. 57",
      "brand": "Agla",
      "lat": 37.689083,
      "lng": -3.813861,
      "fuels": {
        "gazole": 1.609,
        "sp95": 1.479
      }
    },
    {
      "id": "8094",
      "cp": "23630",
      "ville": "Villargordo",
      "adresse": "ctra. De Jaen Km 0,95",
      "brand": "Meroil",
      "lat": 37.9375,
      "lng": -3.739833,
      "fuels": {
        "gazole": 1.739,
        "sp95": 1.559
      }
    }
  ]
}