{
  "code": "24",
  "name": "León",
  "regionCode": "CYL",
  "regionName": "Castilla y León",
  "asOf": "2026-06-12T08:54:19.833Z",
  "source": "https://sedeaplicaciones.minetur.gob.es/ServiciosRESTCarburantes/PreciosCarburantes/EstacionesTerrestres/",
  "stationCount": 164,
  "fuels": {
    "gazole": {
      "count": 164,
      "mean": 1.6187,
      "median": 1.635,
      "min": 1.459,
      "max": 1.909
    },
    "sp95": {
      "count": 158,
      "mean": 1.5162,
      "median": 1.529,
      "min": 1.369,
      "max": 1.899
    },
    "sp98": {
      "count": 95,
      "mean": 1.6702,
      "median": 1.665,
      "min": 1.519,
      "max": 1.999
    },
    "e10": {
      "count": 1,
      "mean": 1.425,
      "median": 1.425,
      "min": 1.425,
      "max": 1.425
    },
    "gplc": {
      "count": 8,
      "mean": 1.0643,
      "median": 1.0855,
      "min": 0.889,
      "max": 1.119
    }
  },
  "stations": [
    {
      "id": "5067",
      "cp": "24920",
      "ville": "Aldea Del Puente (la)",
      "adresse": "Carretera Nacional 625 Km 31.4 (n-625 Km 31,4)",
      "brand": "Petronor",
      "lat": 42.560028,
      "lng": -5.282639,
      "fuels": {
        "gazole": 1.709,
        "sp95": 1.609
      }
    },
    {
      "id": "4733",
      "cp": "24761",
      "ville": "Alija Del Infantado",
      "adresse": "Carretera La Bañeza km. 35",
      "brand": "Alija Energia",
      "lat": 42.135111,
      "lng": -5.832583,
      "fuels": {
        "gazole": 1.659,
        "sp95": 1.569
      }
    },
    {
      "id": "4992",
      "cp": "24398",
      "ville": "Almazcara",
      "adresse": "Autovia A-6 km. 374,8",
      "brand": "Moeve",
      "lat": 42.597833,
      "lng": -6.504278,
      "fuels": {
        "gazole": 1.679,
        "sp95": 1.569,
        "gplc": 1.119
      }
    },
    {
      "id": "5071",
      "cp": "24232",
      "ville": "Ardon",
      "adresse": "Carretera N-630 km. 161,500",
      "brand": "Campsa",
      "lat": 42.462444,
      "lng": -5.579694,
      "fuels": {
        "gazole": 1.619,
        "sp95": 1.529,
        "sp98": 1.619
      }
    },
    {
      "id": "5044",
      "cp": "24284",
      "ville": "Armellada",
      "adresse": "Carretera Le-420 km. 91,5",
      "brand": "Repsol",
      "lat": 42.548556,
      "lng": -5.867917,
      "fuels": {
        "gazole": 1.649,
        "sp95": 1.559,
        "sp98": 1.699
      }
    },
    {
      "id": "6039",
      "cp": "24009",
      "ville": "Armunia",
      "adresse": "Carretera N-630 km. 149",
      "brand": "Repsol",
      "lat": 42.572556,
      "lng": -5.583278,
      "fuels": {
        "gazole": 1.639,
        "sp95": 1.535,
        "sp98": 1.705
      }
    },
    {
      "id": "6040",
      "cp": "24009",
      "ville": "Armunia",
      "adresse": "Carretera N-630 km. 149",
      "brand": "Repsol",
      "lat": 42.570917,
      "lng": -5.582444,
      "fuels": {
        "gazole": 1.639,
        "sp95": 1.535,
        "sp98": 1.705
      }
    },
    {
      "id": "5081",
      "cp": "24700",
      "ville": "Astorga",
      "adresse": "Autovia A-6 km. 326",
      "brand": "Cepsa",
      "lat": 42.444917,
      "lng": -6.079889,
      "fuels": {
        "gazole": 1.649,
        "sp95": 1.539,
        "sp98": 1.653
      }
    },
    {
      "id": "13163",
      "cp": "24700",
      "ville": "Astorga",
      "adresse": "Avenida Madrid - coruña, 394",
      "brand": "Petroas",
      "lat": 42.465361,
      "lng": -6.074111,
      "fuels": {
        "gazole": 1.599,
        "sp95": 1.499
      }
    },
    {
      "id": "5540",
      "cp": "24700",
      "ville": "Astorga",
      "adresse": "Cr N-6, 325",
      "brand": "Repsol",
      "lat": 42.459917,
      "lng": -6.064389,
      "fuels": {
        "gazole": 1.665,
        "sp95": 1.569,
        "sp98": 1.689
      }
    },
    {
      "id": "13027",
      "cp": "24750",
      "ville": "Bañeza (la)",
      "adresse": "Autovia a6 km. 303",
      "brand": "Cepsa",
      "lat": 42.287833,
      "lng": -5.914278,
      "fuels": {
        "gazole": 1.689,
        "sp95": 1.569
      }
    },
    {
      "id": "5539",
      "cp": "24750",
      "ville": "Bañeza (la)",
      "adresse": "Avenida portugal, 46",
      "brand": "Galp",
      "lat": 42.292389,
      "lng": -5.911417,
      "fuels": {
        "gazole": 1.669,
        "sp95": 1.569,
        "sp98": 1.659,
        "gplc": 0.889
      }
    },
    {
      "id": "15408",
      "cp": "24750",
      "ville": "Bañeza (la)",
      "adresse": "Calle Camino arrote, Sn",
      "brand": "Sdad Cooperativa De Transportes Bañezana ",
      "lat": 42.298083,
      "lng": -5.889222,
      "fuels": {
        "gazole": 1.549
      }
    },
    {
      "id": "9044",
      "cp": "24750",
      "ville": "Bañeza (la)",
      "adresse": "Carretera Alija km. 1,400",
      "brand": "Avia",
      "lat": 42.289694,
      "lng": -5.894417,
      "fuels": {
        "gazole": 1.649,
        "sp95": 1.559
      }
    },
    {
      "id": "15694",
      "cp": "24750",
      "ville": "Bañeza (la)",
      "adresse": "Carretera Madrid km. 64",
      "brand": "Plenergy",
      "lat": 42.304083,
      "lng": -5.894778,
      "fuels": {
        "gazole": 1.569,
        "sp95": 1.479
      }
    },
    {
      "id": "6070",
      "cp": "24750",
      "ville": "Bañeza (la)",
      "adresse": "Carretera N-Vi km. 302,6",
      "brand": "Cepsa",
      "lat": 42.304444,
      "lng": -5.898028,
      "fuels": {
        "gazole": 1.659,
        "sp95": 1.549,
        "sp98": 1.659
      }
    },
    {
      "id": "13608",
      "cp": "24750",
      "ville": "Bañeza (la)",
      "adresse": "Carretera N-Vi km. 303",
      "brand": "Eroski",
      "lat": 42.305722,
      "lng": -5.90325,
      "fuels": {
        "gazole": 1.569,
        "sp95": 1.479,
        "sp98": 1.609
      }
    },
    {
      "id": "10717",
      "cp": "24441",
      "ville": "Barosa (la)",
      "adresse": "Carretera Nacional 120 km. 435,2",
      "brand": "Gasoleos Cerecedo",
      "lat": 42.504472,
      "lng": -6.824944,
      "fuels": {
        "gazole": 1.609,
        "sp95": 1.519
      }
    },
    {
      "id": "5995",
      "cp": "24300",
      "ville": "Bembibre",
      "adresse": "Antigua Nacional Vi Km 368",
      "brand": "Repsol",
      "lat": 42.608861,
      "lng": -6.401389,
      "fuels": {
        "gazole": 1.619,
        "sp95": 1.509,
        "sp98": 1.679
      }
    },
    {
      "id": "11352",
      "cp": "24300",
      "ville": "Bembibre",
      "adresse": "Calle Los juncos, S/N",
      "brand": "Dst",
      "lat": 42.619167,
      "lng": -6.414611,
      "fuels": {
        "gazole": 1.649,
        "sp95": 1.559,
        "sp98": 1.659
      }
    },
    {
      "id": "4734",
      "cp": "24300",
      "ville": "Bembibre",
      "adresse": "Parque Industrial Parcela H Km ...",
      "brand": "(sin rótulo)",
      "lat": 42.618,
      "lng": -6.463417,
      "fuels": {
        "gazole": 1.909,
        "sp95": 1.899,
        "sp98": 1.999
      }
    },
    {
      "id": "11012",
      "cp": "24850",
      "ville": "Boñar",
      "adresse": "Avenida madrid, 28",
      "brand": "Repsol",
      "lat": 42.859028,
      "lng": -5.324444,
      "fuels": {
        "gazole": 1.629,
        "sp95": 1.519,
        "sp98": 1.689
      }
    },
    {
      "id": "5524",
      "cp": "24360",
      "ville": "Brañuelas",
      "adresse": "Autovia A-6 (mrg.dcho.) km. 350",
      "brand": "Moeve",
      "lat": 42.60175,
      "lng": -6.232,
      "fuels": {
        "gazole": 1.647,
        "sp95": 1.545,
        "sp98": 1.665
      }
    },
    {
      "id": "5521",
      "cp": "24360",
      "ville": "Brañuelas",
      "adresse": "Autovia A-6 (mrg.izdo.) km. 350",
      "brand": "Moeve",
      "lat": 42.599,
      "lng": -6.233,
      "fuels": {
        "gazole": 1.647,
        "sp95": 1.545,
        "sp98": 1.665
      }
    },
    {
      "id": "9041",
      "cp": "24343",
      "ville": "Burgo Ranero (el)",
      "adresse": "Carretera Las Grañeras km. S/N",
      "brand": "Avia",
      "lat": 42.418944,
      "lng": -5.215694,
      "fuels": {
        "gazole": 1.639,
        "sp95": 1.529,
        "sp98": 1.649
      }
    },
    {
      "id": "11318",
      "cp": "24224",
      "ville": "Cabreros Del Rio",
      "adresse": "Poligono Parcelas 88 Y 89, S/N",
      "brand": "An Energéticos Ucogal",
      "lat": 42.395944,
      "lng": -5.512083,
      "fuels": {
        "gazole": 1.485,
        "sp95": 1.382
      }
    },
    {
      "id": "6037",
      "cp": "24540",
      "ville": "Cacabelos",
      "adresse": "Cr N-6 401",
      "brand": "Repsol",
      "lat": 42.594917,
      "lng": -6.720333,
      "fuels": {
        "gazole": 1.619,
        "sp95": 1.529
      }
    },
    {
      "id": "5968",
      "cp": "24146",
      "ville": "Caldas De Luna",
      "adresse": "Autopista A-66 km. 89",
      "brand": "Cepsa",
      "lat": 42.928972,
      "lng": -5.856583,
      "fuels": {
        "gazole": 1.648,
        "sp95": 1.544,
        "sp98": 1.665,
        "gplc": 1.076
      }
    },
    {
      "id": "6062",
      "cp": "24225",
      "ville": "Campo De Villavidel",
      "adresse": "Carretera a231 km. 8",
      "brand": "Repsol",
      "lat": 42.454889,
      "lng": -5.520889,
      "fuels": {
        "gazole": 1.639,
        "sp95": 1.539,
        "sp98": 1.689
      }
    },
    {
      "id": "5063",
      "cp": "24410",
      "ville": "Camponaraya",
      "adresse": "Autovia A-6 km. 396,7",
      "brand": "Petronor",
      "lat": 42.58525,
      "lng": -6.675389,
      "fuels": {
        "gazole": 1.629,
        "sp95": 1.519
      }
    },
    {
      "id": "14561",
      "cp": "24410",
      "ville": "Camponaraya",
      "adresse": "Autovia a6 km. 394",
      "brand": "Cepsa",
      "lat": 42.587944,
      "lng": -6.675806,
      "fuels": {
        "gazole": 1.689,
        "sp95": 1.599,
        "sp98": 1.749
      }
    },
    {
      "id": "5050",
      "cp": "24410",
      "ville": "Camponaraya",
      "adresse": "Poligono Poligono Industrial De camponaraya, S/N",
      "brand": "Repsol",
      "lat": 42.566694,
      "lng": -6.657917,
      "fuels": {
        "gazole": 1.635,
        "sp95": 1.525,
        "sp98": 1.695
      }
    },
    {
      "id": "4948",
      "cp": "24123",
      "ville": "Carrocera",
      "adresse": "Carretera Cyl 626 km. 80",
      "brand": "e.s.cargosa",
      "lat": 42.784111,
      "lng": -5.787083,
      "fuels": {
        "gazole": 1.648,
        "sp95": 1.538,
        "sp98": 1.648
      }
    },
    {
      "id": "14224",
      "cp": "24199",
      "ville": "Castrillo De La Ribera",
      "adresse": "Calle Cañada Real-Mr  En  Marialba-mr, 107",
      "brand": "Distrol",
      "lat": 42.553861,
      "lng": -5.549611,
      "fuels": {
        "gazole": 1.537,
        "sp95": 1.397
      }
    },
    {
      "id": "5519",
      "cp": "24800",
      "ville": "Cistierna",
      "adresse": "Avenida constitucion, 177",
      "brand": "Repsol",
      "lat": 42.809972,
      "lng": -5.130639,
      "fuels": {
        "gazole": 1.639,
        "sp95": 1.529,
        "sp98": 1.689
      }
    },
    {
      "id": "6014",
      "cp": "24715",
      "ville": "Combarros",
      "adresse": "Carretera ctra. N-Vi km. 335",
      "brand": "Repsol",
      "lat": 42.517306,
      "lng": -6.125972,
      "fuels": {
        "gazole": 1.679,
        "sp95": 1.589,
        "sp98": 1.719
      }
    },
    {
      "id": "5977",
      "cp": "24492",
      "ville": "Cubillos Del Sil",
      "adresse": "Carretera Comarcal 631 km. 8",
      "brand": "Repsol",
      "lat": 42.615778,
      "lng": -6.589972,
      "fuels": {
        "gazole": 1.625,
        "sp95": 1.515
      }
    },
    {
      "id": "5064",
      "cp": "24288",
      "ville": "Estebanez De La Calzada",
      "adresse": "Carretera Nacional 120 km. 342",
      "brand": "Repsol",
      "lat": 42.447667,
      "lng": -5.965917,
      "fuels": {
        "gazole": 1.649,
        "sp95": 1.569,
        "sp98": 1.739
      }
    },
    {
      "id": "5516",
      "cp": "24420",
      "ville": "Fabero",
      "adresse": "Avenida bierzo, 65",
      "brand": "Repsol",
      "lat": 42.7625,
      "lng": -6.631611,
      "fuels": {
        "gazole": 1.625,
        "sp95": 1.509,
        "sp98": 1.679
      }
    },
    {
      "id": "6029",
      "cp": "24250",
      "ville": "Fontecha",
      "adresse": "Carretera León - La Bañeza km. 17",
      "brand": "Repsol",
      "lat": 42.436167,
      "lng": -5.692611,
      "fuels": {
        "gazole": 1.629,
        "sp95": 1.509
      }
    },
    {
      "id": "11049",
      "cp": "24223",
      "ville": "Fresno De La Vega",
      "adresse": "Carretera le512 km. 21,000",
      "brand": "Prio",
      "lat": 42.345972,
      "lng": -5.51875,
      "fuels": {
        "gazole": 1.617,
        "sp95": 1.543
      }
    },
    {
      "id": "14898",
      "cp": "24285",
      "ville": "Gavilanes",
      "adresse": "Carretera La Bañeza-La Magdalena km. 87,3",
      "brand": "Guay",
      "lat": 42.512611,
      "lng": -5.890694,
      "fuels": {
        "gazole": 1.629,
        "sp95": 1.539
      }
    },
    {
      "id": "11488",
      "cp": "24796",
      "ville": "Grajal De Ribera",
      "adresse": "Carretera Le-412 km. 3,850",
      "brand": "Beroil",
      "lat": 42.155861,
      "lng": -5.646722,
      "fuels": {
        "gazole": 1.675,
        "sp95": 1.545,
        "sp98": 1.655
      }
    },
    {
      "id": "4993",
      "cp": "24286",
      "ville": "Hospital De Orbigo",
      "adresse": "Carretera Nacional 120 km. 335",
      "brand": "Cepsa",
      "lat": 42.458556,
      "lng": -5.882444,
      "fuels": {
        "gazole": 1.639,
        "sp95": 1.535,
        "sp98": 1.665
      }
    },
    {
      "id": "6034",
      "cp": "24234",
      "ville": "Laguna De Negrillos",
      "adresse": "Carretera Ctra l411 Pkm 11,2 km. 11",
      "brand": "Repsol",
      "lat": 42.235,
      "lng": -5.665556,
      "fuels": {
        "gazole": 1.629,
        "sp95": 1.509
      }
    },
    {
      "id": "8777",
      "cp": "24009",
      "ville": "Leon",
      "adresse": "Avenida agustinos, 27",
      "brand": "Ballenoil",
      "lat": 42.587833,
      "lng": -5.601111,
      "fuels": {
        "gazole": 1.539,
        "sp95": 1.399
      }
    },
    {
      "id": "14440",
      "cp": "24005",
      "ville": "Leon",
      "adresse": "Avenida Alcalde Miguel castaño, 119",
      "brand": "Petroprix",
      "lat": 42.584417,
      "lng": -5.557667,
      "fuels": {
        "gazole": 1.539,
        "sp95": 1.399
      }
    },
    {
      "id": "14758",
      "cp": "24005",
      "ville": "Leon",
      "adresse": "Avenida Alcalde Miguel castaño, 125",
      "brand": "Ballenoil",
      "lat": 42.583833,
      "lng": -5.557083,
      "fuels": {
        "gazole": 1.539,
        "sp95": 1.399
      }
    },
    {
      "id": "5541",
      "cp": "24005",
      "ville": "Leon",
      "adresse": "Avenida Alcalde Miguel castaño, 98",
      "brand": "Repsol",
      "lat": 42.585611,
      "lng": -5.559389,
      "fuels": {
        "gazole": 1.655,
        "sp95": 1.529,
        "sp98": 1.649
      }
    },
    {
      "id": "14467",
      "cp": "24009",
      "ville": "Leon",
      "adresse": "Avenida antibioticos, 41",
      "brand": "E-Leclerc",
      "lat": 42.585861,
      "lng": -5.584028,
      "fuels": {
        "gazole": 1.539,
        "sp95": 1.399
      }
    },
    {
      "id": "14977",
      "cp": "24009",
      "ville": "Leon",
      "adresse": "Avenida antibioticos, 63",
      "brand": "Ballenoil",
      "lat": 42.574361,
      "lng": -5.582861,
      "fuels": {
        "gazole": 1.539,
        "sp95": 1.399
      }
    },
    {
      "id": "5538",
      "cp": "24003",
      "ville": "Leon",
      "adresse": "Avenida antibioticos, S/N",
      "brand": "Galp",
      "lat": 42.577972,
      "lng": -5.583944,
      "fuels": {
        "gazole": 1.599,
        "sp95": 1.459,
        "sp98": 1.599
      }
    },
    {
      "id": "12967",
      "cp": "24007",
      "ville": "Leon",
      "adresse": "Avenida Jose Maria Gonzalez suarez, S/N",
      "brand": "Repsol",
      "lat": 42.603028,
      "lng": -5.558028,
      "fuels": {
        "gazole": 1.655,
        "sp95": 1.529,
        "sp98": 1.649,
        "gplc": 1.095
      }
    },
    {
      "id": "12005",
      "cp": "24010",
      "ville": "Leon",
      "adresse": "Avenida Pais leones, 12",
      "brand": "Paso Honroso",
      "lat": 42.614222,
      "lng": -5.597917,
      "fuels": {
        "gazole": 1.559,
        "sp95": 1.449,
        "sp98": 1.559
      }
    },
    {
      "id": "8048",
      "cp": "24009",
      "ville": "Leon",
      "adresse": "Avenida portugal, S/N",
      "brand": "Shell",
      "lat": 42.585083,
      "lng": -5.59025,
      "fuels": {
        "gazole": 1.579,
        "sp95": 1.479,
        "sp98": 1.579
      }
    },
    {
      "id": "4974",
      "cp": "24009",
      "ville": "Leon",
      "adresse": "Avenida Saenz De Miera S/n, S/N",
      "brand": "Repsol",
      "lat": 42.590833,
      "lng": -5.577389,
      "fuels": {
        "gazole": 1.639,
        "sp95": 1.539,
        "sp98": 1.709
      }
    },
    {
      "id": "12826",
      "cp": "24005",
      "ville": "Leon",
      "adresse": "Calle arrabal, S/N",
      "brand": "Carrefour",
      "lat": 42.585917,
      "lng": -5.555667,
      "fuels": {
        "gazole": 1.619,
        "sp95": 1.499,
        "sp98": 1.609
      }
    },
    {
      "id": "9670",
      "cp": "24007",
      "ville": "Leon",
      "adresse": "Calle La serna, 86",
      "brand": "Moeve",
      "lat": 42.60825,
      "lng": -5.556528,
      "fuels": {
        "gazole": 1.639,
        "sp95": 1.535,
        "sp98": 1.649,
        "gplc": 1.076
      }
    },
    {
      "id": "5530",
      "cp": "24191",
      "ville": "Leon",
      "adresse": "Carretera C-623 km. 3,4",
      "brand": "Petronor",
      "lat": 42.617306,
      "lng": -5.602306,
      "fuels": {
        "gazole": 1.649,
        "sp95": 1.539,
        "sp98": 1.659
      }
    },
    {
      "id": "14577",
      "cp": "24008",
      "ville": "Leon",
      "adresse": "Carretera Carbajal 85 km. 1,3",
      "brand": "Cepsa",
      "lat": 42.631861,
      "lng": -5.599417,
      "fuels": {
        "gazole": 1.659,
        "sp95": 1.549,
        "sp98": 1.699,
        "gplc": 1.059
      }
    },
    {
      "id": "4977",
      "cp": "24192",
      "ville": "Leon",
      "adresse": "Carretera Vilecha-Tr km. S/N",
      "brand": "Paso Honroso",
      "lat": 42.582222,
      "lng": -5.573972,
      "fuels": {
        "gazole": 1.559,
        "sp95": 1.449,
        "sp98": 1.559
      }
    },
    {
      "id": "6057",
      "cp": "24001",
      "ville": "Leon",
      "adresse": "Cl Cruz Roja De leon, s.n.",
      "brand": "Repsol",
      "lat": 42.604667,
      "lng": -5.579194,
      "fuels": {
        "gazole": 1.649,
        "sp95": 1.535,
        "sp98": 1.655,
        "gplc": 1.095
      }
    },
    {
      "id": "6022",
      "cp": "24191",
      "ville": "Leon",
      "adresse": "N-120 Km 308",
      "brand": "Bp Leon - Trobajo Mi",
      "lat": 42.590722,
      "lng": -5.616,
      "fuels": {
        "gazole": 1.625,
        "sp95": 1.529
      }
    },
    {
      "id": "5523",
      "cp": "24004",
      "ville": "Leon",
      "adresse": "Plaza San francisco, S/N",
      "brand": "Cepsa",
      "lat": 42.594222,
      "lng": -5.570389,
      "fuels": {
        "gazole": 1.649,
        "sp95": 1.539
      }
    },
    {
      "id": "16009",
      "cp": "24005",
      "ville": "Leon",
      "adresse": "Sector La lastra, Parcela E-2-Q - Centro Comercial La lastra, S/N",
      "brand": "Ballenoil",
      "lat": 42.580361,
      "lng": -5.566556,
      "fuels": {
        "gazole": 1.539,
        "sp95": 1.399
      }
    },
    {
      "id": "6024",
      "cp": "24210",
      "ville": "Mansilla De Las Mulas",
      "adresse": "Cr N-601 308",
      "brand": "Repsol",
      "lat": 42.495472,
      "lng": -5.414389,
      "fuels": {
        "gazole": 1.645,
        "sp95": 1.535,
        "sp98": 1.705
      }
    },
    {
      "id": "5042",
      "cp": "24248",
      "ville": "Mansilla Del Paramo",
      "adresse": "Carretera C-621 Mayorga-Astorga km. 50,400",
      "brand": "Cepsa",
      "lat": 42.382806,
      "lng": -5.784917,
      "fuels": {
        "gazole": 1.639,
        "sp95": 1.529
      }
    },
    {
      "id": "5537",
      "cp": "24217",
      "ville": "Mansilla Mayor",
      "adresse": "Carretera N-601 km. 312,4",
      "brand": "Galp",
      "lat": 42.523611,
      "lng": -5.435583,
      "fuels": {
        "gazole": 1.639,
        "sp95": 1.529,
        "sp98": 1.669
      }
    },
    {
      "id": "4937",
      "cp": "24369",
      "ville": "Manzanal Del Puerto",
      "adresse": "Carretera N - Vi km. 351",
      "brand": "Easygas",
      "lat": 42.599222,
      "lng": -6.230444,
      "fuels": {
        "gazole": 1.559,
        "sp95": 1.479
      }
    },
    {
      "id": "10041",
      "cp": "24290",
      "ville": "Matallana De Valmadrigal",
      "adresse": "Avenida Leon 1",
      "brand": "Petronor",
      "lat": 42.360083,
      "lng": -5.329472,
      "fuels": {
        "gazole": 1.615,
        "sp95": 1.509,
        "sp98": 1.679
      }
    },
    {
      "id": "8068",
      "cp": "24193",
      "ville": "Navatejera",
      "adresse": "avda.de La libertad, 40",
      "brand": "Shell",
      "lat": 42.622389,
      "lng": -5.563778,
      "fuels": {
        "gazole": 1.569,
        "sp95": 1.489,
        "sp98": 1.589
      }
    },
    {
      "id": "4950",
      "cp": "24193",
      "ville": "Navatejera",
      "adresse": "Carretera N-630 km. 140",
      "brand": "Alto Leon",
      "lat": 42.636833,
      "lng": -5.589778,
      "fuels": {
        "gazole": 1.549,
        "sp95": 1.409,
        "sp98": 1.519
      }
    },
    {
      "id": "11891",
      "cp": "24193",
      "ville": "Navatejera",
      "adresse": "Poligono La huerga, 17",
      "brand": "Repsol",
      "lat": 42.64475,
      "lng": -5.58625,
      "fuels": {
        "gazole": 1.639,
        "sp95": 1.529
      }
    },
    {
      "id": "11343",
      "cp": "24734",
      "ville": "Nogarejas",
      "adresse": "Carretera Leon 125 km. 22,500",
      "brand": "Galp",
      "lat": 42.198361,
      "lng": -6.109278,
      "fuels": {
        "gazole": 1.669,
        "sp95": 1.569,
        "sp98": 1.659
      }
    },
    {
      "id": "11600",
      "cp": "24231",
      "ville": "Onzonilla",
      "adresse": "Carretera N-630 km. 154,500",
      "brand": "Paso Honroso",
      "lat": 42.526,
      "lng": -5.585333,
      "fuels": {
        "gazole": 1.499
      }
    },
    {
      "id": "4912",
      "cp": "24231",
      "ville": "Onzonilla",
      "adresse": "Carretera Nacional 630 km. 153,6",
      "brand": "Valcarce",
      "lat": 42.534083,
      "lng": -5.584028,
      "fuels": {
        "gazole": 1.629,
        "sp95": 1.519
      }
    },
    {
      "id": "11750",
      "cp": "24231",
      "ville": "Onzonilla",
      "adresse": "Poligono Industrial C/3 G-7b, S/N",
      "brand": "Gasoleos Arias martinez, s.l.",
      "lat": 42.540361,
      "lng": -5.575,
      "fuels": {
        "gazole": 1.519,
        "sp95": 1.429,
        "sp98": 1.619
      }
    },
    {
      "id": "5032",
      "cp": "24126",
      "ville": "Oterico",
      "adresse": "Carretera Le-493 km. 43",
      "brand": "Cepsa",
      "lat": 42.777778,
      "lng": -5.924861,
      "fuels": {
        "gazole": 1.689,
        "sp95": 1.589,
        "sp98": 1.709
      }
    },
    {
      "id": "11480",
      "cp": "24225",
      "ville": "Palanquinos",
      "adresse": "Autovia Camino De Santiago km. 9,5",
      "brand": "Valcarce",
      "lat": 42.451222,
      "lng": -5.499333,
      "fuels": {
        "gazole": 1.629,
        "sp95": 1.519
      }
    },
    {
      "id": "9782",
      "cp": "24225",
      "ville": "Palanquinos",
      "adresse": "Calle Almirante Martin granizo, 53",
      "brand": "Es Esla",
      "lat": 42.45575,
      "lng": -5.497806,
      "fuels": {
        "gazole": 1.62,
        "sp95": 1.52
      }
    },
    {
      "id": "6061",
      "cp": "24225",
      "ville": "Palanquinos",
      "adresse": "Carretera a231 km. 8",
      "brand": "Repsol",
      "lat": 42.455528,
      "lng": -5.518139,
      "fuels": {
        "gazole": 1.629,
        "sp95": 1.539,
        "sp98": 1.689
      }
    },
    {
      "id": "6032",
      "cp": "24470",
      "ville": "Paramo Del Sil",
      "adresse": "Carretera C-631 km. 36",
      "brand": "Repsol",
      "lat": 42.807139,
      "lng": -6.524778,
      "fuels": {
        "gazole": 1.615,
        "sp95": 1.509
      }
    },
    {
      "id": "4910",
      "cp": "24600",
      "ville": "Pola De Gordon (la)",
      "adresse": "ctra. Gijón-Sevilla Km 110,5",
      "brand": "Servigordon",
      "lat": 42.86225,
      "lng": -5.673722,
      "fuels": {
        "gazole": 1.679,
        "sp95": 1.609,
        "sp98": 1.779
      }
    },
    {
      "id": "10878",
      "cp": "24400",
      "ville": "Ponferrada",
      "adresse": "Autovia A-6 km. 390,3",
      "brand": "Repsol",
      "lat": 42.583917,
      "lng": -6.628056,
      "fuels": {
        "gazole": 1.645,
        "sp95": 1.529,
        "sp98": 1.699
      }
    },
    {
      "id": "4999",
      "cp": "24400",
      "ville": "Ponferrada",
      "adresse": "avda. De La plata, 2 (n-Via Km 383,5)",
      "brand": "Cepsa",
      "lat": 42.547361,
      "lng": -6.605778,
      "fuels": {
        "gazole": 1.639,
        "sp95": 1.535,
        "sp98": 1.655
      }
    },
    {
      "id": "10923",
      "cp": "24400",
      "ville": "Ponferrada",
      "adresse": "Avenida asturias, 137",
      "brand": "Repsol",
      "lat": 42.565278,
      "lng": -6.605778,
      "fuels": {
        "gazole": 1.629,
        "sp95": 1.519,
        "sp98": 1.689
      }
    },
    {
      "id": "10523",
      "cp": "24400",
      "ville": "Ponferrada",
      "adresse": "Avenida De galicia, 241",
      "brand": "Valcarce",
      "lat": 42.565778,
      "lng": -6.638222,
      "fuels": {
        "gazole": 1.629,
        "sp95": 1.519
      }
    },
    {
      "id": "5536",
      "cp": "24400",
      "ville": "Ponferrada",
      "adresse": "Avenida De galicia, S/N",
      "brand": "Galp",
      "lat": 42.555667,
      "lng": -6.615861,
      "fuels": {
        "gazole": 1.615,
        "sp95": 1.505,
        "sp98": 1.665
      }
    },
    {
      "id": "11495",
      "cp": "24400",
      "ville": "Ponferrada",
      "adresse": "Avenida De La constitución, 2",
      "brand": "Carrefour",
      "lat": 42.55775,
      "lng": -6.602861,
      "fuels": {
        "gazole": 1.599,
        "sp95": 1.489,
        "sp98": 1.649
      }
    },
    {
      "id": "14958",
      "cp": "24400",
      "ville": "Ponferrada",
      "adresse": "Avenida galicia, 221",
      "brand": "Plenergy",
      "lat": 42.565222,
      "lng": -6.636,
      "fuels": {
        "gazole": 1.525,
        "sp95": 1.419
      }
    },
    {
      "id": "5988",
      "cp": "24400",
      "ville": "Ponferrada",
      "adresse": "Avenida galicia, 86",
      "brand": "Repsol",
      "lat": 42.560583,
      "lng": -6.625694,
      "fuels": {
        "gazole": 1.629,
        "sp95": 1.519,
        "sp98": 1.689
      }
    },
    {
      "id": "5527",
      "cp": "24400",
      "ville": "Ponferrada",
      "adresse": "Avenida libertad, S/N",
      "brand": "Repsol",
      "lat": 42.552333,
      "lng": -6.600833,
      "fuels": {
        "gazole": 1.635,
        "sp95": 1.515,
        "sp98": 1.685
      }
    },
    {
      "id": "12856",
      "cp": "24400",
      "ville": "Ponferrada",
      "adresse": "Avenida Molinaseca  En  ponferrada, 2",
      "brand": "Shell",
      "lat": 42.54525,
      "lng": -6.58275,
      "fuels": {
        "gazole": 1.635,
        "sp95": 1.525,
        "sp98": 1.655
      }
    },
    {
      "id": "13091",
      "cp": "24400",
      "ville": "Ponferrada",
      "adresse": "Avenida Montearenas  En  ponferrada, S/N",
      "brand": "Valcarce",
      "lat": 42.553806,
      "lng": -6.569222,
      "fuels": {
        "gazole": 1.629,
        "sp95": 1.519
      }
    },
    {
      "id": "5000",
      "cp": "24400",
      "ville": "Ponferrada",
      "adresse": "Avenida portugal, Sn",
      "brand": "Cepsa",
      "lat": 42.540917,
      "lng": -6.63975,
      "fuels": {
        "gazole": 1.649,
        "sp95": 1.539
      }
    },
    {
      "id": "6056",
      "cp": "24400",
      "ville": "Ponferrada",
      "adresse": "Calle avda. De Los escritores, Sn",
      "brand": "Repsol",
      "lat": 42.549333,
      "lng": -6.606694,
      "fuels": {
        "gazole": 1.635,
        "sp95": 1.515,
        "sp98": 1.685
      }
    },
    {
      "id": "14909",
      "cp": "24400",
      "ville": "Ponferrada",
      "adresse": "Calle Burdeos  En  ponferrada, 3",
      "brand": "Zepxa Eco",
      "lat": 42.554389,
      "lng": -6.613417,
      "fuels": {
        "gazole": 1.525,
        "e10": 1.425
      }
    },
    {
      "id": "5061",
      "cp": "24400",
      "ville": "Ponferrada",
      "adresse": "Calle Montearenas (antigua N-vi), S/N",
      "brand": "Repsol",
      "lat": 42.550889,
      "lng": -6.576194,
      "fuels": {
        "gazole": 1.645,
        "sp95": 1.545,
        "sp98": 1.665
      }
    },
    {
      "id": "10877",
      "cp": "24400",
      "ville": "Ponferrada",
      "adresse": "Carretera a6 km. 390,3",
      "brand": "Repsol",
      "lat": 42.584417,
      "lng": -6.625778,
      "fuels": {
        "gazole": 1.635,
        "sp95": 1.529,
        "sp98": 1.699,
        "gplc": 1.105
      }
    },
    {
      "id": "10560",
      "cp": "24400",
      "ville": "Ponferrada",
      "adresse": "Nacional Vi Km 386.200",
      "brand": "Gasoleos Villager",
      "lat": 42.56925,
      "lng": -6.600222,
      "fuels": {
        "gazole": 1.529,
        "sp95": 1.429,
        "sp98": 1.579
      }
    },
    {
      "id": "14760",
      "cp": "24400",
      "ville": "Ponferrada",
      "adresse": "Poligono Av De Milan 1, 8",
      "brand": "Petroprix",
      "lat": 42.554306,
      "lng": -6.617694,
      "fuels": {
        "gazole": 1.525,
        "sp95": 1.419
      }
    },
    {
      "id": "8073",
      "cp": "24524",
      "ville": "Portela De Valcarce (la)",
      "adresse": "A-6, Salida 419/420 Km 419",
      "brand": "Valcarce",
      "lat": 42.658806,
      "lng": -6.914083,
      "fuels": {
        "gazole": 1.629,
        "sp95": 1.519
      }
    },
    {
      "id": "8011",
      "cp": "24524",
      "ville": "Portela De Valcarce (la)",
      "adresse": "Carretera Nacional Vi km. 418",
      "brand": "Repsol",
      "lat": 42.660583,
      "lng": -6.921639,
      "fuels": {
        "gazole": 1.615,
        "sp95": 1.515,
        "sp98": 1.685
      }
    },
    {
      "id": "8197",
      "cp": "24855",
      "ville": "Puebla De Lillo",
      "adresse": "Carretera General (boñar-Cabañaquinta Km 0,165)",
      "brand": "Cedyc",
      "lat": 43.014472,
      "lng": -5.276528,
      "fuels": {
        "gazole": 1.615,
        "sp95": 1.515
      }
    },
    {
      "id": "6016",
      "cp": "24880",
      "ville": "Puente Almuhey",
      "adresse": "Cr Le-232, 26,3",
      "brand": "Petronor",
      "lat": 42.782972,
      "lng": -4.978667,
      "fuels": {
        "gazole": 1.629,
        "sp95": 1.539,
        "sp98": 1.705
      }
    },
    {
      "id": "6043",
      "cp": "24380",
      "ville": "Puente De Domingo Florez",
      "adresse": "Cr N-536, 33,3",
      "brand": "Repsol",
      "lat": 42.417889,
      "lng": -6.823944,
      "fuels": {
        "gazole": 1.615,
        "sp95": 1.509,
        "sp98": 1.679
      }
    },
    {
      "id": "12850",
      "cp": "24286",
      "ville": "Puente De Orbigo",
      "adresse": "Carretera N-120 km. 334,000",
      "brand": "Area De Servicio Ural",
      "lat": 42.462389,
      "lng": -5.869194,
      "fuels": {
        "gazole": 1.539,
        "sp95": 1.449
      }
    },
    {
      "id": "5003",
      "cp": "24900",
      "ville": "Riaño",
      "adresse": "Carretera N-621 km. 98",
      "brand": "Moeve",
      "lat": 42.973944,
      "lng": -4.96225,
      "fuels": {
        "gazole": 1.639
      }
    },
    {
      "id": "4964",
      "cp": "24794",
      "ville": "Riego De La Vega",
      "adresse": "N-Vi Km 314,1",
      "brand": "Compostra Oil",
      "lat": 42.384277,
      "lng": -5.985685,
      "fuels": {
        "gazole": 1.655,
        "sp95": 1.55
      }
    },
    {
      "id": "5969",
      "cp": "24275",
      "ville": "Rioseco De Tapia",
      "adresse": "At Ap-66, 126",
      "brand": "Repsol",
      "lat": 42.691639,
      "lng": -5.770944,
      "fuels": {
        "gazole": 1.669,
        "sp95": 1.539,
        "sp98": 1.649
      }
    },
    {
      "id": "5970",
      "cp": "24275",
      "ville": "Rioseco De Tapia",
      "adresse": "At Ap-66, 126",
      "brand": "Repsol",
      "lat": 42.690583,
      "lng": -5.7675,
      "fuels": {
        "gazole": 1.659,
        "sp95": 1.529,
        "sp98": 1.649
      }
    },
    {
      "id": "6023",
      "cp": "24640",
      "ville": "Robla (la)",
      "adresse": "Carretera N-630 km. 121",
      "brand": "Repsol",
      "lat": 42.792139,
      "lng": -5.628194,
      "fuels": {
        "gazole": 1.649,
        "sp95": 1.575,
        "sp98": 1.745
      }
    },
    {
      "id": "5082",
      "cp": "24320",
      "ville": "Sahagun",
      "adresse": "A-231 Km 49",
      "brand": "Moeve",
      "lat": 42.380083,
      "lng": -5.049028,
      "fuels": {
        "gazole": 1.654,
        "sp95": 1.539,
        "sp98": 1.665
      }
    },
    {
      "id": "5514",
      "cp": "24320",
      "ville": "Sahagun",
      "adresse": "A-231 Km 50",
      "brand": "Moeve",
      "lat": 42.381389,
      "lng": -5.049028,
      "fuels": {
        "gazole": 1.654,
        "sp95": 1.539,
        "sp98": 1.665
      }
    },
    {
      "id": "5006",
      "cp": "24320",
      "ville": "Sahagun",
      "adresse": "C-611 Km 1,1",
      "brand": "Cepsa",
      "lat": 42.369111,
      "lng": -5.024222,
      "fuels": {
        "gazole": 1.649,
        "sp95": 1.539,
        "sp98": 1.623
      }
    },
    {
      "id": "11812",
      "cp": "24320",
      "ville": "Sahagun",
      "adresse": "Carretera Mayorga km. 1",
      "brand": "rialce, s.l.",
      "lat": 42.366194,
      "lng": -5.034861,
      "fuels": {
        "gazole": 1.529,
        "sp95": 1.435
      }
    },
    {
      "id": "4732",
      "cp": "24191",
      "ville": "San Andres Del Rabanedo",
      "adresse": "avda. Párroco Pablo Diez S/N (c.c. leclerc)",
      "brand": "e.leclerc Leon",
      "lat": 42.590167,
      "lng": -5.618333,
      "fuels": {
        "gazole": 1.539,
        "sp95": 1.399
      }
    },
    {
      "id": "16350",
      "cp": "24010",
      "ville": "San Andres Del Rabanedo",
      "adresse": "Avenida Del Párroco Pablo diez, 487",
      "brand": "Ballenoil",
      "lat": 42.588972,
      "lng": -5.619306,
      "fuels": {
        "gazole": 1.539,
        "sp95": 1.399
      }
    },
    {
      "id": "10607",
      "cp": "24191",
      "ville": "San Andres Del Rabanedo",
      "adresse": "Azorin S/N",
      "brand": "Paso Honroso",
      "lat": 42.607694,
      "lng": -5.604056,
      "fuels": {
        "gazole": 1.559,
        "sp95": 1.449,
        "sp98": 1.559
      }
    },
    {
      "id": "6030",
      "cp": "24191",
      "ville": "San Andres Del Rabanedo",
      "adresse": "Carretera Le-441 km. 4,6",
      "brand": "Repsol",
      "lat": 42.613278,
      "lng": -5.639972,
      "fuels": {
        "gazole": 1.639,
        "sp95": 1.529,
        "sp98": 1.699
      }
    },
    {
      "id": "5047",
      "cp": "24359",
      "ville": "San Cristobal De La Polantera",
      "adresse": "Carretera Le-420 km. 72",
      "brand": "Paso Honroso",
      "lat": 42.382972,
      "lng": -5.888556,
      "fuels": {
        "gazole": 1.549,
        "sp95": 1.449
      }
    },
    {
      "id": "5542",
      "cp": "24144",
      "ville": "San Emiliano",
      "adresse": " Cl  626, ",
      "brand": "Lisarminia",
      "lat": 42.946917,
      "lng": -5.997528,
      "fuels": {
        "gazole": 1.639,
        "sp95": 1.519
      }
    },
    {
      "id": "14571",
      "cp": "24318",
      "ville": "San Roman De Bembibre",
      "adresse": "Poligono Poligono indust. Pibasa  En  bembibre, Sn",
      "brand": "Repsol",
      "lat": 42.623778,
      "lng": -6.45225,
      "fuels": {
        "gazole": 1.669,
        "sp95": 1.579,
        "sp98": 1.789
      }
    },
    {
      "id": "6027",
      "cp": "24240",
      "ville": "Santa Maria Del Paramo",
      "adresse": "Carretera Mayorga Astorga km. 46",
      "brand": "Repsol",
      "lat": 42.352028,
      "lng": -5.739417,
      "fuels": {
        "gazole": 1.635,
        "sp95": 1.515,
        "sp98": 1.645
      }
    },
    {
      "id": "12400",
      "cp": "24795",
      "ville": "Santibañez De La Isla",
      "adresse": "Calle El parque, 9",
      "brand": "Cooperativa San Blas",
      "lat": 42.375139,
      "lng": -5.935528,
      "fuels": {
        "gazole": 1.559,
        "sp95": 1.469
      }
    },
    {
      "id": "4758",
      "cp": "24391",
      "ville": "Santovenia De La Valdoncina",
      "adresse": "C-622   León-Portugal Km 2,6",
      "brand": "Repsol",
      "lat": 42.533611,
      "lng": -5.592944,
      "fuels": {
        "gazole": 1.649,
        "sp95": 1.559,
        "sp98": 1.679
      }
    },
    {
      "id": "4745",
      "cp": "24121",
      "ville": "Sariegos Del Bernesga",
      "adresse": "C-623 Km 8,5",
      "brand": "Jovino Esther E Hijos s.l.",
      "lat": 42.660667,
      "lng": -5.623778,
      "fuels": {
        "gazole": 1.588,
        "sp95": 1.416,
        "sp98": 1.665
      }
    },
    {
      "id": "4929",
      "cp": "24121",
      "ville": "Sariegos Del Bernesga",
      "adresse": "Carrera caboalles, 6",
      "brand": "Jovino Esther E Hijos s.l.",
      "lat": 42.660389,
      "lng": -5.624444,
      "fuels": {
        "gazole": 1.588,
        "sp95": 1.416,
        "sp98": 1.665
      }
    },
    {
      "id": "11013",
      "cp": "24226",
      "ville": "Toldanos",
      "adresse": "Carretera General Adanero -Gijon N-601 km. 316",
      "brand": "Repsol",
      "lat": 42.547667,
      "lng": -5.462361,
      "fuels": {
        "gazole": 1.639,
        "sp95": 1.535,
        "sp98": 1.705
      }
    },
    {
      "id": "6012",
      "cp": "24237",
      "ville": "Toral De Los Guzmanes",
      "adresse": "Carretera N-630 km. 186,300",
      "brand": "Repsol",
      "lat": 42.241972,
      "lng": -5.570611,
      "fuels": {
        "gazole": 1.639,
        "sp95": 1.539,
        "sp98": 1.629
      }
    },
    {
      "id": "9509",
      "cp": "24237",
      "ville": "Toral De Los Guzmanes",
      "adresse": "Carretera Valencia De Don Juan km. Sn",
      "brand": "Agropal",
      "lat": 42.251222,
      "lng": -5.566194,
      "fuels": {
        "gazole": 1.49
      }
    },
    {
      "id": "5021",
      "cp": "24560",
      "ville": "Toral De Los Vados",
      "adresse": "Carretera N-Vi km. 405",
      "brand": "Moeve",
      "lat": 42.570806,
      "lng": -6.767972,
      "fuels": {
        "gazole": 1.649,
        "sp95": 1.539
      }
    },
    {
      "id": "9111",
      "cp": "24560",
      "ville": "Toral De Los Vados",
      "adresse": "N-120 Km 429",
      "brand": "Valcarce",
      "lat": 42.544639,
      "lng": -6.782139,
      "fuels": {
        "gazole": 1.639,
        "sp95": 1.529
      }
    },
    {
      "id": "5012",
      "cp": "24450",
      "ville": "Toreno",
      "adresse": "Carretera Cl-631 km24 km. 24",
      "brand": "Cepsa",
      "lat": 42.705389,
      "lng": -6.515639,
      "fuels": {
        "gazole": 1.649,
        "sp95": 1.559
      }
    },
    {
      "id": "4936",
      "cp": "24523",
      "ville": "Trabadelo",
      "adresse": "Autovia A-6 km. 414,5",
      "brand": "e.s. Trabadelo",
      "lat": 42.646333,
      "lng": -6.876556,
      "fuels": {
        "gazole": 1.639,
        "sp95": 1.539,
        "sp98": 1.679
      }
    },
    {
      "id": "12507",
      "cp": "24010",
      "ville": "Trobajo Del Camino",
      "adresse": "Avenida Parroco Pablo diez, 462",
      "brand": "Valcarce",
      "lat": 42.591222,
      "lng": -5.615167,
      "fuels": {
        "gazole": 1.629,
        "sp95": 1.519
      }
    },
    {
      "id": "6010",
      "cp": "24010",
      "ville": "Trobajo Del Camino",
      "adresse": "Carretera Nacional 120 km. 309,9",
      "brand": "Repsol",
      "lat": 42.584861,
      "lng": -5.631944,
      "fuels": {
        "gazole": 1.649,
        "sp95": 1.539
      }
    },
    {
      "id": "6021",
      "cp": "24010",
      "ville": "Trobajo Del Camino",
      "adresse": "Carretera Nn 120 km. 308",
      "brand": "Bp Leon - Trobajo Md",
      "lat": 42.590472,
      "lng": -5.615583,
      "fuels": {
        "gazole": 1.625,
        "sp95": 1.529,
        "sp98": 1.669
      }
    },
    {
      "id": "5999",
      "cp": "24227",
      "ville": "Valdelafuente",
      "adresse": "Carretera N-601 km. 321",
      "brand": "Repsol",
      "lat": 42.570944,
      "lng": -5.520528,
      "fuels": {
        "gazole": 1.639,
        "sp95": 1.529,
        "sp98": 1.699
      }
    },
    {
      "id": "6000",
      "cp": "24227",
      "ville": "Valdelafuente",
      "adresse": "Carretera N-601 km. 321",
      "brand": "Repsol",
      "lat": 42.569722,
      "lng": -5.519194,
      "fuels": {
        "gazole": 1.639,
        "sp95": 1.529,
        "sp98": 1.699
      }
    },
    {
      "id": "5017",
      "cp": "24220",
      "ville": "Valderas",
      "adresse": "Carretera Benavente km. 0,4",
      "brand": "Galp",
      "lat": 42.076444,
      "lng": -5.444278,
      "fuels": {
        "gazole": 1.669,
        "sp95": 1.609
      }
    },
    {
      "id": "6076",
      "cp": "24200",
      "ville": "Valencia De Don Juan",
      "adresse": "Avenida palanquinos, 2",
      "brand": "Saenz De Miera Sl",
      "lat": 42.296694,
      "lng": -5.515528,
      "fuels": {
        "gazole": 1.599,
        "sp95": 1.549,
        "sp98": 1.659
      }
    },
    {
      "id": "11103",
      "cp": "24200",
      "ville": "Valencia De Don Juan",
      "adresse": "Poligono El tesoro, S/N",
      "brand": "e.s. Esla Móvil s.l.",
      "lat": 42.282806,
      "lng": -5.4965,
      "fuels": {
        "gazole": 1.619,
        "sp95": 1.529
      }
    },
    {
      "id": "6067",
      "cp": "24391",
      "ville": "Valverde De La Virgen",
      "adresse": "Autopista Ap-71 (mrg.dcho.) km. 6,8",
      "brand": "Cepsa",
      "lat": 42.541833,
      "lng": -5.725139,
      "fuels": {
        "gazole": 1.654,
        "sp95": 1.525,
        "sp98": 1.665
      }
    },
    {
      "id": "6066",
      "cp": "24391",
      "ville": "Valverde De La Virgen",
      "adresse": "Autopista Ap-71 (mrg.izdo.) km. 6,8",
      "brand": "Cepsa",
      "lat": 42.540639,
      "lng": -5.724889,
      "fuels": {
        "gazole": 1.636,
        "sp95": 1.527,
        "sp98": 1.665
      }
    },
    {
      "id": "5045",
      "cp": "24430",
      "ville": "Vega De Espinareda",
      "adresse": "Avenida ancares, 27",
      "brand": "Repsol",
      "lat": 42.725944,
      "lng": -6.653417,
      "fuels": {
        "gazole": 1.619,
        "sp95": 1.509
      }
    },
    {
      "id": "10922",
      "cp": "24350",
      "ville": "Veguellina De Orbigo",
      "adresse": "Delicias 3",
      "brand": "Agrocantabria Lar",
      "lat": 42.428889,
      "lng": -5.886778,
      "fuels": {
        "gazole": 1.549,
        "sp95": 1.499
      }
    },
    {
      "id": "10062",
      "cp": "24950",
      "ville": "Vidanes",
      "adresse": "Pedro Fernandez Valladares S/N",
      "brand": "Fast Fuel",
      "lat": 42.761139,
      "lng": -5.137889,
      "fuels": {
        "gazole": 1.569,
        "sp95": 1.469
      }
    },
    {
      "id": "5985",
      "cp": "24100",
      "ville": "Villablino",
      "adresse": "Calle Sierra pambley, 29",
      "brand": "Avia",
      "lat": 42.939611,
      "lng": -6.313667,
      "fuels": {
        "gazole": 1.669,
        "sp95": 1.599,
        "sp98": 1.699
      }
    },
    {
      "id": "11851",
      "cp": "24100",
      "ville": "Villablino",
      "adresse": "Carretera Cl-631 km. 58,500",
      "brand": "Shell",
      "lat": 42.934361,
      "lng": -6.3245,
      "fuels": {
        "gazole": 1.669,
        "sp95": 1.599,
        "sp98": 1.699
      }
    },
    {
      "id": "12063",
      "cp": "24392",
      "ville": "Villadangos Del Paramo",
      "adresse": "Calle Uno celadilla, S/N",
      "brand": "Cepsa",
      "lat": 42.516917,
      "lng": -5.767833,
      "fuels": {
        "gazole": 1.649,
        "sp95": 1.539,
        "sp98": 1.653
      }
    },
    {
      "id": "4975",
      "cp": "24397",
      "ville": "Villadangos Del Paramo",
      "adresse": "Carretera N-120 (leon-astorga) km. 322,300",
      "brand": "Galp",
      "lat": 42.525194,
      "lng": -5.756778,
      "fuels": {
        "gazole": 1.639,
        "sp95": 1.529,
        "sp98": 1.669
      }
    },
    {
      "id": "12938",
      "cp": "24212",
      "ville": "Villager De Laciana",
      "adresse": "Calle San Lorenzo Pi-Vi  En  villablino, 2",
      "brand": "Villager",
      "lat": 42.944833,
      "lng": -6.345222,
      "fuels": {
        "gazole": 1.599,
        "sp95": 1.559
      }
    },
    {
      "id": "12021",
      "cp": "24234",
      "ville": "Villamañan",
      "adresse": "Carretera C-621 km. 32,78",
      "brand": "Moeve",
      "lat": 42.323778,
      "lng": -5.600917,
      "fuels": {
        "gazole": 1.657,
        "sp95": 1.525
      }
    },
    {
      "id": "6013",
      "cp": "24234",
      "ville": "Villamañan",
      "adresse": "Carretera N-630 km. 176,600",
      "brand": "Repsol",
      "lat": 42.322167,
      "lng": -5.576833,
      "fuels": {
        "gazole": 1.599,
        "sp95": 1.519
      }
    },
    {
      "id": "5022",
      "cp": "24680",
      "ville": "Villamanin De La Tercia",
      "adresse": "N-630 Km 99,5",
      "brand": "Cepsa",
      "lat": 42.938111,
      "lng": -5.658611,
      "fuels": {
        "gazole": 1.667,
        "sp95": 1.553,
        "sp98": 1.661
      }
    },
    {
      "id": "11141",
      "cp": "24270",
      "ville": "Villanueva De Carrizo",
      "adresse": "Carretera La Bañeza- La Magdalena km. 37",
      "brand": "Carbucrial",
      "lat": 42.604278,
      "lng": -5.808528,
      "fuels": {
        "gazole": 1.63,
        "sp95": 1.53,
        "sp98": 1.67
      }
    },
    {
      "id": "14974",
      "cp": "24007",
      "ville": "Villaobispo De Las Regueras",
      "adresse": "Calle Cerrada-Vo  En  Villaobispo-Vo-, 2",
      "brand": "Ballenoil",
      "lat": 42.618361,
      "lng": -5.552278,
      "fuels": {
        "gazole": 1.539,
        "sp95": 1.399
      }
    },
    {
      "id": "14710",
      "cp": "24007",
      "ville": "Villaobispo De Las Regueras",
      "adresse": "Calle El vago, 1",
      "brand": "Valcarce",
      "lat": 42.602222,
      "lng": -5.550278,
      "fuels": {
        "gazole": 1.629,
        "sp95": 1.519,
        "sp98": 1.619
      }
    },
    {
      "id": "6055",
      "cp": "24007",
      "ville": "Villaobispo De Las Regueras",
      "adresse": "Carretera Santander km. 4,02",
      "brand": "Repsol",
      "lat": 42.622167,
      "lng": -5.549667,
      "fuels": {
        "gazole": 1.639,
        "sp95": 1.525,
        "sp98": 1.685
      }
    },
    {
      "id": "9505",
      "cp": "24235",
      "ville": "Villaquejida",
      "adresse": "Carretera Villafer  En  Villaquejida km. 1",
      "brand": "Agropal",
      "lat": 42.141389,
      "lng": -5.60025,
      "fuels": {
        "gazole": 1.49
      }
    },
    {
      "id": "5535",
      "cp": "24008",
      "ville": "Villaquilambre",
      "adresse": "Carretera Le-311 km. 3,5",
      "brand": "Galp",
      "lat": 42.633222,
      "lng": -5.559667,
      "fuels": {
        "gazole": 1.589,
        "sp95": 1.449
      }
    },
    {
      "id": "5035",
      "cp": "24193",
      "ville": "Villaquilambre",
      "adresse": "Carretera Le-311 km. 7",
      "brand": "Beroil",
      "lat": 42.673083,
      "lng": -5.542083,
      "fuels": {
        "gazole": 1.459,
        "sp95": 1.369
      }
    },
    {
      "id": "5547",
      "cp": "24193",
      "ville": "Villaquilambre",
      "adresse": "Carretera N-621 km. 5",
      "brand": "Repsol",
      "lat": 42.626417,
      "lng": -5.548,
      "fuels": {
        "gazole": 1.639,
        "sp95": 1.525,
        "sp98": 1.685
      }
    }
  ]
}