{
  "code": "32",
  "name": "Ourense",
  "regionCode": "GAL",
  "regionName": "Galicia",
  "asOf": "2026-06-07T18:02:53.841Z",
  "source": "https://sedeaplicaciones.minetur.gob.es/ServiciosRESTCarburantes/PreciosCarburantes/EstacionesTerrestres/",
  "stationCount": 89,
  "fuels": {
    "gazole": {
      "count": 89,
      "mean": 1.6394,
      "median": 1.659,
      "min": 1.469,
      "max": 1.709
    },
    "sp95": {
      "count": 89,
      "mean": 1.5398,
      "median": 1.559,
      "min": 1.399,
      "max": 1.629
    },
    "sp98": {
      "count": 63,
      "mean": 1.6884,
      "median": 1.686,
      "min": 1.499,
      "max": 1.799
    },
    "gplc": {
      "count": 6,
      "mean": 1.0795,
      "median": 1.094,
      "min": 0.99,
      "max": 1.129
    }
  },
  "stations": [
    {
      "id": "757",
      "cp": "32590",
      "ville": "A Mezquita",
      "adresse": "Lugar villavieja, S/N",
      "brand": "Cepsa",
      "lat": 42.038694,
      "lng": -7.009194,
      "fuels": {
        "gazole": 1.679,
        "sp95": 1.609,
        "sp98": 1.719
      }
    },
    {
      "id": "341",
      "cp": "32694",
      "ville": "Abavides",
      "adresse": "Autovia Rias Baixas km. 188",
      "brand": "Repsol",
      "lat": 42.058583,
      "lng": -7.665611,
      "fuels": {
        "gazole": 1.645,
        "sp95": 1.555,
        "sp98": 1.675
      }
    },
    {
      "id": "815",
      "cp": "32660",
      "ville": "Allariz",
      "adresse": "Carretera N-525 km. 216,400",
      "brand": "Galp",
      "lat": 42.193667,
      "lng": -7.794806,
      "fuels": {
        "gazole": 1.699,
        "sp95": 1.569,
        "sp98": 1.739
      }
    },
    {
      "id": "755",
      "cp": "32435",
      "ville": "Avion (ourense)",
      "adresse": "Cr Or-212, 15 (or-212 Km 15,3)",
      "brand": "Repsol",
      "lat": 42.374361,
      "lng": -8.246028,
      "fuels": {
        "gazole": 1.679,
        "sp95": 1.589,
        "sp98": 1.749
      }
    },
    {
      "id": "16387",
      "cp": "32632",
      "ville": "Baltar",
      "adresse": "Estrada portugal, 3",
      "brand": "Petrobal",
      "lat": 41.945583,
      "lng": -7.720583,
      "fuels": {
        "gazole": 1.589,
        "sp95": 1.469
      }
    },
    {
      "id": "324",
      "cp": "32840",
      "ville": "Bande",
      "adresse": "Calle Faustino santalices, 58",
      "brand": "Repsol",
      "lat": 42.034389,
      "lng": -7.973083,
      "fuels": {
        "gazole": 1.644,
        "sp95": 1.544,
        "sp98": 1.686
      }
    },
    {
      "id": "366",
      "cp": "32890",
      "ville": "Barbadas",
      "adresse": "Carretera Nacional 540 km. 0,70",
      "brand": "Galp",
      "lat": 42.318111,
      "lng": -7.877389,
      "fuels": {
        "gazole": 1.639,
        "sp95": 1.539
      }
    },
    {
      "id": "365",
      "cp": "32890",
      "ville": "Barbadas",
      "adresse": "N-540 p.k. 0,700",
      "brand": "Galp",
      "lat": 42.318052,
      "lng": -7.877994,
      "fuels": {
        "gazole": 1.509,
        "sp95": 1.409
      }
    },
    {
      "id": "8327",
      "cp": "32300",
      "ville": "Barco (o)",
      "adresse": "Avenida portugal, 2",
      "brand": "Galp",
      "lat": 42.421278,
      "lng": -6.993889,
      "fuels": {
        "gazole": 1.688,
        "sp95": 1.558,
        "sp98": 1.675
      }
    },
    {
      "id": "10000",
      "cp": "32300",
      "ville": "Barco (o)",
      "adresse": "Manuel quiroga, 50",
      "brand": "Cepsa",
      "lat": 42.415444,
      "lng": -6.978833,
      "fuels": {
        "gazole": 1.698,
        "sp95": 1.568,
        "sp98": 1.685
      }
    },
    {
      "id": "351",
      "cp": "32431",
      "ville": "Beade",
      "adresse": "ctra. Or-210 Km 3,800",
      "brand": "Galp",
      "lat": 42.31775,
      "lng": -8.1235,
      "fuels": {
        "gazole": 1.699,
        "sp95": 1.629,
        "sp98": 1.729
      }
    },
    {
      "id": "303",
      "cp": "32373",
      "ville": "Bolo (o)",
      "adresse": "Carretera La Güdiña-Lalin km. 37,8",
      "brand": "Petrol Lentellais",
      "lat": 42.318278,
      "lng": -7.118583,
      "fuels": {
        "gazole": 1.569,
        "sp95": 1.479
      }
    },
    {
      "id": "845",
      "cp": "32100",
      "ville": "Cambeo",
      "adresse": "Carretera Carretera Nacinal km. 249",
      "brand": "Repsol",
      "lat": 42.417111,
      "lng": -7.873556,
      "fuels": {
        "gazole": 1.669,
        "sp95": 1.569,
        "sp98": 1.689
      }
    },
    {
      "id": "9836",
      "cp": "32500",
      "ville": "Carballiño",
      "adresse": "Carretera cr.nacional 541 km. 28,80",
      "brand": "Repsol",
      "lat": 42.429639,
      "lng": -8.090444,
      "fuels": {
        "gazole": 1.685,
        "sp95": 1.559,
        "sp98": 1.699
      }
    },
    {
      "id": "774",
      "cp": "32500",
      "ville": "Carballiño",
      "adresse": "Carretera ribadavia, 57 km. 4",
      "brand": "Repsol",
      "lat": 42.425556,
      "lng": -8.078639,
      "fuels": {
        "gazole": 1.669,
        "sp95": 1.548
      }
    },
    {
      "id": "834",
      "cp": "32500",
      "ville": "Carballiño",
      "adresse": "ctra. orense, 18 (n-541 Km 27,6)",
      "brand": "Moeve",
      "lat": 42.432194,
      "lng": -8.068528,
      "fuels": {
        "gazole": 1.669,
        "sp95": 1.549,
        "sp98": 1.649
      }
    },
    {
      "id": "8221",
      "cp": "32500",
      "ville": "Carballiño",
      "adresse": "ctra. Ou-504 (carballiño-cea) Km 4,5",
      "brand": "Avia",
      "lat": 42.4535,
      "lng": -8.026639,
      "fuels": {
        "gazole": 1.639,
        "sp95": 1.519
      }
    },
    {
      "id": "760",
      "cp": "32760",
      "ville": "Castro De Caldelas (o)",
      "adresse": "Cr Or-536, 46,9  I",
      "brand": "Repsol",
      "lat": 42.371167,
      "lng": -7.423694,
      "fuels": {
        "gazole": 1.669,
        "sp95": 1.569,
        "sp98": 1.679
      }
    },
    {
      "id": "776",
      "cp": "32130",
      "ville": "Cea",
      "adresse": "Carretera N-525, Km 261 km. 261",
      "brand": "Repsol",
      "lat": 42.467583,
      "lng": -7.98825,
      "fuels": {
        "gazole": 1.659,
        "sp95": 1.559,
        "sp98": 1.669
      }
    },
    {
      "id": "835",
      "cp": "32800",
      "ville": "Celanova",
      "adresse": "Carretera Crtra De Orense A Portugal km. 25,4",
      "brand": "Repsol",
      "lat": 42.158778,
      "lng": -7.949639,
      "fuels": {
        "gazole": 1.649,
        "sp95": 1.559,
        "sp98": 1.719
      }
    },
    {
      "id": "278",
      "cp": "32152",
      "ville": "Coles",
      "adresse": "Carretera De Vilarchao Km 1",
      "brand": "Latequin",
      "lat": 42.406667,
      "lng": -7.846389,
      "fuels": {
        "gazole": 1.598,
        "sp95": 1.498,
        "sp98": 1.628
      }
    },
    {
      "id": "812",
      "cp": "32897",
      "ville": "Conchas (as)",
      "adresse": "Cr N-540 51,6",
      "brand": "Repsol",
      "lat": 41.951694,
      "lng": -8.029389,
      "fuels": {
        "gazole": 1.659,
        "sp95": 1.559,
        "sp98": 1.699
      }
    },
    {
      "id": "777",
      "cp": "32689",
      "ville": "Cualedro",
      "adresse": "Carretera Carretera De Xinzo km. 12,900",
      "brand": "Petronor",
      "lat": 41.988722,
      "lng": -7.603278,
      "fuels": {
        "gazole": 1.679,
        "sp95": 1.559,
        "sp98": 1.699
      }
    },
    {
      "id": "820",
      "cp": "32689",
      "ville": "Cualedro",
      "adresse": "Carretera Cv-202 Rebordondo-Cualedro km. 1,700",
      "brand": "Galp",
      "lat": 41.98325,
      "lng": -7.541972,
      "fuels": {
        "gazole": 1.669,
        "sp95": 1.549
      }
    },
    {
      "id": "811",
      "cp": "32792",
      "ville": "Derrasa (a)",
      "adresse": "Carretera Ou-536 km. 7,9",
      "brand": "Repsol",
      "lat": 42.322889,
      "lng": -7.790167,
      "fuels": {
        "gazole": 1.665,
        "sp95": 1.575,
        "sp98": 1.735
      }
    },
    {
      "id": "747",
      "cp": "32860",
      "ville": "Entrimo (capital)",
      "adresse": "Carretera N-540 km. 59,8",
      "brand": "Repsol",
      "lat": 41.911528,
      "lng": -8.0945,
      "fuels": {
        "gazole": 1.659,
        "sp95": 1.559
      }
    },
    {
      "id": "10883",
      "cp": "32547",
      "ville": "Erosa",
      "adresse": "Carretera N-525 km. 136,7",
      "brand": "Repsol",
      "lat": 42.032111,
      "lng": -7.180722,
      "fuels": {
        "gazole": 1.655,
        "sp95": 1.565,
        "sp98": 1.675
      }
    },
    {
      "id": "364",
      "cp": "32699",
      "ville": "Feces De Abaixo",
      "adresse": "Carretera Carretera De Verín Portugal km. 13,100",
      "brand": "Galp",
      "lat": 41.825222,
      "lng": -7.425222,
      "fuels": {
        "gazole": 1.659,
        "sp95": 1.579,
        "sp98": 1.689
      }
    },
    {
      "id": "11578",
      "cp": "32430",
      "ville": "Frieira (a)",
      "adresse": "Carretera ou402 km. 20",
      "brand": "Repsol",
      "lat": 42.306556,
      "lng": -8.070833,
      "fuels": {
        "gazole": 1.689,
        "sp95": 1.569
      }
    },
    {
      "id": "12180",
      "cp": "32540",
      "ville": "Gudiña (a)",
      "adresse": "Autovia a52 km. 132",
      "brand": "Staroil",
      "lat": 42.024889,
      "lng": -7.182083,
      "fuels": {
        "gazole": 1.598,
        "sp95": 1.549
      }
    },
    {
      "id": "849",
      "cp": "32540",
      "ville": "Gudiña (a)",
      "adresse": "Carretera N-525 km. 132,10",
      "brand": "Repsol",
      "lat": 42.057028,
      "lng": -7.148694,
      "fuels": {
        "gazole": 1.659,
        "sp95": 1.569,
        "sp98": 1.679
      }
    },
    {
      "id": "772",
      "cp": "32100",
      "ville": "Gustei",
      "adresse": "N-525 Km 254,3",
      "brand": "Cepsa",
      "lat": 42.383694,
      "lng": -7.85175,
      "fuels": {
        "gazole": 1.687,
        "sp95": 1.587,
        "sp98": 1.677
      }
    },
    {
      "id": "337",
      "cp": "32910",
      "ville": "Infesta (san Cibrao Das viñas)",
      "adresse": "Carretera Comarcal Infesta-Rante Enlace km. S/N",
      "brand": "Repsol",
      "lat": 42.250722,
      "lng": -7.864556,
      "fuels": {
        "gazole": 1.675,
        "sp95": 1.559,
        "sp98": 1.719
      }
    },
    {
      "id": "340",
      "cp": "32910",
      "ville": "Infesta (san Cibrao Das viñas)",
      "adresse": "Cr  A-52 Enlace p.k. 217",
      "brand": "Repsol",
      "lat": 42.251056,
      "lng": -7.864722,
      "fuels": {
        "gazole": 1.665,
        "sp95": 1.559,
        "sp98": 1.719
      }
    },
    {
      "id": "312",
      "cp": "32700",
      "ville": "Maceda",
      "adresse": "Baixada/Bajada Rúa Das flores,29,, 6193",
      "brand": "Eess Maceda",
      "lat": 42.27225,
      "lng": -7.646778,
      "fuels": {
        "gazole": 1.669,
        "sp95": 1.589,
        "sp98": 1.739
      }
    },
    {
      "id": "771",
      "cp": "32700",
      "ville": "Maceda",
      "adresse": "Lugar Alto Do couso, S/N",
      "brand": "e.s. Alto Do Couso",
      "lat": 42.311667,
      "lng": -7.676111,
      "fuels": {
        "gazole": 1.679,
        "sp95": 1.579,
        "sp98": 1.769
      }
    },
    {
      "id": "16243",
      "cp": "32698",
      "ville": "Mandin",
      "adresse": "Autovia A-75 Verin- Portugal km. 10,5",
      "brand": "Cepsa",
      "lat": 41.835972,
      "lng": -7.420361,
      "fuels": {
        "gazole": 1.679,
        "sp95": 1.569,
        "sp98": 1.669
      }
    },
    {
      "id": "353",
      "cp": "32570",
      "ville": "Maside",
      "adresse": "N-541 Km 24,7",
      "brand": "Moeve",
      "lat": 42.425806,
      "lng": -8.057944,
      "fuels": {
        "gazole": 1.659,
        "sp95": 1.539,
        "sp98": 1.659,
        "gplc": 1.059
      }
    },
    {
      "id": "14108",
      "cp": "32570",
      "ville": "Maside",
      "adresse": "Rua Antigua De ourense, 8",
      "brand": "Bp",
      "lat": 42.428167,
      "lng": -8.064417,
      "fuels": {
        "gazole": 1.619,
        "sp95": 1.539,
        "sp98": 1.679
      }
    },
    {
      "id": "15592",
      "cp": "32792",
      "ville": "Medorra (a)",
      "adresse": "Poligono Parque Empresarial parcela, S/N",
      "brand": "Ballenoil",
      "lat": 42.322806,
      "lng": -7.810528,
      "fuels": {
        "gazole": 1.469,
        "sp95": 1.399
      }
    },
    {
      "id": "751",
      "cp": "32411",
      "ville": "Melon",
      "adresse": "Carretera Nacional 120 km. 604,5",
      "brand": "Moeve",
      "lat": 42.273139,
      "lng": -8.199083,
      "fuels": {
        "gazole": 1.709,
        "sp95": 1.599,
        "sp98": 1.789
      }
    },
    {
      "id": "817",
      "cp": "32830",
      "ville": "Merca (a)",
      "adresse": "Carretera Ou-540 km. 15,4",
      "brand": "Cepsa",
      "lat": 42.228556,
      "lng": -7.925861,
      "fuels": {
        "gazole": 1.629,
        "sp95": 1.529,
        "sp98": 1.649
      }
    },
    {
      "id": "14382",
      "cp": "32613",
      "ville": "Oimbra",
      "adresse": "Carretera Carretera De Oímbra (ou-1011) km. 2,2",
      "brand": "O Surtidor",
      "lat": 41.893611,
      "lng": -7.461306,
      "fuels": {
        "gazole": 1.559,
        "sp95": 1.489
      }
    },
    {
      "id": "311",
      "cp": "32005",
      "ville": "Ourense",
      "adresse": "avda. De Zamora 140",
      "brand": "Estacion De Servicio Mariñamansa",
      "lat": 42.321219,
      "lng": -7.862383,
      "fuels": {
        "gazole": 1.599,
        "sp95": 1.499,
        "sp98": 1.679
      }
    },
    {
      "id": "269",
      "cp": "32001",
      "ville": "Ourense",
      "adresse": "Avenida santiago, 132",
      "brand": "Cepsa v21",
      "lat": 42.358056,
      "lng": -7.865333,
      "fuels": {
        "gazole": 1.668,
        "sp95": 1.568,
        "sp98": 1.698
      }
    },
    {
      "id": "11529",
      "cp": "32005",
      "ville": "Ourense",
      "adresse": "Calle Aira De fonsillon, S/N",
      "brand": "Carrefour",
      "lat": 42.32075,
      "lng": -7.877278,
      "fuels": {
        "gazole": 1.639,
        "sp95": 1.519,
        "sp98": 1.649
      }
    },
    {
      "id": "355",
      "cp": "32002",
      "ville": "Ourense",
      "adresse": "Calle Pena Do vado, 59",
      "brand": "Repsol",
      "lat": 42.351306,
      "lng": -7.894778,
      "fuels": {
        "gazole": 1.655,
        "sp95": 1.565,
        "sp98": 1.685,
        "gplc": 1.129
      }
    },
    {
      "id": "839",
      "cp": "32001",
      "ville": "Ourense",
      "adresse": "Carretera N-120 km. 571",
      "brand": "e. s. O Pino",
      "lat": 42.353194,
      "lng": -7.878278,
      "fuels": {
        "gazole": 1.596,
        "sp95": 1.496,
        "sp98": 1.629
      }
    },
    {
      "id": "256",
      "cp": "32001",
      "ville": "Ourense",
      "adresse": "Carretera N-525 km. 242,400",
      "brand": "e.s. O Viso",
      "lat": 42.369833,
      "lng": -7.853778,
      "fuels": {
        "gazole": 1.596,
        "sp95": 1.496,
        "sp98": 1.629
      }
    },
    {
      "id": "332",
      "cp": "32004",
      "ville": "Ourense",
      "adresse": "Cr Or-536, 2  D",
      "brand": "Repsol",
      "lat": 42.341611,
      "lng": -7.842861,
      "fuels": {
        "gazole": 1.659,
        "sp95": 1.569,
        "sp98": 1.679
      }
    },
    {
      "id": "793",
      "cp": "32005",
      "ville": "Ourense",
      "adresse": "Plaza Jardin Del posio, S/N",
      "brand": "Repsol",
      "lat": 42.332028,
      "lng": -7.865306,
      "fuels": {
        "gazole": 1.649,
        "sp95": 1.559
      }
    },
    {
      "id": "304",
      "cp": "32003",
      "ville": "Ourense",
      "adresse": "Progreso 97",
      "brand": "e. s. Perez Rumbao s.a.",
      "lat": 42.339139,
      "lng": -7.866528,
      "fuels": {
        "gazole": 1.599,
        "sp95": 1.499,
        "sp98": 1.679
      }
    },
    {
      "id": "15195",
      "cp": "32002",
      "ville": "Ourense",
      "adresse": "Rua Marcelo macias, 142",
      "brand": "Plenergy",
      "lat": 42.326361,
      "lng": -7.877944,
      "fuels": {
        "gazole": 1.509,
        "sp95": 1.409
      }
    },
    {
      "id": "307",
      "cp": "32824",
      "ville": "Outomuro",
      "adresse": "Carretera Our-404 km. 14",
      "brand": "Estación De Servicio Outomuro s.l.",
      "lat": 42.218333,
      "lng": -8.013389,
      "fuels": {
        "gazole": 1.695,
        "sp95": 1.585
      }
    },
    {
      "id": "16118",
      "cp": "32619",
      "ville": "Pazos",
      "adresse": "Rua Del Poligono Industrial De pazos, S/N",
      "brand": "Bp 24 Horas",
      "lat": 41.930222,
      "lng": -7.460306,
      "fuels": {
        "gazole": 1.539,
        "sp95": 1.479,
        "gplc": 0.99
      }
    },
    {
      "id": "302",
      "cp": "32710",
      "ville": "Pereiro De Aguiar (o)",
      "adresse": "C-536 Km 4,3",
      "brand": "j.l E Hijos",
      "lat": 42.344972,
      "lng": -7.812389,
      "fuels": {
        "gazole": 1.517,
        "sp95": 1.439,
        "sp98": 1.499
      }
    },
    {
      "id": "8026",
      "cp": "32150",
      "ville": "Peroxa (a)",
      "adresse": "Lama grande, nº 2",
      "brand": "e.s. Peroxa (a)",
      "lat": 42.442722,
      "lng": -7.798278,
      "fuels": {
        "gazole": 1.619,
        "sp95": 1.529,
        "sp98": 1.629
      }
    },
    {
      "id": "334",
      "cp": "32780",
      "ville": "Pobra De Trives",
      "adresse": "Avenida orense, 20",
      "brand": "Repsol",
      "lat": 42.340417,
      "lng": -7.260361,
      "fuels": {
        "gazole": 1.659,
        "sp95": 1.549
      }
    },
    {
      "id": "13673",
      "cp": "32901",
      "ville": "Poligono Industrial",
      "adresse": "Calle Ricardo Martin esperanza, 1",
      "brand": "Superfuel",
      "lat": 42.289972,
      "lng": -7.811972,
      "fuels": {
        "gazole": 1.469,
        "sp95": 1.399
      }
    },
    {
      "id": "370",
      "cp": "32220",
      "ville": "Pontebarxas",
      "adresse": "Calle Marques De magallanes, 57",
      "brand": "Galp",
      "lat": 42.137472,
      "lng": -8.186667,
      "fuels": {
        "gazole": 1.679,
        "sp95": 1.599,
        "sp98": 1.719
      }
    },
    {
      "id": "816",
      "cp": "32811",
      "ville": "Ramiras",
      "adresse": "Lugar souto, 1",
      "brand": "Moeve",
      "lat": 42.187444,
      "lng": -8.044833,
      "fuels": {
        "gazole": 1.679,
        "sp95": 1.599,
        "sp98": 1.699
      }
    },
    {
      "id": "11101",
      "cp": "32593",
      "ville": "Ramiras",
      "adresse": "Ou-531 Km 32,500",
      "brand": "e.s. 2001",
      "lat": 42.177417,
      "lng": -8.004194,
      "fuels": {
        "gazole": 1.599,
        "sp95": 1.569,
        "sp98": 1.669
      }
    },
    {
      "id": "15832",
      "cp": "32901",
      "ville": "Reboredo",
      "adresse": "Rua Ricardo Martin esperanza, S/N",
      "brand": "Plenergy",
      "lat": 42.288444,
      "lng": -7.824056,
      "fuels": {
        "gazole": 1.469,
        "sp95": 1.399
      }
    },
    {
      "id": "729",
      "cp": "32138",
      "ville": "Reino (o)",
      "adresse": "Carretera Nac 525 km. 267,8",
      "brand": "Cepsa",
      "lat": 42.513028,
      "lng": -8.017417,
      "fuels": {
        "gazole": 1.659,
        "sp95": 1.569,
        "sp98": 1.689
      }
    },
    {
      "id": "10366",
      "cp": "32400",
      "ville": "Ribadavia",
      "adresse": "Autovia a52 Km 249",
      "brand": "Cepsa",
      "lat": 42.31425,
      "lng": -8.093972,
      "fuels": {
        "gazole": 1.679,
        "sp95": 1.569,
        "sp98": 1.669
      }
    },
    {
      "id": "837",
      "cp": "32400",
      "ville": "Ribadavia",
      "adresse": "Cr N-120, 595,9",
      "brand": "Petronor",
      "lat": 42.304083,
      "lng": -8.130722,
      "fuels": {
        "gazole": 1.685,
        "sp95": 1.589,
        "sp98": 1.719
      }
    },
    {
      "id": "12243",
      "cp": "32611",
      "ville": "Rios",
      "adresse": "Lugar rios, ",
      "brand": "Repsol",
      "lat": 41.982722,
      "lng": -7.285694,
      "fuels": {
        "gazole": 1.62,
        "sp95": 1.55,
        "sp98": 1.614,
        "gplc": 1.041
      }
    },
    {
      "id": "333",
      "cp": "32350",
      "ville": "Rua De Valdeorras (a)",
      "adresse": "Calle Campo grande, 59",
      "brand": "Petrol A Rua",
      "lat": 42.396056,
      "lng": -7.106472,
      "fuels": {
        "gazole": 1.589,
        "sp95": 1.479
      }
    },
    {
      "id": "13720",
      "cp": "32350",
      "ville": "Rua De Valdeorras (a)",
      "adresse": "Rua circunvalación, S/N",
      "brand": "Repsol",
      "lat": 42.399083,
      "lng": -7.096139,
      "fuels": {
        "gazole": 1.695,
        "sp95": 1.555,
        "sp98": 1.715
      }
    },
    {
      "id": "819",
      "cp": "32911",
      "ville": "San Cibrao Das Viñas",
      "adresse": "Calle Ponte sevilla, 18",
      "brand": "Repsol",
      "lat": 42.313028,
      "lng": -7.865111,
      "fuels": {
        "gazole": 1.655,
        "sp95": 1.565,
        "sp98": 1.685,
        "gplc": 1.129
      }
    },
    {
      "id": "703",
      "cp": "32911",
      "ville": "San Cibrao Das Viñas",
      "adresse": "Calle Ricardo Martín esperanza, 12, 12",
      "brand": "Staroil San Cibrao",
      "lat": 42.289722,
      "lng": -7.816611,
      "fuels": {
        "gazole": 1.598,
        "sp95": 1.499,
        "sp98": 1.638
      }
    },
    {
      "id": "827",
      "cp": "32911",
      "ville": "San Cibrao Das Viñas",
      "adresse": "Carretera Carretera Nacional 525 km. 234,3",
      "brand": "Repsol",
      "lat": 42.31325,
      "lng": -7.866361,
      "fuels": {
        "gazole": 1.655,
        "sp95": 1.555,
        "sp98": 1.675
      }
    },
    {
      "id": "323",
      "cp": "32593",
      "ville": "Santa Cruz",
      "adresse": "Carretera N-120 km. 580",
      "brand": "Repsol",
      "lat": 42.343389,
      "lng": -7.983111,
      "fuels": {
        "gazole": 1.659,
        "sp95": 1.559,
        "sp98": 1.659
      }
    },
    {
      "id": "16061",
      "cp": "32970",
      "ville": "Seixalbo",
      "adresse": "Rua canizo, S/N",
      "brand": "Plenergy",
      "lat": 42.313444,
      "lng": -7.857056,
      "fuels": {
        "gazole": 1.509,
        "sp95": 1.409
      }
    },
    {
      "id": "310",
      "cp": "32690",
      "ville": "Taboadela",
      "adresse": "lg. Pereiras nº 36 (ctra. Cumial-salgueiros)",
      "brand": "Ourensana De Petroleos Sl",
      "lat": 42.269806,
      "lng": -7.806028,
      "fuels": {
        "gazole": 1.669,
        "sp95": 1.549,
        "sp98": 1.709
      }
    },
    {
      "id": "11397",
      "cp": "32102",
      "ville": "Tamallancos",
      "adresse": "Poligono n525, 245",
      "brand": "Galp",
      "lat": 42.423056,
      "lng": -7.888083,
      "fuels": {
        "gazole": 1.659,
        "sp95": 1.56,
        "sp98": 1.689
      }
    },
    {
      "id": "806",
      "cp": "32695",
      "ville": "Trasmiras",
      "adresse": "Carretera N-525 km. 186,86",
      "brand": "Repsol",
      "lat": 42.019583,
      "lng": -7.608472,
      "fuels": {
        "gazole": 1.689,
        "sp95": 1.549,
        "sp98": 1.709
      }
    },
    {
      "id": "346",
      "cp": "32360",
      "ville": "Veiga (a)",
      "adresse": "Carretera De Covelo km. 12",
      "brand": "Fina",
      "lat": 42.249944,
      "lng": -7.023444,
      "fuels": {
        "gazole": 1.588,
        "sp95": 1.489
      }
    },
    {
      "id": "809",
      "cp": "32960",
      "ville": "Velle",
      "adresse": "Calle Poblado velle, S/N",
      "brand": "Repsol",
      "lat": 42.356944,
      "lng": -7.844639,
      "fuels": {
        "gazole": 1.645,
        "sp95": 1.559,
        "sp98": 1.669
      }
    },
    {
      "id": "354",
      "cp": "32813",
      "ville": "Verea",
      "adresse": "ctra. N-540 Km 28,000",
      "brand": "Galp",
      "lat": 42.127306,
      "lng": -7.950611,
      "fuels": {
        "gazole": 1.629,
        "sp95": 1.529,
        "sp98": 1.689
      }
    },
    {
      "id": "7756",
      "cp": "32600",
      "ville": "Verin",
      "adresse": "Calle San lazaro, 83",
      "brand": "Repsol",
      "lat": 41.939472,
      "lng": -7.445944,
      "fuels": {
        "gazole": 1.685,
        "sp95": 1.589,
        "sp98": 1.699
      }
    },
    {
      "id": "7757",
      "cp": "32600",
      "ville": "Verin",
      "adresse": "Carretera N-525 km. 165,18",
      "brand": "Repsol",
      "lat": 41.945472,
      "lng": -7.415861,
      "fuels": {
        "gazole": 1.679,
        "sp95": 1.589,
        "sp98": 1.739
      }
    },
    {
      "id": "331",
      "cp": "32550",
      "ville": "Viana Do Bolo",
      "adresse": "Carretera Gudiña-Lalin km. 21",
      "brand": "Repsol",
      "lat": 42.188778,
      "lng": -7.101333,
      "fuels": {
        "gazole": 1.669,
        "sp95": 1.579
      }
    },
    {
      "id": "752",
      "cp": "32340",
      "ville": "Vilamartin De Valdeorras",
      "adresse": "Carretera N-120 km. 463",
      "brand": "Valcarce",
      "lat": 42.408222,
      "lng": -7.073194,
      "fuels": {
        "gazole": 1.699,
        "sp95": 1.589,
        "sp98": 1.799
      }
    },
    {
      "id": "769",
      "cp": "32630",
      "ville": "Xinzo De Limia",
      "adresse": "Avenida De madrid, 108",
      "brand": "Limia Oil",
      "lat": 42.059278,
      "lng": -7.714833,
      "fuels": {
        "gazole": 1.639,
        "sp95": 1.519
      }
    },
    {
      "id": "833",
      "cp": "32630",
      "ville": "Xinzo De Limia",
      "adresse": "Carretera crta. N-525, km.199.4 km. 199,4",
      "brand": "Repsol",
      "lat": 42.072667,
      "lng": -7.732,
      "fuels": {
        "gazole": 1.679,
        "sp95": 1.549,
        "sp98": 1.709
      }
    },
    {
      "id": "707",
      "cp": "32630",
      "ville": "Xinzo De Limia",
      "adresse": "Cl A devesa, s.n.",
      "brand": "Repsol",
      "lat": 42.075556,
      "lng": -7.727083,
      "fuels": {
        "gazole": 1.679,
        "sp95": 1.549,
        "sp98": 1.719,
        "gplc": 1.129
      }
    },
    {
      "id": "16340",
      "cp": "32630",
      "ville": "Xinzo De Limia",
      "adresse": "Vía Pista De morgade, S/N",
      "brand": "Plenergy",
      "lat": 42.077222,
      "lng": -7.720722,
      "fuels": {
        "gazole": 1.579,
        "sp95": 1.449
      }
    },
    {
      "id": "10617",
      "cp": "32630",
      "ville": "Xinzo De Limia",
      "adresse": "Vía Pista Enlace Autovia Rias baixas, S/N",
      "brand": "Cepsa- Antela e.s.",
      "lat": 42.077917,
      "lng": -7.714583,
      "fuels": {
        "gazole": 1.689,
        "sp95": 1.559
      }
    }
  ]
}