{
  "code": "39",
  "name": "Cantabria",
  "regionCode": "CTB",
  "regionName": "Cantabria",
  "asOf": "2026-07-15T14:14:55.329Z",
  "source": "https://sedeaplicaciones.minetur.gob.es/ServiciosRESTCarburantes/PreciosCarburantes/EstacionesTerrestres/",
  "stationCount": 166,
  "fuels": {
    "gazole": {
      "count": 166,
      "mean": 1.6052,
      "median": 1.659,
      "min": 1.379,
      "max": 1.739
    },
    "sp95": {
      "count": 165,
      "mean": 1.5948,
      "median": 1.639,
      "min": 1.4,
      "max": 1.699
    },
    "sp98": {
      "count": 85,
      "mean": 1.7783,
      "median": 1.789,
      "min": 1.619,
      "max": 1.879
    },
    "gplc": {
      "count": 26,
      "mean": 1.1037,
      "median": 1.1125,
      "min": 1.029,
      "max": 1.165
    }
  },
  "stations": [
    {
      "id": "1085",
      "cp": "39791",
      "ville": "Ambrosero",
      "adresse": "Au A-8, 182",
      "brand": "Repsol",
      "lat": 43.411417,
      "lng": -3.542028,
      "fuels": {
        "gazole": 1.709,
        "sp95": 1.639,
        "sp98": 1.659
      }
    },
    {
      "id": "1048",
      "cp": "39840",
      "ville": "Ampuero",
      "adresse": "Cr N-629 79,7",
      "brand": "Repsol",
      "lat": 43.341889,
      "lng": -3.418167,
      "fuels": {
        "gazole": 1.709,
        "sp95": 1.669
      }
    },
    {
      "id": "1094",
      "cp": "39794",
      "ville": "Anero",
      "adresse": "Autovia A-8 km. 194",
      "brand": "Moeve",
      "lat": 43.391056,
      "lng": -3.665,
      "fuels": {
        "gazole": 1.704,
        "sp95": 1.674
      }
    },
    {
      "id": "1068",
      "cp": "39478",
      "ville": "Arce",
      "adresse": "Carretera N-611 km. 197",
      "brand": "Ballenoil",
      "lat": 43.408472,
      "lng": -3.945806,
      "fuels": {
        "gazole": 1.449,
        "sp95": 1.489
      }
    },
    {
      "id": "1036",
      "cp": "39450",
      "ville": "Arenas De Iguña",
      "adresse": "Carretera N-611 km. 163,2",
      "brand": "Petronor",
      "lat": 43.181972,
      "lng": -4.052444,
      "fuels": {
        "gazole": 1.719,
        "sp95": 1.679
      }
    },
    {
      "id": "14048",
      "cp": "39626",
      "ville": "Argomilla",
      "adresse": "Barrio Las huertas, 174",
      "brand": "e.s. Argomilla",
      "lat": 43.313306,
      "lng": -3.879472,
      "fuels": {
        "gazole": 1.639,
        "sp95": 1.629,
        "sp98": 1.809
      }
    },
    {
      "id": "1080",
      "cp": "39195",
      "ville": "Arnuero",
      "adresse": "Carretera Argoños Somo km. 28,7",
      "brand": "Campsa",
      "lat": 43.469778,
      "lng": -3.56225,
      "fuels": {
        "gazole": 1.715,
        "sp95": 1.659
      }
    },
    {
      "id": "1095",
      "cp": "39195",
      "ville": "Arnuero",
      "adresse": "Carretera Castillo Sietevillas km. S/N",
      "brand": "e.s. Carburantes De Arnuero s.l.",
      "lat": 43.459083,
      "lng": -3.549028,
      "fuels": {
        "gazole": 1.715,
        "sp95": 1.659,
        "sp98": 1.779
      }
    },
    {
      "id": "14643",
      "cp": "39300",
      "ville": "Barreda",
      "adresse": "Avenida solvay, 48",
      "brand": "Ruyco Petrol",
      "lat": 43.367667,
      "lng": -4.043472,
      "fuels": {
        "gazole": 1.459,
        "sp95": 1.449,
        "sp98": 1.629
      }
    },
    {
      "id": "14154",
      "cp": "39408",
      "ville": "Barros",
      "adresse": "Barrio barros, 9",
      "brand": "Moeve",
      "lat": 43.286083,
      "lng": -4.077889,
      "fuels": {
        "gazole": 1.714,
        "sp95": 1.674,
        "sp98": 1.824
      }
    },
    {
      "id": "1010",
      "cp": "39730",
      "ville": "Beranga",
      "adresse": "Carretera Irun-La Coruña km. 188",
      "brand": "Repsol",
      "lat": 43.414194,
      "lng": -3.578556,
      "fuels": {
        "gazole": 1.669,
        "sp95": 1.669
      }
    },
    {
      "id": "11539",
      "cp": "39213",
      "ville": "Bolmir",
      "adresse": "Autovia A-67 km. 133,4",
      "brand": "Cepsa",
      "lat": 42.986361,
      "lng": -4.134083,
      "fuels": {
        "gazole": 1.714,
        "sp95": 1.664
      }
    },
    {
      "id": "11565",
      "cp": "39613",
      "ville": "Boo",
      "adresse": "Calle boo, 52",
      "brand": "Repsol",
      "lat": 43.412222,
      "lng": -3.8435,
      "fuels": {
        "gazole": 1.669,
        "sp95": 1.659,
        "sp98": 1.809
      }
    },
    {
      "id": "1049",
      "cp": "39500",
      "ville": "Cabezon De La Sal",
      "adresse": "Calle correos, Sn",
      "brand": "Repsol",
      "lat": 43.309389,
      "lng": -4.235,
      "fuels": {
        "gazole": 1.695,
        "sp95": 1.635
      }
    },
    {
      "id": "1082",
      "cp": "39500",
      "ville": "Cabezon De La Sal",
      "adresse": "Carretera N 634 km. 244,7",
      "brand": "Cepsa",
      "lat": 43.391056,
      "lng": -3.665,
      "fuels": {
        "gazole": 1.679,
        "sp95": 1.679
      }
    },
    {
      "id": "1091",
      "cp": "39509",
      "ville": "Cabrojo",
      "adresse": "Carretera 634 km. 244",
      "brand": "Repsol",
      "lat": 43.327028,
      "lng": -4.191639,
      "fuels": {
        "gazole": 1.709,
        "sp95": 1.689,
        "sp98": 1.849,
        "gplc": 1.139
      }
    },
    {
      "id": "16311",
      "cp": "39509",
      "ville": "Camargo",
      "adresse": "Calle alday, S/N",
      "brand": "Plenergy",
      "lat": 43.424972,
      "lng": -3.837528,
      "fuels": {
        "gazole": 1.449,
        "sp95": 1.489
      }
    },
    {
      "id": "12453",
      "cp": "39685",
      "ville": "Candolias",
      "adresse": "Carretera S-564 km. 39,25",
      "brand": "Cepsa",
      "lat": 43.157306,
      "lng": -3.797139,
      "fuels": {
        "gazole": 1.729,
        "sp95": 1.679
      }
    },
    {
      "id": "15860",
      "cp": "39311",
      "ville": "Cartes",
      "adresse": "Barrio Cartes-Mies molladar, 1",
      "brand": "Repsol",
      "lat": 43.319056,
      "lng": -4.068861,
      "fuels": {
        "gazole": 1.709,
        "sp95": 1.689,
        "sp98": 1.849
      }
    },
    {
      "id": "998",
      "cp": "39311",
      "ville": "Cartes",
      "adresse": "Barrio De riocorvo, 2 (n-611 Palencia-Santander Km 179,8)",
      "brand": "Meroil",
      "lat": 43.314472,
      "lng": -4.069278,
      "fuels": {
        "gazole": 1.429,
        "sp95": 1.459,
        "sp98": 1.629
      }
    },
    {
      "id": "15724",
      "cp": "39311",
      "ville": "Cartes",
      "adresse": "Calle Santiago-La llanada, 1",
      "brand": "Plenergy",
      "lat": 43.333194,
      "lng": -4.066194,
      "fuels": {
        "gazole": 1.429,
        "sp95": 1.429
      }
    },
    {
      "id": "1088",
      "cp": "39311",
      "ville": "Cartes",
      "adresse": "Carretera N-611 (antigua) km. 182",
      "brand": "Repsol",
      "lat": 43.331556,
      "lng": -4.0655,
      "fuels": {
        "gazole": 1.705,
        "sp95": 1.655,
        "sp98": 1.825,
        "gplc": 1.095
      }
    },
    {
      "id": "15673",
      "cp": "39311",
      "ville": "Cartes",
      "adresse": "Poligono Molladar ,barrio Cartes-Real Y cuarto, 1",
      "brand": "Ballenoil",
      "lat": 43.318833,
      "lng": -4.071056,
      "fuels": {
        "gazole": 1.409,
        "sp95": 1.429
      }
    },
    {
      "id": "9225",
      "cp": "39150",
      "ville": "Castanedo",
      "adresse": "Calle Castanedo-El solaron, 13",
      "brand": "Moeve",
      "lat": 43.446667,
      "lng": -3.698944,
      "fuels": {
        "gazole": 1.639,
        "sp95": 1.639,
        "sp98": 1.769
      }
    },
    {
      "id": "8504",
      "cp": "39700",
      "ville": "Castro Urdiales",
      "adresse": "autv.a-8 (autov. cantabrico) Km 141",
      "brand": "Easygas",
      "lat": 43.354722,
      "lng": -3.176389,
      "fuels": {
        "gazole": 1.499,
        "sp95": 1.489
      }
    },
    {
      "id": "1087",
      "cp": "39700",
      "ville": "Castro Urdiales",
      "adresse": "Barrio Brazomar S/n, S/N",
      "brand": "Bp Castro Urdiales",
      "lat": 43.368778,
      "lng": -3.212694,
      "fuels": {
        "gazole": 1.689,
        "sp95": 1.655,
        "sp98": 1.795
      }
    },
    {
      "id": "13606",
      "cp": "39700",
      "ville": "Castro Urdiales",
      "adresse": "Barrio brazomar, S/N",
      "brand": "Eroski",
      "lat": 43.366833,
      "lng": -3.218778,
      "fuels": {
        "gazole": 1.449,
        "sp95": 1.469
      }
    },
    {
      "id": "1050",
      "cp": "39700",
      "ville": "Castro Urdiales",
      "adresse": "Calle santander, 27",
      "brand": "Repsol",
      "lat": 43.383583,
      "lng": -3.220833,
      "fuels": {
        "gazole": 1.705,
        "sp95": 1.665
      }
    },
    {
      "id": "11073",
      "cp": "39720",
      "ville": "Cavada (la)",
      "adresse": "Baldelazon S/N (s-533 Km 4,2)",
      "brand": "Eess La Cavada",
      "lat": 43.35775,
      "lng": -3.709833,
      "fuels": {
        "gazole": 1.659,
        "sp95": 1.639,
        "sp98": 1.769
      }
    },
    {
      "id": "16067",
      "cp": "39750",
      "ville": "Colindres",
      "adresse": "Calle La mar, 47",
      "brand": "Ballenoil",
      "lat": 43.393556,
      "lng": -3.463167,
      "fuels": {
        "gazole": 1.479,
        "sp95": 1.499
      }
    },
    {
      "id": "1069",
      "cp": "39750",
      "ville": "Colindres",
      "adresse": "Carretera N-634 km. 173,3",
      "brand": "Petronor",
      "lat": 43.394806,
      "lng": -3.458722,
      "fuels": {
        "gazole": 1.715,
        "sp95": 1.669,
        "sp98": 1.789
      }
    },
    {
      "id": "10722",
      "cp": "39520",
      "ville": "Comillas",
      "adresse": "Paseo Estrada",
      "brand": "Cooperativa Ruiseñada",
      "lat": 43.370333,
      "lng": -4.281556,
      "fuels": {
        "gazole": 1.485,
        "sp95": 1.495
      }
    },
    {
      "id": "15252",
      "cp": "39690",
      "ville": "Concha (la)",
      "adresse": "Barrio Liaño - Ronda De La Bahia De santander, 16",
      "brand": "Shell",
      "lat": 43.386139,
      "lng": -3.85775,
      "fuels": {
        "gazole": 1.519,
        "sp95": 1.549
      }
    },
    {
      "id": "12213",
      "cp": "39400",
      "ville": "Corrales (los)",
      "adresse": "Carretera Nacional 611 km. 170,940",
      "brand": "Shell",
      "lat": 43.252444,
      "lng": -4.070972,
      "fuels": {
        "gazole": 1.649,
        "sp95": 1.619,
        "sp98": 1.759,
        "gplc": 1.029
      }
    },
    {
      "id": "10049",
      "cp": "39318",
      "ville": "Cudon",
      "adresse": "Avenida cantabria, 1495",
      "brand": "El Centro",
      "lat": 43.413833,
      "lng": -4.011222,
      "fuels": {
        "gazole": 1.499,
        "sp95": 1.529,
        "sp98": 1.699,
        "gplc": 1.029
      }
    },
    {
      "id": "1044",
      "cp": "39130",
      "ville": "Elechas",
      "adresse": "Carretera Cr Ca-141 km. 7,8",
      "brand": "Repsol",
      "lat": 43.425833,
      "lng": -3.769333,
      "fuels": {
        "gazole": 1.689,
        "sp95": 1.655,
        "sp98": 1.775
      }
    },
    {
      "id": "1001",
      "cp": "39627",
      "ville": "Encina (la)",
      "adresse": "Carretera Irun-La Coruña km. 217",
      "brand": "Repsol",
      "lat": 43.320694,
      "lng": -3.867861,
      "fuels": {
        "gazole": 1.669,
        "sp95": 1.649
      }
    },
    {
      "id": "1032",
      "cp": "39795",
      "ville": "Escalante",
      "adresse": "Carretera Ca-148 km. 0,3",
      "brand": "Repsol",
      "lat": 43.426083,
      "lng": -3.522444,
      "fuels": {
        "gazole": 1.699,
        "sp95": 1.675,
        "sp98": 1.825
      }
    },
    {
      "id": "418",
      "cp": "39213",
      "ville": "Fombellida",
      "adresse": "Carretera N-611 km. 130,1",
      "brand": "Moeve",
      "lat": 42.940028,
      "lng": -4.123389,
      "fuels": {
        "gazole": 1.714,
        "sp95": 1.664,
        "sp98": 1.854
      }
    },
    {
      "id": "14522",
      "cp": "39300",
      "ville": "Ganzo",
      "adresse": "Avenida moneche, Sn",
      "brand": "Galp",
      "lat": 43.359111,
      "lng": -4.065333,
      "fuels": {
        "gazole": 1.529,
        "sp95": 1.469
      }
    },
    {
      "id": "8505",
      "cp": "39310",
      "ville": "Gornazo",
      "adresse": "Carretera a67 km. 13",
      "brand": "Cepsa",
      "lat": 43.407778,
      "lng": -3.987222,
      "fuels": {
        "gazole": 1.729,
        "sp95": 1.689,
        "sp98": 1.879
      }
    },
    {
      "id": "8506",
      "cp": "39310",
      "ville": "Gornazo",
      "adresse": "Carretera a67 km. 13",
      "brand": "Cepsa",
      "lat": 43.406722,
      "lng": -3.985806,
      "fuels": {
        "gazole": 1.729,
        "sp95": 1.689,
        "sp98": 1.879
      }
    },
    {
      "id": "1064",
      "cp": "39611",
      "ville": "Guarnizo",
      "adresse": "Calle prosperidad, 61",
      "brand": "Galp",
      "lat": 43.404583,
      "lng": -3.835722,
      "fuels": {
        "gazole": 1.669,
        "sp95": 1.659
      }
    },
    {
      "id": "10896",
      "cp": "39611",
      "ville": "Guarnizo",
      "adresse": "Calle prosperidad, 61",
      "brand": "Area De Servicio La Palmera",
      "lat": 43.404417,
      "lng": -3.836111,
      "fuels": {
        "gazole": 1.669,
        "sp95": 1.659,
        "gplc": 1.11
      }
    },
    {
      "id": "14182",
      "cp": "39611",
      "ville": "Guarnizo",
      "adresse": "Poligono Industrial Guarnizo parcela, 22",
      "brand": "Cepsa",
      "lat": 43.400472,
      "lng": -3.843833,
      "fuels": {
        "gazole": 1.689,
        "sp95": 1.665
      }
    },
    {
      "id": "997",
      "cp": "39792",
      "ville": "Heras",
      "adresse": "Carretera N-635 km. 10,200",
      "brand": "Moeve",
      "lat": 43.396583,
      "lng": -3.787222,
      "fuels": {
        "gazole": 1.714,
        "sp95": 1.674,
        "sp98": 1.844
      }
    },
    {
      "id": "1002",
      "cp": "39608",
      "ville": "Herrera",
      "adresse": "N-611 Km 202,3",
      "brand": "Shell",
      "lat": 43.438083,
      "lng": -3.896667,
      "fuels": {
        "gazole": 1.629,
        "sp95": 1.599,
        "sp98": 1.739
      }
    },
    {
      "id": "1083",
      "cp": "39350",
      "ville": "Hinojedo",
      "adresse": "Avenida San saturnino, S/N",
      "brand": "Repsol",
      "lat": 43.397806,
      "lng": -4.049056,
      "fuels": {
        "gazole": 1.669,
        "sp95": 1.659,
        "sp98": 1.799
      }
    },
    {
      "id": "1086",
      "cp": "39716",
      "ville": "Hoznayo",
      "adresse": "Au A-8, 195",
      "brand": "Repsol",
      "lat": 43.389806,
      "lng": -3.6835,
      "fuels": {
        "gazole": 1.699,
        "sp95": 1.649
      }
    },
    {
      "id": "1071",
      "cp": "39716",
      "ville": "Hoznayo",
      "adresse": "Carretera N-634 km. 195",
      "brand": "Repsol",
      "lat": 43.388417,
      "lng": -3.685028,
      "fuels": {
        "gazole": 1.699,
        "sp95": 1.699,
        "sp98": 1.879,
        "gplc": 1.099
      }
    },
    {
      "id": "1046",
      "cp": "39716",
      "ville": "Hoznayo",
      "adresse": "ctra. N-634 Km 196",
      "brand": "Repsol",
      "lat": 43.388583,
      "lng": -3.687083,
      "fuels": {
        "gazole": 1.679,
        "sp95": 1.629,
        "sp98": 1.739,
        "gplc": 1.149
      }
    },
    {
      "id": "11459",
      "cp": "39691",
      "ville": "Iruz",
      "adresse": "Carretera Ca-270 km. 1,1",
      "brand": "Repsol",
      "lat": 43.272972,
      "lng": -3.935306,
      "fuels": {
        "gazole": 1.699,
        "sp95": 1.699,
        "sp98": 1.839
      }
    },
    {
      "id": "1099",
      "cp": "39798",
      "ville": "Islares",
      "adresse": "Carretera Irun-La Coruña km. 156",
      "brand": "e.s. Islares s.l.",
      "lat": 43.403361,
      "lng": -3.30275,
      "fuels": {
        "gazole": 1.599,
        "sp95": 1.629,
        "sp98": 1.767
      }
    },
    {
      "id": "11743",
      "cp": "39409",
      "ville": "Jain",
      "adresse": "Carretera Los Corrales De Buelna-Puente Viesgo km. 1,500",
      "brand": "Area De Servicio Ural",
      "lat": 43.266639,
      "lng": -4.052917,
      "fuels": {
        "gazole": 1.569,
        "sp95": 1.519,
        "sp98": 1.619
      }
    },
    {
      "id": "1058",
      "cp": "39770",
      "ville": "Laredo",
      "adresse": "Carretera N-634 km. 171",
      "brand": "Repsol",
      "lat": 43.399833,
      "lng": -3.439222,
      "fuels": {
        "gazole": 1.709,
        "sp95": 1.675,
        "sp98": 1.795,
        "gplc": 1.099
      }
    },
    {
      "id": "12610",
      "cp": "39692",
      "ville": "Liaño",
      "adresse": "Barrio La hoya, 0",
      "brand": "Es Ferman Liaño",
      "lat": 43.383222,
      "lng": -3.839722,
      "fuels": {
        "gazole": 1.529,
        "sp95": 1.559,
        "gplc": 1.049
      }
    },
    {
      "id": "15090",
      "cp": "39692",
      "ville": "Liaño",
      "adresse": "Barrio Liaño-Santa barbara, 25",
      "brand": "Repsol ",
      "lat": 43.383167,
      "lng": -3.858528,
      "fuels": {
        "gazole": 1.695,
        "sp95": 1.649,
        "sp98": 1.789,
        "gplc": 1.095
      }
    },
    {
      "id": "423",
      "cp": "39776",
      "ville": "Liendo",
      "adresse": "N-634 Km 165",
      "brand": "Valle De Liendo",
      "lat": 43.398583,
      "lng": -3.365528,
      "fuels": {
        "gazole": 1.669,
        "sp95": 1.639
      }
    },
    {
      "id": "996",
      "cp": "39160",
      "ville": "Loredo",
      "adresse": "Calle zuñeda, 7",
      "brand": "Repsol",
      "lat": 43.456778,
      "lng": -3.709361,
      "fuels": {
        "gazole": 1.62,
        "sp95": 1.61,
        "sp98": 1.74,
        "gplc": 1.12
      }
    },
    {
      "id": "424",
      "cp": "39408",
      "ville": "Los Corrales De Buelna",
      "adresse": "Barrio San Mateo (cr N-611  Palencia-Santander Km 174)",
      "brand": "e.s. Somahoz",
      "lat": 43.268583,
      "lng": -4.073861,
      "fuels": {
        "gazole": 1.419,
        "sp95": 1.409,
        "sp98": 1.629,
        "gplc": 1.079
      }
    },
    {
      "id": "1066",
      "cp": "39600",
      "ville": "Maliaño",
      "adresse": "Au A-10, 3",
      "brand": "Repsol",
      "lat": 43.425278,
      "lng": -3.835611,
      "fuels": {
        "gazole": 1.695,
        "sp95": 1.665,
        "sp98": 1.835
      }
    },
    {
      "id": "1035",
      "cp": "39600",
      "ville": "Maliaño",
      "adresse": "Au A-10, 5",
      "brand": "Repsol",
      "lat": 43.412444,
      "lng": -3.836333,
      "fuels": {
        "gazole": 1.699,
        "sp95": 1.675,
        "sp98": 1.785
      }
    },
    {
      "id": "11849",
      "cp": "39600",
      "ville": "Maliaño",
      "adresse": "Avenida tornada, S/N",
      "brand": "12241",
      "lat": 43.434694,
      "lng": -3.804917,
      "fuels": {
        "gazole": 1.57,
        "sp95": 1.58
      }
    },
    {
      "id": "15027",
      "cp": "39600",
      "ville": "Maliaño",
      "adresse": "Calle Gutierrez Solana 24, 24",
      "brand": "Ballenoil",
      "lat": 43.424722,
      "lng": -3.842111,
      "fuels": {
        "gazole": 1.449,
        "sp95": 1.489
      }
    },
    {
      "id": "1065",
      "cp": "39600",
      "ville": "Maliaño",
      "adresse": "p.i. Cros Km Centro Comercial M",
      "brand": "Shell",
      "lat": 43.42575,
      "lng": -3.841861,
      "fuels": {
        "gazole": 1.479,
        "sp95": 1.479,
        "sp98": 1.679
      }
    },
    {
      "id": "994",
      "cp": "39108",
      "ville": "Mompia",
      "adresse": "Avenida De Los condes, sn, ",
      "brand": "Repsol",
      "lat": 43.433222,
      "lng": -3.917694,
      "fuels": {
        "gazole": 1.689,
        "sp95": 1.659,
        "sp98": 1.779
      }
    },
    {
      "id": "425",
      "cp": "39600",
      "ville": "Muriedas",
      "adresse": "Avenida bilbao, 8",
      "brand": "Moeve",
      "lat": 43.422806,
      "lng": -3.852694,
      "fuels": {
        "gazole": 1.714,
        "sp95": 1.674
      }
    },
    {
      "id": "10839",
      "cp": "39600",
      "ville": "Muriedas",
      "adresse": "Avenida burgos, 65",
      "brand": "Repsol",
      "lat": 43.419778,
      "lng": -3.858806,
      "fuels": {
        "gazole": 1.669,
        "sp95": 1.659,
        "sp98": 1.799,
        "gplc": 1.139
      }
    },
    {
      "id": "8231",
      "cp": "39600",
      "ville": "Muriedas",
      "adresse": "Carretera Nacional 635 km. 2,7",
      "brand": "Carrefour",
      "lat": 43.428889,
      "lng": -3.836944,
      "fuels": {
        "gazole": 1.549,
        "sp95": 1.589,
        "sp98": 1.799
      }
    },
    {
      "id": "1039",
      "cp": "39526",
      "ville": "Novales",
      "adresse": "Carretera 6316 km. 10,5",
      "brand": "Cepsa",
      "lat": 43.395944,
      "lng": -4.155194,
      "fuels": {
        "gazole": 1.689,
        "sp95": 1.659,
        "sp98": 1.769
      }
    },
    {
      "id": "1016",
      "cp": "39585",
      "ville": "Ojedo",
      "adresse": "Cn-621 Km 150",
      "brand": "Estacion De Servicio Liebana s.l",
      "lat": 43.167083,
      "lng": -4.606194,
      "fuels": {
        "gazole": 1.579,
        "sp95": 1.569
      }
    },
    {
      "id": "9768",
      "cp": "39706",
      "ville": "Onton",
      "adresse": "Carretera N-634 km. 136,4",
      "brand": "Repsol",
      "lat": 43.340917,
      "lng": -3.155083,
      "fuels": {
        "gazole": 1.699,
        "sp95": 1.649,
        "sp98": 1.769
      }
    },
    {
      "id": "1097",
      "cp": "39706",
      "ville": "Onton",
      "adresse": "Carretera N-634 km. 136,400",
      "brand": "Repsol",
      "lat": 43.341194,
      "lng": -3.15475,
      "fuels": {
        "gazole": 1.699,
        "sp95": 1.649,
        "sp98": 1.769
      }
    },
    {
      "id": "10895",
      "cp": "39718",
      "ville": "Pamanes",
      "adresse": "Carretera Nacional 634 Km 204,850",
      "brand": "Area De Servicio Pamanes",
      "lat": 43.358972,
      "lng": -3.76775,
      "fuels": {
        "gazole": 1.659,
        "sp95": 1.659,
        "sp98": 1.759,
        "gplc": 1.109
      }
    },
    {
      "id": "1062",
      "cp": "39612",
      "ville": "Parbayon",
      "adresse": "Carretera N-623 km. 136",
      "brand": "Galp",
      "lat": 43.358278,
      "lng": -3.924083,
      "fuels": {
        "gazole": 1.649,
        "sp95": 1.649
      }
    },
    {
      "id": "12795",
      "cp": "39548",
      "ville": "Pesues",
      "adresse": "Carretera E-70/N-634 km. 279",
      "brand": "Moeve",
      "lat": 43.375028,
      "lng": -4.503889,
      "fuels": {
        "gazole": 1.709,
        "sp95": 1.659,
        "sp98": 1.869,
        "gplc": 1.165
      }
    },
    {
      "id": "1009",
      "cp": "39548",
      "ville": "Pesues",
      "adresse": "lansar, S/N (n-634 Km 284,5)",
      "brand": "Combuscan",
      "lat": 43.37482,
      "lng": -4.496616,
      "fuels": {
        "gazole": 1.489,
        "sp95": 1.499,
        "sp98": 1.639
      }
    },
    {
      "id": "11450",
      "cp": "39220",
      "ville": "Polientes",
      "adresse": "Carretera Ca-272 km. 30,5",
      "brand": "Cepsa",
      "lat": 42.805139,
      "lng": -3.934278,
      "fuels": {
        "gazole": 1.714,
        "sp95": 1.674
      }
    },
    {
      "id": "15549",
      "cp": "39660",
      "ville": "Pomaluengo",
      "adresse": "Autovia a8 km. 218,75",
      "brand": " Moeve",
      "lat": 43.313306,
      "lng": -3.933667,
      "fuels": {
        "gazole": 1.714,
        "sp95": 1.674,
        "sp98": 1.852
      }
    },
    {
      "id": "15990",
      "cp": "39618",
      "ville": "Pontejos",
      "adresse": "Barrio Pontejos - Otero 230m, S/N",
      "brand": "Ballenoil",
      "lat": 43.410861,
      "lng": -3.789528,
      "fuels": {
        "gazole": 1.479,
        "sp95": 1.499
      }
    },
    {
      "id": "1013",
      "cp": "39530",
      "ville": "Puente San Miguel",
      "adresse": "Autovia Autovia Del Cantabricoa-8 km. 234",
      "brand": "Cepsa",
      "lat": 43.356,
      "lng": -4.094167,
      "fuels": {
        "gazole": 1.705,
        "sp95": 1.659,
        "sp98": 1.849,
        "gplc": 1.132
      }
    },
    {
      "id": "1041",
      "cp": "39530",
      "ville": "Puente San Miguel",
      "adresse": "Carretera Puente San Miguel- Santillana Del Mar km. 1,2",
      "brand": "Petronor",
      "lat": 43.368611,
      "lng": -4.089444,
      "fuels": {
        "gazole": 1.689,
        "sp95": 1.659
      }
    },
    {
      "id": "999",
      "cp": "39670",
      "ville": "Puente Viesgo",
      "adresse": "N-623 Km 28",
      "brand": "Meroil",
      "lat": 43.328167,
      "lng": -3.967583,
      "fuels": {
        "gazole": 1.625,
        "sp95": 1.625,
        "sp98": 1.685,
        "gplc": 1.139
      }
    },
    {
      "id": "1040",
      "cp": "39554",
      "ville": "Puentenansa",
      "adresse": "Carretera Ca-182 km. 15,4",
      "brand": "Petronor",
      "lat": 43.254194,
      "lng": -4.405361,
      "fuels": {
        "gazole": 1.689,
        "sp95": 1.629,
        "sp98": 1.799
      }
    },
    {
      "id": "8063",
      "cp": "39800",
      "ville": "Ramales De La Victoria",
      "adresse": "N-629 Cereceda-Colindres Km 67.8",
      "brand": "Avia",
      "lat": 43.251889,
      "lng": -3.461944,
      "fuels": {
        "gazole": 1.469,
        "sp95": 1.539
      }
    },
    {
      "id": "7960",
      "cp": "39200",
      "ville": "Reinosa",
      "adresse": "Avenida cantabria, 73",
      "brand": "Repsol",
      "lat": 43.003861,
      "lng": -4.131667,
      "fuels": {
        "gazole": 1.719,
        "sp95": 1.669,
        "sp98": 1.839
      }
    },
    {
      "id": "8145",
      "cp": "39200",
      "ville": "Reinosa",
      "adresse": "Avenida cantabria, 99",
      "brand": "Moeve",
      "lat": 43.007139,
      "lng": -4.12875,
      "fuels": {
        "gazole": 1.729,
        "sp95": 1.679,
        "sp98": 1.869
      }
    },
    {
      "id": "14053",
      "cp": "39200",
      "ville": "Reinosa",
      "adresse": "Poligono Sepes-La vega, Parcela 74-80, 74",
      "brand": "Cepsa",
      "lat": 42.995194,
      "lng": -4.131333,
      "fuels": {
        "gazole": 1.694,
        "sp95": 1.644
      }
    },
    {
      "id": "8363",
      "cp": "39470",
      "ville": "Renedo",
      "adresse": "Avenida Luis De La concha, 63",
      "brand": "Moeve",
      "lat": 43.355222,
      "lng": -3.955306,
      "fuels": {
        "gazole": 1.678,
        "sp95": 1.668,
        "gplc": 1.138
      }
    },
    {
      "id": "1005",
      "cp": "39538",
      "ville": "Reocin",
      "adresse": "Calle La Mies S/N Autovia a8 Salida 234, ",
      "brand": "Moeve",
      "lat": 43.353889,
      "lng": -4.093056,
      "fuels": {
        "gazole": 1.694,
        "sp95": 1.644,
        "sp98": 1.824
      }
    },
    {
      "id": "13158",
      "cp": "39312",
      "ville": "Requejada",
      "adresse": "Barrio Requejada  En  requejada, 2",
      "brand": "Bp Polanco",
      "lat": 43.391667,
      "lng": -4.021694,
      "fuels": {
        "gazole": 1.659,
        "sp95": 1.649,
        "sp98": 1.789,
        "gplc": 1.129
      }
    },
    {
      "id": "14157",
      "cp": "39600",
      "ville": "Revilla",
      "adresse": "Barrio La calva, 16",
      "brand": "Cepsa",
      "lat": 43.404694,
      "lng": -3.868667,
      "fuels": {
        "gazole": 1.659,
        "sp95": 1.629,
        "gplc": 1.049
      }
    },
    {
      "id": "1012",
      "cp": "39513",
      "ville": "Ruente",
      "adresse": "Carretera Comarcal 625 km. 48400",
      "brand": "Cepsa",
      "lat": 43.269333,
      "lng": -4.249639,
      "fuels": {
        "gazole": 1.695,
        "sp95": 1.645,
        "sp98": 1.849
      }
    },
    {
      "id": "1081",
      "cp": "39527",
      "ville": "Ruilobuca",
      "adresse": "Carretera El Portillo km. 21,5",
      "brand": "Repsol",
      "lat": 43.387639,
      "lng": -4.279472,
      "fuels": {
        "gazole": 1.725,
        "sp95": 1.629,
        "sp98": 1.799
      }
    },
    {
      "id": "1038",
      "cp": "39192",
      "ville": "San Mames De Meruelo",
      "adresse": "Cr Ca-147, 4,7",
      "brand": "Repsol",
      "lat": 43.447306,
      "lng": -3.562611,
      "fuels": {
        "gazole": 1.715,
        "sp95": 1.669,
        "sp98": 1.779
      }
    },
    {
      "id": "10964",
      "cp": "39192",
      "ville": "San Miguel De Meruelo",
      "adresse": "bº Bocillo 16",
      "brand": "Agrocantabria",
      "lat": 43.454806,
      "lng": -3.57775,
      "fuels": {
        "gazole": 1.49,
        "sp95": 1.52
      }
    },
    {
      "id": "12932",
      "cp": "39766",
      "ville": "San Pantaleon De Aras",
      "adresse": "Barrio San pantaleón, S/N",
      "brand": "Avia",
      "lat": 43.347944,
      "lng": -3.496417,
      "fuels": {
        "gazole": 1.539,
        "sp95": 1.559
      }
    },
    {
      "id": "15017",
      "cp": "39011",
      "ville": "San Roman",
      "adresse": "Calle Republica checa, 1",
      "brand": "Nueva Alisal",
      "lat": 43.457806,
      "lng": -3.859333,
      "fuels": {
        "gazole": 1.479,
        "sp95": 1.469,
        "sp98": 1.699
      }
    },
    {
      "id": "1092",
      "cp": "39540",
      "ville": "San Vicente De La Barquera",
      "adresse": "Carretera E-70/N-634 km. 270",
      "brand": "e.s.solbas",
      "lat": 43.388361,
      "lng": -4.407833,
      "fuels": {
        "gazole": 1.599,
        "sp95": 1.619,
        "sp98": 1.739
      }
    },
    {
      "id": "15418",
      "cp": "39699",
      "ville": "San Vicente De Toranzo",
      "adresse": "Poligono Rio pas, Sn",
      "brand": "Talleres Y Servicios Villegar",
      "lat": 43.215833,
      "lng": -3.940194,
      "fuels": {
        "gazole": 1.49
      }
    },
    {
      "id": "16380",
      "cp": "39110",
      "ville": "Sancibrian",
      "adresse": "Avenida Avenida Marqués De valdecilla, 90",
      "brand": "Plenergy",
      "lat": 43.4655,
      "lng": -3.874417,
      "fuels": {
        "gazole": 1.449,
        "sp95": 1.489
      }
    },
    {
      "id": "1017",
      "cp": "39100",
      "ville": "Santa Cruz De Bezana",
      "adresse": "Avenida Avenida Marques De valdecilla, 149",
      "brand": "Plenergy",
      "lat": 43.466444,
      "lng": -3.880861,
      "fuels": {
        "gazole": 1.449,
        "sp95": 1.489
      }
    },
    {
      "id": "11069",
      "cp": "39100",
      "ville": "Santa Cruz De Bezana",
      "adresse": "Avenida Marques De valdecilla, 121",
      "brand": "Expomarina",
      "lat": 43.467806,
      "lng": -3.890611,
      "fuels": {
        "gazole": 1.57,
        "sp95": 1.58
      }
    },
    {
      "id": "12894",
      "cp": "39100",
      "ville": "Santa Cruz De Bezana",
      "adresse": "Avenida Santa Cruz (la), 34",
      "brand": "Petroprix Bezana",
      "lat": 43.432944,
      "lng": -3.913611,
      "fuels": {
        "gazole": 1.449,
        "sp95": 1.489
      }
    },
    {
      "id": "1045",
      "cp": "39430",
      "ville": "Santa Olalla",
      "adresse": "Carretera N-611 km. 159",
      "brand": "Petronor",
      "lat": 43.131389,
      "lng": -4.049,
      "fuels": {
        "gazole": 1.689,
        "sp95": 1.669
      }
    },
    {
      "id": "420",
      "cp": "39011",
      "ville": "Santander",
      "adresse": "area, Arrabal Puerto De raos, 8",
      "brand": "eessmas, s.l.",
      "lat": 43.434139,
      "lng": -3.833333,
      "fuels": {
        "gazole": 1.629,
        "sp95": 1.619,
        "gplc": 1.049
      }
    },
    {
      "id": "9564",
      "cp": "39011",
      "ville": "Santander",
      "adresse": "Avenida Avda parayas, 12",
      "brand": "Easygas",
      "lat": 43.450056,
      "lng": -3.830472,
      "fuels": {
        "gazole": 1.499,
        "sp95": 1.489
      }
    },
    {
      "id": "15857",
      "cp": "39011",
      "ville": "Santander",
      "adresse": "Avenida candina, 15",
      "brand": "Petroprix",
      "lat": 43.452194,
      "lng": -3.830833,
      "fuels": {
        "gazole": 1.449,
        "sp95": 1.489
      }
    },
    {
      "id": "1014",
      "cp": "39011",
      "ville": "Santander",
      "adresse": "Avenida Cardenal Herrera oria, 38",
      "brand": "Repsol",
      "lat": 43.459083,
      "lng": -3.841194,
      "fuels": {
        "gazole": 1.669,
        "sp95": 1.659,
        "sp98": 1.799,
        "gplc": 1.139
      }
    },
    {
      "id": "12011",
      "cp": "39005",
      "ville": "Santander",
      "adresse": "Avenida Castros (los), 113",
      "brand": "Plenergy",
      "lat": 43.468056,
      "lng": -3.81625,
      "fuels": {
        "gazole": 1.449,
        "sp95": 1.489
      }
    },
    {
      "id": "15541",
      "cp": "39011",
      "ville": "Santander",
      "adresse": "Avenida Nueva Montaña 2f, 2",
      "brand": "Cepsa",
      "lat": 43.440167,
      "lng": -3.843667,
      "fuels": {
        "gazole": 1.685,
        "sp95": 1.665,
        "sp98": 1.826
      }
    },
    {
      "id": "1000",
      "cp": "39010",
      "ville": "Santander",
      "adresse": "Avenida valdecilla, 10",
      "brand": "Moeve",
      "lat": 43.458028,
      "lng": -3.828917,
      "fuels": {
        "gazole": 1.714,
        "sp95": 1.674,
        "sp98": 1.834
      }
    },
    {
      "id": "1029",
      "cp": "39011",
      "ville": "Santander",
      "adresse": "Avenida Vicente trueba, Sn",
      "brand": "Gasolinera Alisal",
      "lat": 43.457083,
      "lng": -3.856917,
      "fuels": {
        "gazole": 1.469,
        "sp95": 1.419
      }
    },
    {
      "id": "11239",
      "cp": "39011",
      "ville": "Santander",
      "adresse": "Barrio camarreal, 150",
      "brand": "Repsol",
      "lat": 43.444361,
      "lng": -3.874222,
      "fuels": {
        "gazole": 1.689,
        "sp95": 1.659,
        "sp98": 1.779
      }
    },
    {
      "id": "16433",
      "cp": "39011",
      "ville": "Santander",
      "adresse": "Calle C/ Gutiérrez solana, 10",
      "brand": "Plenergy",
      "lat": 43.461194,
      "lng": -3.836278,
      "fuels": {
        "gazole": 1.449,
        "sp95": 1.489
      }
    },
    {
      "id": "9541",
      "cp": "39012",
      "ville": "Santander",
      "adresse": "Calle camus, 75",
      "brand": "Meroil",
      "lat": 43.485333,
      "lng": -3.800083,
      "fuels": {
        "gazole": 1.619,
        "sp95": 1.619,
        "sp98": 1.699,
        "gplc": 1.055
      }
    },
    {
      "id": "1025",
      "cp": "39011",
      "ville": "Santander",
      "adresse": "Calle El empalme, ",
      "brand": "Carrefour",
      "lat": 43.446444,
      "lng": -3.85375,
      "fuels": {
        "gazole": 1.549,
        "sp95": 1.589,
        "sp98": 1.769
      }
    },
    {
      "id": "14940",
      "cp": "39011",
      "ville": "Santander",
      "adresse": "Calle Faustino cavadas, 32",
      "brand": "Petroprix",
      "lat": 43.440417,
      "lng": -3.85875,
      "fuels": {
        "gazole": 1.449,
        "sp95": 1.489
      }
    },
    {
      "id": "1056",
      "cp": "39005",
      "ville": "Santander",
      "adresse": "Calle Joaquin costa, Sn",
      "brand": "Repsol",
      "lat": 43.4715,
      "lng": -3.781806,
      "fuels": {
        "gazole": 1.685,
        "sp95": 1.675
      }
    },
    {
      "id": "1026",
      "cp": "39011",
      "ville": "Santander",
      "adresse": "Calle Joaquín rodriguo, 2",
      "brand": "Carrefour",
      "lat": 43.456306,
      "lng": -3.863361,
      "fuels": {
        "gazole": 1.549,
        "sp95": 1.589,
        "sp98": 1.769
      }
    },
    {
      "id": "16310",
      "cp": "39011",
      "ville": "Santander",
      "adresse": "Calle Joaquin salas, 6",
      "brand": "Ballenoil",
      "lat": 43.442639,
      "lng": -3.864417,
      "fuels": {
        "gazole": 1.449,
        "sp95": 1.489
      }
    },
    {
      "id": "11412",
      "cp": "39012",
      "ville": "Santander",
      "adresse": "Calle Josefa De La maza, 2",
      "brand": "Moeve",
      "lat": 43.466917,
      "lng": -3.834,
      "fuels": {
        "gazole": 1.729,
        "sp95": 1.689
      }
    },
    {
      "id": "11930",
      "cp": "39011",
      "ville": "Santander",
      "adresse": "Calle La peseta, 1",
      "brand": "e.s.nueva Montaña",
      "lat": 43.4405,
      "lng": -3.839111,
      "fuels": {
        "gazole": 1.499,
        "sp95": 1.489,
        "sp98": 1.699
      }
    },
    {
      "id": "1043",
      "cp": "39011",
      "ville": "Santander",
      "adresse": "Calle naos, 1",
      "brand": "Repsol",
      "lat": 43.434889,
      "lng": -3.836528,
      "fuels": {
        "gazole": 1.659,
        "sp95": 1.649,
        "sp98": 1.799
      }
    },
    {
      "id": "15329",
      "cp": "39012",
      "ville": "Santander",
      "adresse": "Calle repuente, 30",
      "brand": "Galp",
      "lat": 43.465028,
      "lng": -3.834417,
      "fuels": {
        "gazole": 1.599,
        "sp95": 1.659
      }
    },
    {
      "id": "1020",
      "cp": "39012",
      "ville": "Santander",
      "adresse": "Calle repuente, 35",
      "brand": "Petroprix",
      "lat": 43.464556,
      "lng": -3.83325,
      "fuels": {
        "gazole": 1.449,
        "sp95": 1.489
      }
    },
    {
      "id": "15589",
      "cp": "39012",
      "ville": "Santander",
      "adresse": "Calle repuente, 53",
      "brand": "Ballenoil",
      "lat": 43.463278,
      "lng": -3.836139,
      "fuels": {
        "gazole": 1.449,
        "sp95": 1.489
      }
    },
    {
      "id": "16289",
      "cp": "39009",
      "ville": "Santander",
      "adresse": "Calle San Martín Del pino, S/N",
      "brand": "Plenergy",
      "lat": 43.443472,
      "lng": -3.855472,
      "fuels": {
        "gazole": 1.449,
        "sp95": 1.489
      }
    },
    {
      "id": "1063",
      "cp": "39011",
      "ville": "Santander",
      "adresse": "Carretera N-623 km. 390",
      "brand": "Galp",
      "lat": 43.447639,
      "lng": -3.854528,
      "fuels": {
        "gazole": 1.599,
        "sp95": 1.609
      }
    },
    {
      "id": "1074",
      "cp": "39009",
      "ville": "Santander",
      "adresse": "Cl castilla, 91",
      "brand": "Repsol",
      "lat": 43.453556,
      "lng": -3.824139,
      "fuels": {
        "gazole": 1.699,
        "sp95": 1.669,
        "sp98": 1.789
      }
    },
    {
      "id": "1042",
      "cp": "39012",
      "ville": "Santander",
      "adresse": "Cr Ca-230 (albericia-sardinero, 0,1",
      "brand": "Repsol",
      "lat": 43.463083,
      "lng": -3.838528,
      "fuels": {
        "gazole": 1.695,
        "sp95": 1.679,
        "sp98": 1.799
      }
    },
    {
      "id": "9632",
      "cp": "39011",
      "ville": "Santander",
      "adresse": "Isla Del Oleo 19 - pol. ind. Nueva Montaña",
      "brand": "Beroil",
      "lat": 43.441722,
      "lng": -3.847056,
      "fuels": {
        "gazole": 1.379,
        "sp95": 1.419
      }
    },
    {
      "id": "1053",
      "cp": "39004",
      "ville": "Santander",
      "adresse": "Plaza Matias montero, S/N",
      "brand": "Repsol",
      "lat": 43.462667,
      "lng": -3.796361,
      "fuels": {
        "gazole": 1.685,
        "sp95": 1.679
      }
    },
    {
      "id": "8892",
      "cp": "39011",
      "ville": "Santander",
      "adresse": "Poligono El campon,, S/N",
      "brand": "Ballenoil",
      "lat": 43.45125,
      "lng": -3.859694,
      "fuels": {
        "gazole": 1.449,
        "sp95": 1.489
      }
    },
    {
      "id": "15734",
      "cp": "39311",
      "ville": "Santiago",
      "adresse": "Calle Santiago-La llanada, 6",
      "brand": "Petroprix",
      "lat": 43.332889,
      "lng": -4.066556,
      "fuels": {
        "gazole": 1.429,
        "sp95": 1.449
      }
    },
    {
      "id": "15962",
      "cp": "39740",
      "ville": "Santoña",
      "adresse": "Calle Baldomero villegas, 36",
      "brand": "Plenergy",
      "lat": 43.446028,
      "lng": -3.459528,
      "fuels": {
        "gazole": 1.479,
        "sp95": 1.499
      }
    },
    {
      "id": "1037",
      "cp": "39740",
      "ville": "Santoña",
      "adresse": "Cr Ca-141, 38,0",
      "brand": "Repsol",
      "lat": 43.449583,
      "lng": -3.457083,
      "fuels": {
        "gazole": 1.695,
        "sp95": 1.679,
        "sp98": 1.849
      }
    },
    {
      "id": "13107",
      "cp": "39740",
      "ville": "Santoña",
      "adresse": "Poligono Las marismas, 5",
      "brand": "Avia",
      "lat": 43.445556,
      "lng": -3.460278,
      "fuels": {
        "gazole": 1.629,
        "sp95": 1.649,
        "sp98": 1.779
      }
    },
    {
      "id": "1067",
      "cp": "39317",
      "ville": "Sierrapando",
      "adresse": "Avenida De bilbao, 117 / ctra. N-634 Km 232, 5",
      "brand": "Repsol",
      "lat": 43.341,
      "lng": -4.029417,
      "fuels": {
        "gazole": 1.715,
        "sp95": 1.659,
        "sp98": 1.779
      }
    },
    {
      "id": "1011",
      "cp": "39806",
      "ville": "Soba",
      "adresse": "Barrio San Juan De Soba (ctra- Comarcal Ramales-Valle D Km 6,4)",
      "brand": "(sin rótulo)",
      "lat": 43.209722,
      "lng": -3.472361,
      "fuels": {
        "gazole": 1.47,
        "sp95": 1.45
      }
    },
    {
      "id": "14771",
      "cp": "39627",
      "ville": "Sobarzo",
      "adresse": "Calle pumarijo, 2",
      "brand": "Cepsa",
      "lat": 43.332389,
      "lng": -3.839417,
      "fuels": {
        "gazole": 1.669,
        "sp95": 1.639,
        "sp98": 1.769
      }
    },
    {
      "id": "13947",
      "cp": "39710",
      "ville": "Solares",
      "adresse": "Camino rufriego, 0",
      "brand": "Petroleos De Cudeyo",
      "lat": 43.391028,
      "lng": -3.744917,
      "fuels": {
        "gazole": 1.449,
        "sp95": 1.469
      }
    },
    {
      "id": "1059",
      "cp": "39710",
      "ville": "Solares",
      "adresse": "Carretera N-634a km. 199,5",
      "brand": "Ballenoil",
      "lat": 43.383472,
      "lng": -3.73775,
      "fuels": {
        "gazole": 1.429,
        "sp95": 1.449
      }
    },
    {
      "id": "11116",
      "cp": "39738",
      "ville": "Solorzano",
      "adresse": "Barrio Mies De Pelayo  Ca-266, Km 4,3, S/N",
      "brand": "Campiezo -Avia",
      "lat": 43.3905,
      "lng": -3.588417,
      "fuels": {
        "gazole": 1.619,
        "sp95": 1.619,
        "sp98": 1.679
      }
    },
    {
      "id": "1004",
      "cp": "39400",
      "ville": "Somahoz",
      "adresse": "Barrio Somahoz",
      "brand": "e.s. Marja",
      "lat": 43.248806,
      "lng": -4.064667,
      "fuels": {
        "gazole": 1.41,
        "sp95": 1.4,
        "sp98": 1.62
      }
    },
    {
      "id": "10858",
      "cp": "39110",
      "ville": "Soto De La Marina",
      "adresse": "Calle Jose Maria pereda, 6",
      "brand": "Ballenoil",
      "lat": 43.464056,
      "lng": -3.875944,
      "fuels": {
        "gazole": 1.449,
        "sp95": 1.489
      }
    },
    {
      "id": "1093",
      "cp": "39340",
      "ville": "Suances",
      "adresse": "avda. Jose antonio, 46,0 (s-472 Km 5,3)",
      "brand": "Ballenoil",
      "lat": 43.420056,
      "lng": -4.039,
      "fuels": {
        "gazole": 1.409,
        "sp95": 1.429
      }
    },
    {
      "id": "13683",
      "cp": "39316",
      "ville": "Tanos",
      "adresse": "Paseo Julio hauzeur, 2",
      "brand": "Ballenoil",
      "lat": 43.351194,
      "lng": -4.057694,
      "fuels": {
        "gazole": 1.429,
        "sp95": 1.429
      }
    },
    {
      "id": "1015",
      "cp": "39300",
      "ville": "Torrelavega",
      "adresse": "avda. Fernandez vallejo, 12",
      "brand": "ruycopetrol, s.l.",
      "lat": 43.343792,
      "lng": -4.046338,
      "fuels": {
        "gazole": 1.459,
        "sp95": 1.449
      }
    },
    {
      "id": "1073",
      "cp": "39300",
      "ville": "Torrelavega",
      "adresse": "avda. oviedo, 24 (n-634a Km 232,3)",
      "brand": "Ballenoil",
      "lat": 43.355972,
      "lng": -4.069472,
      "fuels": {
        "gazole": 1.449,
        "sp95": 1.449
      }
    },
    {
      "id": "11779",
      "cp": "39300",
      "ville": "Torrelavega",
      "adresse": "Avenida bilbao, Poligono Los ochos, S/N",
      "brand": "Carrefour",
      "lat": 43.341167,
      "lng": -4.031,
      "fuels": {
        "gazole": 1.549,
        "sp95": 1.589,
        "sp98": 1.769
      }
    },
    {
      "id": "1072",
      "cp": "39300",
      "ville": "Torrelavega",
      "adresse": "Avenida De oviedo, 24",
      "brand": "Cepsa",
      "lat": 43.356056,
      "lng": -4.069472,
      "fuels": {
        "gazole": 1.699,
        "sp95": 1.645,
        "sp98": 1.849
      }
    },
    {
      "id": "1008",
      "cp": "39300",
      "ville": "Torrelavega",
      "adresse": "Avenida solvay, 85",
      "brand": "Meroil",
      "lat": 43.369667,
      "lng": -4.042861,
      "fuels": {
        "gazole": 1.448,
        "sp95": 1.448,
        "sp98": 1.628,
        "gplc": 1.128
      }
    },
    {
      "id": "14553",
      "cp": "39300",
      "ville": "Torrelavega",
      "adresse": "Barrio sierrapando, 371",
      "brand": "Nieves",
      "lat": 43.34275,
      "lng": -4.029833,
      "fuels": {
        "gazole": 1.464,
        "sp95": 1.464
      }
    },
    {
      "id": "419",
      "cp": "39300",
      "ville": "Torrelavega",
      "adresse": "Pablo Garnica S/n, esq. Pintor Pancho Cossio",
      "brand": "Cepsa",
      "lat": 43.352139,
      "lng": -4.050667,
      "fuels": {
        "gazole": 1.739,
        "sp95": 1.689,
        "sp98": 1.849
      }
    },
    {
      "id": "8143",
      "cp": "39300",
      "ville": "Torrelavega",
      "adresse": "Paseo Julio hauzeur, 6",
      "brand": "Area De Servicio Torrelavega",
      "lat": 43.351528,
      "lng": -4.058583,
      "fuels": {
        "gazole": 1.639,
        "sp95": 1.638
      }
    },
    {
      "id": "1089",
      "cp": "39593",
      "ville": "Valdaliga",
      "adresse": "Au  A-8 ,p.k. 256",
      "brand": "Repsol",
      "lat": 43.333972,
      "lng": -4.329278,
      "fuels": {
        "gazole": 1.705,
        "sp95": 1.655,
        "sp98": 1.765,
        "gplc": 1.119
      }
    },
    {
      "id": "1090",
      "cp": "39593",
      "ville": "Valdaliga",
      "adresse": "Au  A-8 ,p.k. 256",
      "brand": "Repsol",
      "lat": 43.334083,
      "lng": -4.330611,
      "fuels": {
        "gazole": 1.705,
        "sp95": 1.655,
        "sp98": 1.765,
        "gplc": 1.115
      }
    },
    {
      "id": "1006",
      "cp": "39592",
      "ville": "Valdaliga",
      "adresse": "Cn-634 Km 255,7",
      "brand": "e.s. Treceño s.l.",
      "lat": 43.319556,
      "lng": -4.309,
      "fuels": {
        "gazole": 1.699,
        "sp95": 1.689
      }
    },
    {
      "id": "11698",
      "cp": "39638",
      "ville": "Vega",
      "adresse": "Carretera Ca-142 km. 19,5",
      "brand": "Moeve",
      "lat": 43.263861,
      "lng": -3.849222,
      "fuels": {
        "gazole": 1.678,
        "sp95": 1.668,
        "sp98": 1.858
      }
    },
    {
      "id": "1078",
      "cp": "39640",
      "ville": "Villacarriedo",
      "adresse": "Avenida De santander, 43",
      "brand": "Repsol",
      "lat": 43.229528,
      "lng": -3.814194,
      "fuels": {
        "gazole": 1.669,
        "sp95": 1.649,
        "sp98": 1.779
      }
    },
    {
      "id": "9907",
      "cp": "39640",
      "ville": "Villacarriedo",
      "adresse": "Barrio charola, Sn",
      "brand": "Agrocantabria",
      "lat": 43.237778,
      "lng": -3.824222,
      "fuels": {
        "gazole": 1.58,
        "sp95": 1.6
      }
    },
    {
      "id": "10035",
      "cp": "39690",
      "ville": "Villanueva",
      "adresse": "Carretera General (carretera Km 4.2)",
      "brand": "Campsa",
      "lat": 43.361722,
      "lng": -3.859861,
      "fuels": {
        "gazole": 1.685,
        "sp95": 1.649
      }
    },
    {
      "id": "1077",
      "cp": "39699",
      "ville": "Villegar",
      "adresse": "Cr N-623, 116",
      "brand": "Repsol",
      "lat": 43.218333,
      "lng": -3.943222,
      "fuels": {
        "gazole": 1.729,
        "sp95": 1.679,
        "sp98": 1.799
      }
    },
    {
      "id": "16249",
      "cp": "39314",
      "ville": "Viveda",
      "adresse": "Barrio viveda, S/N",
      "brand": "Plenergy",
      "lat": 43.37725,
      "lng": -4.049444,
      "fuels": {
        "gazole": 1.409,
        "sp95": 1.429
      }
    },
    {
      "id": "1034",
      "cp": "39314",
      "ville": "Viveda",
      "adresse": "Carretera 6316 km.2 km. 2",
      "brand": "Repsol",
      "lat": 43.378278,
      "lng": -4.05975,
      "fuels": {
        "gazole": 1.699,
        "sp95": 1.639,
        "sp98": 1.809
      }
    }
  ]
}