{
  "code": "43",
  "name": "Tarragona",
  "regionCode": "CAT",
  "regionName": "Cataluña",
  "asOf": "2026-07-18T18:35:16.814Z",
  "source": "https://sedeaplicaciones.minetur.gob.es/ServiciosRESTCarburantes/PreciosCarburantes/EstacionesTerrestres/",
  "stationCount": 226,
  "fuels": {
    "gazole": {
      "count": 224,
      "mean": 1.6346,
      "median": 1.689,
      "min": 1.389,
      "max": 1.829
    },
    "sp95": {
      "count": 213,
      "mean": 1.5828,
      "median": 1.645,
      "min": 1.331,
      "max": 1.785
    },
    "sp98": {
      "count": 123,
      "mean": 1.7728,
      "median": 1.795,
      "min": 1.499,
      "max": 1.894
    },
    "e10": {
      "count": 1,
      "mean": 1.729,
      "median": 1.729,
      "min": 1.729,
      "max": 1.729
    },
    "gplc": {
      "count": 28,
      "mean": 1.0498,
      "median": 1.075,
      "min": 0.781,
      "max": 1.187
    }
  },
  "stations": [
    {
      "id": "15409",
      "cp": "43530",
      "ville": "Alcanar",
      "adresse": "Avenida De catalunña, S/N",
      "brand": "Esclatoil",
      "lat": 40.542694,
      "lng": 0.486639,
      "fuels": {
        "gazole": 1.549,
        "sp95": 1.449
      }
    },
    {
      "id": "8526",
      "cp": "43530",
      "ville": "Alcanar",
      "adresse": "Carretera Nacional 340 Sec H km. 1059",
      "brand": "Shell",
      "lat": 40.53325,
      "lng": 0.507306,
      "fuels": {
        "gazole": 1.639,
        "sp95": 1.599,
        "sp98": 1.739
      }
    },
    {
      "id": "3374",
      "cp": "43530",
      "ville": "Alcanar",
      "adresse": "Carretera Tv-3321 km. 0,9",
      "brand": "Tamoil",
      "lat": 40.539583,
      "lng": 0.471889,
      "fuels": {
        "gazole": 1.639,
        "sp95": 1.539,
        "sp98": 1.639
      }
    },
    {
      "id": "3277",
      "cp": "43530",
      "ville": "Alcanar",
      "adresse": "Ronda Remei (del), S/N",
      "brand": "Petronor",
      "lat": 40.547806,
      "lng": 0.478056,
      "fuels": {
        "gazole": 1.695,
        "sp95": 1.645,
        "sp98": 1.815
      }
    },
    {
      "id": "3367",
      "cp": "43460",
      "ville": "Alcover",
      "adresse": "Avenida De reus, 86",
      "brand": "Icor Energia",
      "lat": 41.256167,
      "lng": 1.169056,
      "fuels": {
        "gazole": 1.689,
        "sp95": 1.559,
        "sp98": 1.779
      }
    },
    {
      "id": "9582",
      "cp": "43460",
      "ville": "Alcover",
      "adresse": "crta.c-14 Km 19,50",
      "brand": "Oilprix",
      "lat": 41.250583,
      "lng": 1.169889,
      "fuels": {
        "gazole": 1.657,
        "sp95": 1.556
      }
    },
    {
      "id": "3379",
      "cp": "43896",
      "ville": "Aldea (l')",
      "adresse": "Autopista Ap-7 (mrg.dcho.) km. 317",
      "brand": "Eni",
      "lat": 40.765028,
      "lng": 0.626222,
      "fuels": {
        "gazole": 1.759,
        "sp95": 1.709,
        "sp98": 1.849,
        "gplc": 1.149
      }
    },
    {
      "id": "3380",
      "cp": "43896",
      "ville": "Aldea (l')",
      "adresse": "Autopista Ap-7 (mrg.izdo.) km. 317",
      "brand": "Eni",
      "lat": 40.764778,
      "lng": 0.628861,
      "fuels": {
        "gazole": 1.759,
        "sp95": 1.709,
        "sp98": 1.849,
        "gplc": 1.149
      }
    },
    {
      "id": "3345",
      "cp": "43896",
      "ville": "Aldea (l')",
      "adresse": "Calle major, 120",
      "brand": "Cepsa",
      "lat": 40.744194,
      "lng": 0.61475,
      "fuels": {
        "gazole": 1.689,
        "sp95": 1.669
      }
    },
    {
      "id": "16180",
      "cp": "43896",
      "ville": "Aldea (l')",
      "adresse": "Poligono Catalunya sud, S/N",
      "brand": "Campo",
      "lat": 40.755056,
      "lng": 0.59975,
      "fuels": {
        "gazole": 1.529,
        "sp95": 1.499
      }
    },
    {
      "id": "3243",
      "cp": "43365",
      "ville": "Alforja",
      "adresse": "Cr C-242, 62,6",
      "brand": "Repsol",
      "lat": 41.192278,
      "lng": 1.000139,
      "fuels": {
        "gazole": 1.699,
        "sp95": 1.665,
        "sp98": 1.835
      }
    },
    {
      "id": "3230",
      "cp": "43893",
      "ville": "Altafulla",
      "adresse": "Autopista Ap 7 km. 237",
      "brand": "Cepsa",
      "lat": 41.136056,
      "lng": 1.351806,
      "fuels": {
        "gazole": 1.734,
        "sp95": 1.694,
        "gplc": 1.187
      }
    },
    {
      "id": "3391",
      "cp": "43893",
      "ville": "Altafulla",
      "adresse": "Carretera E-15/Ap-7 km. 237",
      "brand": "Cepsa",
      "lat": 41.140806,
      "lng": 1.345444,
      "fuels": {
        "gazole": 1.734,
        "sp95": 1.694,
        "sp98": 1.854,
        "gplc": 1.187
      }
    },
    {
      "id": "3290",
      "cp": "43893",
      "ville": "Altafulla",
      "adresse": "Carretera N-340 km. 1173",
      "brand": "Repsol",
      "lat": 41.139889,
      "lng": 1.365667,
      "fuels": {
        "gazole": 1.749,
        "sp95": 1.689,
        "sp98": 1.809,
        "gplc": 1.105
      }
    },
    {
      "id": "10029",
      "cp": "43860",
      "ville": "Ametlla De Mar (l')",
      "adresse": "Carretera Cn-340 km. 1110",
      "brand": "Alas",
      "lat": 40.897167,
      "lng": 0.748389,
      "fuels": {
        "gazole": 1.579,
        "sp95": 1.439
      }
    },
    {
      "id": "3288",
      "cp": "43860",
      "ville": "Ametlla De Mar (l')",
      "adresse": "Carretera N-340a km. 1110,0",
      "brand": "Repsol",
      "lat": 40.896611,
      "lng": 0.747833,
      "fuels": {
        "gazole": 1.715,
        "sp95": 1.645,
        "sp98": 1.815
      }
    },
    {
      "id": "3281",
      "cp": "43860",
      "ville": "Ametlla De Mar (l')",
      "adresse": "Carretera Tv-3025 km. 0,425",
      "brand": "Cepsa",
      "lat": 40.887472,
      "lng": 0.798917,
      "fuels": {
        "gazole": 1.774,
        "sp95": 1.734,
        "sp98": 1.894
      }
    },
    {
      "id": "16344",
      "cp": "43860",
      "ville": "Ametlla De Mar (l')",
      "adresse": "Carretera Tv-3025, p2 km. 0,7",
      "brand": "Esclatoil",
      "lat": 40.889861,
      "lng": 0.797028,
      "fuels": {
        "gazole": 1.539,
        "sp95": 1.449
      }
    },
    {
      "id": "12017",
      "cp": "43860",
      "ville": "Ametlla De Mar (l')",
      "adresse": "Poligono crta.n340 Pkm 1113, 3",
      "brand": "Jayomi Serveis",
      "lat": 40.894528,
      "lng": 0.782583,
      "fuels": {
        "gazole": 1.55
      }
    },
    {
      "id": "16240",
      "cp": "43895",
      "ville": "Ampolla (l')",
      "adresse": "Carretera Carretera Nacional 340 km. 1094",
      "brand": "Multigrupo",
      "lat": 40.790361,
      "lng": 0.672667,
      "fuels": {
        "gplc": 0.939
      }
    },
    {
      "id": "3365",
      "cp": "43895",
      "ville": "Ampolla (l')",
      "adresse": "Carretera N-340 km. 0",
      "brand": "Galp",
      "lat": 40.837611,
      "lng": 0.7115,
      "fuels": {
        "gazole": 1.664,
        "sp95": 1.559,
        "sp98": 1.669
      }
    },
    {
      "id": "3332",
      "cp": "43895",
      "ville": "Ampolla (l')",
      "adresse": "Carretera N-340 km. 1093,5",
      "brand": "Petrocat Directe",
      "lat": 40.787444,
      "lng": 0.671,
      "fuels": {
        "gazole": 1.525,
        "sp95": 1.405
      }
    },
    {
      "id": "11923",
      "cp": "43895",
      "ville": "Ampolla (l')",
      "adresse": "Carretera Tv-3401 km. 1,210",
      "brand": "Avia",
      "lat": 40.795333,
      "lng": 0.694833,
      "fuels": {
        "gazole": 1.639,
        "sp95": 1.519,
        "sp98": 1.659
      }
    },
    {
      "id": "13094",
      "cp": "43870",
      "ville": "Amposta",
      "adresse": "Avenida De La rapita, 226",
      "brand": "Bonarea",
      "lat": 40.698861,
      "lng": 0.579111,
      "fuels": {
        "gazole": 1.49,
        "sp95": 1.368
      }
    },
    {
      "id": "3285",
      "cp": "43870",
      "ville": "Amposta",
      "adresse": "Calle Bajada grau, 1",
      "brand": "Quality Montsià",
      "lat": 40.716889,
      "lng": 0.574722,
      "fuels": {
        "gazole": 1.443,
        "sp95": 1.482
      }
    },
    {
      "id": "15506",
      "cp": "43870",
      "ville": "Amposta",
      "adresse": "Calle loira, 38",
      "brand": "Tronova Energia",
      "lat": 40.685083,
      "lng": 0.582056,
      "fuels": {
        "gazole": 1.389,
        "sp95": 1.331
      }
    },
    {
      "id": "15360",
      "cp": "43870",
      "ville": "Amposta",
      "adresse": "Calle orleans, 2",
      "brand": "Gasamp",
      "lat": 40.70225,
      "lng": 0.558583,
      "fuels": {
        "gazole": 1.52,
        "sp95": 1.399
      }
    },
    {
      "id": "15974",
      "cp": "43870",
      "ville": "Amposta",
      "adresse": "Calle rin, 59",
      "brand": "Gm Oil",
      "lat": 40.691722,
      "lng": 0.581722,
      "fuels": {
        "gazole": 1.389,
        "sp95": 1.359
      }
    },
    {
      "id": "3357",
      "cp": "43870",
      "ville": "Amposta",
      "adresse": "Carretera N-340 km. 1078,5",
      "brand": "Cepsa",
      "lat": 40.681222,
      "lng": 0.582972,
      "fuels": {
        "gazole": 1.704,
        "sp95": 1.654
      }
    },
    {
      "id": "9014",
      "cp": "43870",
      "ville": "Amposta",
      "adresse": "Carretera Tv-3408 km. 0,8",
      "brand": "Carburants Tosses",
      "lat": 40.703389,
      "lng": 0.587722,
      "fuels": {
        "gazole": 1.49
      }
    },
    {
      "id": "3283",
      "cp": "43870",
      "ville": "Amposta",
      "adresse": "Cl Avenida De La rapita, 141",
      "brand": "Repsol",
      "lat": 40.705944,
      "lng": 0.579861,
      "fuels": {
        "gazole": 1.709,
        "sp95": 1.665,
        "sp98": 1.785
      }
    },
    {
      "id": "3235",
      "cp": "43870",
      "ville": "Amposta",
      "adresse": "Cr Tv-3405, 0,5",
      "brand": "Repsol",
      "lat": 40.706139,
      "lng": 0.591778,
      "fuels": {
        "gazole": 1.709,
        "sp95": 1.665,
        "sp98": 1.785,
        "gplc": 1.099
      }
    },
    {
      "id": "9114",
      "cp": "43870",
      "ville": "Amposta",
      "adresse": "Partida oriola, 54",
      "brand": "-",
      "lat": 40.683361,
      "lng": 0.577806,
      "fuels": {
        "gazole": 1.43
      }
    },
    {
      "id": "10974",
      "cp": "43720",
      "ville": "Arboç (l')",
      "adresse": "Autopista ap7 km. 208",
      "brand": "Repsol",
      "lat": 41.288972,
      "lng": 1.593528,
      "fuels": {
        "gazole": 1.735,
        "sp95": 1.669,
        "sp98": 1.789,
        "gplc": 1.075
      }
    },
    {
      "id": "15544",
      "cp": "43720",
      "ville": "Arboç (l')",
      "adresse": "Calle motors, 1",
      "brand": "Cecatrans Transport & logistics, s.l",
      "lat": 41.279861,
      "lng": 1.623111,
      "fuels": {
        "gazole": 1.446
      }
    },
    {
      "id": "3350",
      "cp": "43720",
      "ville": "Arboç (l')",
      "adresse": "Carretera N-340 km. 1201,8",
      "brand": "Moeve",
      "lat": 41.285889,
      "lng": 1.618583,
      "fuels": {
        "gazole": 1.729,
        "sp95": 1.659
      }
    },
    {
      "id": "3373",
      "cp": "43720",
      "ville": "Arboç (l')",
      "adresse": "Carretera Tp-2124 km. 1,6",
      "brand": "Tamoil",
      "lat": 41.275472,
      "lng": 1.592806,
      "fuels": {
        "gazole": 1.629,
        "sp95": 1.599,
        "sp98": 1.669
      }
    },
    {
      "id": "3255",
      "cp": "43719",
      "ville": "Bellvei",
      "adresse": "Cr N-340, 1194,3",
      "brand": "Repsol",
      "lat": 41.235389,
      "lng": 1.56575,
      "fuels": {
        "gazole": 1.739,
        "sp95": 1.675,
        "sp98": 1.795,
        "gplc": 1.105
      }
    },
    {
      "id": "3370",
      "cp": "43512",
      "ville": "Benifallet",
      "adresse": "Carretera ctra. C-12 L'eix De L'ebre km. 36,7",
      "brand": "Tamoil",
      "lat": 40.959333,
      "lng": 0.498556,
      "fuels": {
        "gazole": 1.599,
        "sp95": 1.499,
        "sp98": 1.599
      }
    },
    {
      "id": "3303",
      "cp": "43717",
      "ville": "Bisbal Del Penedes (la)",
      "adresse": "Carretera De Vendrell A Valls km. 69300",
      "brand": "Shell",
      "lat": 41.262361,
      "lng": 1.494167,
      "fuels": {
        "gazole": 1.689,
        "sp95": 1.639
      }
    },
    {
      "id": "3244",
      "cp": "43717",
      "ville": "Bisbal Del Penedes (la)",
      "adresse": "Cr T-240, 3,5",
      "brand": "Repsol",
      "lat": 41.279028,
      "lng": 1.496139,
      "fuels": {
        "gazole": 1.739,
        "sp95": 1.685,
        "sp98": 1.805
      }
    },
    {
      "id": "3349",
      "cp": "43820",
      "ville": "Calafell",
      "adresse": "Calle Priorat  En  residencial, 16",
      "brand": "Moeve",
      "lat": 41.19525,
      "lng": 1.569861,
      "fuels": {
        "gazole": 1.734,
        "sp95": 1.654
      }
    },
    {
      "id": "3238",
      "cp": "43820",
      "ville": "Calafell",
      "adresse": "Carretera C-246 km. 56",
      "brand": "Repsol",
      "lat": 41.191778,
      "lng": 1.596111,
      "fuels": {
        "gazole": 1.745,
        "sp95": 1.669,
        "sp98": 1.789
      }
    },
    {
      "id": "9750",
      "cp": "43894",
      "ville": "Camarles",
      "adresse": "Carretera Lligallo A Camarles km. 1",
      "brand": "Arrossaires",
      "lat": 40.768167,
      "lng": 0.663861,
      "fuels": {
        "gazole": 1.489
      }
    },
    {
      "id": "3384",
      "cp": "43894",
      "ville": "Camarles",
      "adresse": "N-340 Km 1089,800",
      "brand": "Repsol",
      "lat": 40.762278,
      "lng": 0.64125,
      "fuels": {
        "gazole": 1.699,
        "sp95": 1.679,
        "sp98": 1.819
      }
    },
    {
      "id": "3240",
      "cp": "43850",
      "ville": "Cambrils",
      "adresse": "Autovia A 7 km. 1148",
      "brand": "Repsol",
      "lat": 41.090167,
      "lng": 1.094639,
      "fuels": {
        "gazole": 1.719,
        "sp95": 1.679,
        "sp98": 1.799
      }
    },
    {
      "id": "3300",
      "cp": "43850",
      "ville": "Cambrils",
      "adresse": "Avenida diputacio, S/N",
      "brand": "Bp",
      "lat": 41.072833,
      "lng": 1.108111,
      "fuels": {
        "gazole": 1.699,
        "sp95": 1.675,
        "sp98": 1.805
      }
    },
    {
      "id": "14893",
      "cp": "43850",
      "ville": "Cambrils",
      "adresse": "Calle fusteries, S/N",
      "brand": "Bonarea",
      "lat": 41.0785,
      "lng": 1.039583,
      "fuels": {
        "gazole": 1.487,
        "sp95": 1.364
      }
    },
    {
      "id": "12075",
      "cp": "43850",
      "ville": "Cambrils",
      "adresse": "Carretera Montbrio T-3120 km. 2",
      "brand": "Area Cambrils Cooperativa",
      "lat": 41.085917,
      "lng": 1.03725,
      "fuels": {
        "gazole": 1.829,
        "sp95": 1.785,
        "sp98": 1.859,
        "gplc": 0.941
      }
    },
    {
      "id": "11389",
      "cp": "43850",
      "ville": "Cambrils",
      "adresse": "Carretera Nacional 340 km. 232,500",
      "brand": "Shell",
      "lat": 41.07575,
      "lng": 1.059333,
      "fuels": {
        "gazole": 1.599,
        "sp95": 1.599,
        "sp98": 1.739
      }
    },
    {
      "id": "8529",
      "cp": "43850",
      "ville": "Cambrils",
      "adresse": "Carretera Nacional 340 km. 299,300",
      "brand": "Shell",
      "lat": 41.062944,
      "lng": 1.02225,
      "fuels": {
        "gazole": 1.559,
        "sp95": 1.539,
        "sp98": 1.679
      }
    },
    {
      "id": "14009",
      "cp": "43006",
      "ville": "Campsa",
      "adresse": "Carretera Antigua De Valencia 8 km. 8",
      "brand": "Gm Oil",
      "lat": 41.115472,
      "lng": 1.229361,
      "fuels": {
        "gazole": 1.489,
        "sp95": 1.419
      }
    },
    {
      "id": "15801",
      "cp": "43110",
      "ville": "Canonja (la)",
      "adresse": "Carrer Vila seca, 14",
      "brand": "Icor Energia",
      "lat": 41.116306,
      "lng": 1.182056,
      "fuels": {
        "gazole": 1.579,
        "sp95": 1.529,
        "gplc": 0.956
      }
    },
    {
      "id": "8532",
      "cp": "43110",
      "ville": "Canonja (la)",
      "adresse": "Carretera Nacional 340 km. 1156",
      "brand": "Shell",
      "lat": 41.114611,
      "lng": 1.181417,
      "fuels": {
        "gazole": 1.499,
        "sp95": 1.469,
        "sp98": 1.669
      }
    },
    {
      "id": "3386",
      "cp": "43764",
      "ville": "Catllar (el)",
      "adresse": "Carretera Pt-2039 km. 0,900",
      "brand": "Petrolis De Barcelona s.a",
      "lat": 41.17025,
      "lng": 1.318528,
      "fuels": {
        "gazole": 1.599,
        "sp95": 1.599,
        "sp98": 1.699
      }
    },
    {
      "id": "11622",
      "cp": "43764",
      "ville": "Catllar (el)",
      "adresse": "Carretera Tp-2031 km. 4,8",
      "brand": "Cepsa",
      "lat": 41.158611,
      "lng": 1.271667,
      "fuels": {
        "gazole": 1.689,
        "sp95": 1.639,
        "sp98": 1.689
      }
    },
    {
      "id": "11251",
      "cp": "43120",
      "ville": "Constanti",
      "adresse": "Calle alemania, 9",
      "brand": "Tradilo Inversiones",
      "lat": 41.159306,
      "lng": 1.170111,
      "fuels": {
        "gazole": 1.502,
        "sp95": 1.513
      }
    },
    {
      "id": "3306",
      "cp": "43120",
      "ville": "Constanti",
      "adresse": "Carretera Tv-7211 km. 9",
      "brand": "Cepsa",
      "lat": 41.148194,
      "lng": 1.214861,
      "fuels": {
        "gazole": 1.704,
        "sp95": 1.654
      }
    },
    {
      "id": "11672",
      "cp": "43120",
      "ville": "Constanti",
      "adresse": "Poligono Constanti - avd.europa, 5",
      "brand": "Alas",
      "lat": 41.161917,
      "lng": 1.160694,
      "fuels": {
        "gazole": 1.519,
        "sp95": 1.409
      }
    },
    {
      "id": "3239",
      "cp": "43360",
      "ville": "Cornudella De Montsant",
      "adresse": "Calle Compte De rius, S/N",
      "brand": "Repsol",
      "lat": 41.263889,
      "lng": 0.904917,
      "fuels": {
        "gazole": 1.689,
        "sp95": 1.679
      }
    },
    {
      "id": "3262",
      "cp": "43881",
      "ville": "Cunit",
      "adresse": "Carretera C-246 km. 53,7",
      "brand": "Repsol",
      "lat": 41.197417,
      "lng": 1.624417,
      "fuels": {
        "gazole": 1.755,
        "sp95": 1.679,
        "sp98": 1.789,
        "gplc": 1.105
      }
    },
    {
      "id": "3274",
      "cp": "43580",
      "ville": "Deltebre",
      "adresse": "Avenida generalitat, 44",
      "brand": "Repsol",
      "lat": 40.718556,
      "lng": 0.725333,
      "fuels": {
        "gazole": 1.725,
        "sp95": 1.669,
        "sp98": 1.839
      }
    },
    {
      "id": "12142",
      "cp": "43580",
      "ville": "Deltebre",
      "adresse": "Avenida generalitat, S/N",
      "brand": "Esclatoil",
      "lat": 40.720222,
      "lng": 0.725472,
      "fuels": {
        "gazole": 1.549,
        "sp95": 1.449
      }
    },
    {
      "id": "13955",
      "cp": "43580",
      "ville": "Deltebre",
      "adresse": "Avenida Goles De l'ebre, 7",
      "brand": "Bonarea",
      "lat": 40.7235,
      "lng": 0.724972,
      "fuels": {
        "gazole": 1.49,
        "sp95": 1.367
      }
    },
    {
      "id": "3250",
      "cp": "43580",
      "ville": "Deltebre",
      "adresse": "Calle Sant Juan bosco, 44",
      "brand": "Repsol",
      "lat": 40.715556,
      "lng": 0.745222,
      "fuels": {
        "gazole": 1.725,
        "sp95": 1.669,
        "sp98": 1.839
      }
    },
    {
      "id": "9761",
      "cp": "43580",
      "ville": "Deltebre",
      "adresse": "Carretera Camarles A Deltebre km. 6,5",
      "brand": "Arrossaires",
      "lat": 40.734639,
      "lng": 0.705167,
      "fuels": {
        "gazole": 1.489
      }
    },
    {
      "id": "11601",
      "cp": "43580",
      "ville": "Deltebre",
      "adresse": "Carretera Del Faro De Buda T-340 km. 8",
      "brand": "Arrossaires",
      "lat": 40.725806,
      "lng": 0.722667,
      "fuels": {
        "gazole": 1.489,
        "sp95": 1.365
      }
    },
    {
      "id": "10689",
      "cp": "43440",
      "ville": "Espluga De Francoli (l')",
      "adresse": "Poligono Les eres, 7",
      "brand": "Bonarea",
      "lat": 41.403167,
      "lng": 1.104611,
      "fuels": {
        "gazole": 1.491,
        "sp95": 1.368
      }
    },
    {
      "id": "3313",
      "cp": "43730",
      "ville": "Falset",
      "adresse": "Carretera N-420 km. 841",
      "brand": "Repsol",
      "lat": 41.143472,
      "lng": 0.816222,
      "fuels": {
        "gazole": 1.695,
        "sp95": 1.699,
        "sp98": 1.819
      }
    },
    {
      "id": "3287",
      "cp": "43781",
      "ville": "Fatarella (la)",
      "adresse": "Carretera N-420 km. 455,5",
      "brand": "Petronor",
      "lat": 41.109722,
      "lng": 0.535528,
      "fuels": {
        "gazole": 1.695,
        "sp95": 1.645
      }
    },
    {
      "id": "3324",
      "cp": "43750",
      "ville": "Flix",
      "adresse": "Carrera C-12, 101",
      "brand": "Repsol",
      "lat": 41.22175,
      "lng": 0.547722,
      "fuels": {
        "gazole": 1.695,
        "sp95": 1.645,
        "sp98": 1.815
      }
    },
    {
      "id": "11355",
      "cp": "43750",
      "ville": "Flix",
      "adresse": "Carretera C-12 Encreuament C-233 km. 1",
      "brand": "Bonarea",
      "lat": 41.221639,
      "lng": 0.547639,
      "fuels": {
        "gazole": 1.49,
        "sp95": 1.368
      }
    },
    {
      "id": "3298",
      "cp": "43780",
      "ville": "Gandesa",
      "adresse": "Avenida aragon, 7",
      "brand": "Repsol",
      "lat": 41.053694,
      "lng": 0.43625,
      "fuels": {
        "gazole": 1.699,
        "sp95": 1.649,
        "sp98": 1.769
      }
    },
    {
      "id": "3237",
      "cp": "43596",
      "ville": "Horta De Sant Joan",
      "adresse": "Carretera Carretera Ta-330 km. 16,5",
      "brand": "Repsol",
      "lat": 40.934639,
      "lng": 0.309417,
      "fuels": {
        "gazole": 1.695,
        "sp95": 1.649
      }
    },
    {
      "id": "3389",
      "cp": "43890",
      "ville": "Hospitalet De L'infant",
      "adresse": "Autopista Ap-7 (mrg.dcho.) km. 283",
      "brand": "Eni",
      "lat": 40.985694,
      "lng": 0.893722,
      "fuels": {
        "gazole": 1.759,
        "sp95": 1.719,
        "sp98": 1.849,
        "gplc": 1.149
      }
    },
    {
      "id": "3388",
      "cp": "43890",
      "ville": "Hospitalet De L'infant",
      "adresse": "Autopista Ap-7 (mrg.izdo.) km. 283",
      "brand": "Eni",
      "lat": 40.985472,
      "lng": 0.897139,
      "fuels": {
        "gazole": 1.759,
        "sp95": 1.719,
        "sp98": 1.849,
        "gplc": 1.149
      }
    },
    {
      "id": "15083",
      "cp": "43891",
      "ville": "Hospitalet De L'infant",
      "adresse": "Carrer De Joan oró, 2",
      "brand": "Alas Central",
      "lat": 41.00725,
      "lng": 0.910639,
      "fuels": {
        "gazole": 1.519,
        "sp95": 1.409,
        "gplc": 0.935
      }
    },
    {
      "id": "3320",
      "cp": "43890",
      "ville": "Hospitalet De L'infant",
      "adresse": "Carretera nº 340 km. 1121,8",
      "brand": "Repsol",
      "lat": 40.949722,
      "lng": 0.855917,
      "fuels": {
        "gazole": 1.715,
        "sp95": 1.679,
        "sp98": 1.799
      }
    },
    {
      "id": "10027",
      "cp": "43890",
      "ville": "Hospitalet De L'infant",
      "adresse": "cr. Cn-340 Km 1121,8",
      "brand": "Alas",
      "lat": 40.94925,
      "lng": 0.856972,
      "fuels": {
        "gazole": 1.529,
        "sp95": 1.419
      }
    },
    {
      "id": "12831",
      "cp": "43890",
      "ville": "Hospitalet De L'infant",
      "adresse": "Poligono Les Tapies ii, S/N",
      "brand": "Bonarea",
      "lat": 41.007028,
      "lng": 0.911,
      "fuels": {
        "gazole": 1.488,
        "sp95": 1.366
      }
    },
    {
      "id": "3372",
      "cp": "43540",
      "ville": "La Rápita",
      "adresse": "Carretera N-340 km. 1071",
      "brand": "Galp",
      "lat": 40.62575,
      "lng": 0.57925,
      "fuels": {
        "gazole": 1.624,
        "sp95": 1.599,
        "sp98": 1.739
      }
    },
    {
      "id": "3270",
      "cp": "43540",
      "ville": "La Rápita",
      "adresse": "Cl Dels fundadors, 104",
      "brand": "Repsol",
      "lat": 40.621806,
      "lng": 0.592694,
      "fuels": {
        "gazole": 1.725,
        "sp95": 1.655,
        "sp98": 1.775
      }
    },
    {
      "id": "3371",
      "cp": "43540",
      "ville": "La Rápita",
      "adresse": "ctra. N-340 Km 1071,000",
      "brand": "Galp",
      "lat": 40.625528,
      "lng": 0.578556,
      "fuels": {
        "gazole": 1.629,
        "sp95": 1.559
      }
    },
    {
      "id": "15040",
      "cp": "43540",
      "ville": "La Rápita",
      "adresse": "Poligono Industrial El rajolar, parcel·la, 25",
      "brand": "Petroràpita",
      "lat": 40.638333,
      "lng": 0.595361,
      "fuels": {
        "gazole": 1.609,
        "sp95": 1.539
      }
    },
    {
      "id": "11047",
      "cp": "43712",
      "ville": "Llorenç Del Penedes",
      "adresse": "Calle afores, S/N",
      "brand": "La Botiga Del Sindicat",
      "lat": 41.283417,
      "lng": 1.553417,
      "fuels": {
        "gazole": 1.6
      }
    },
    {
      "id": "8164",
      "cp": "43880",
      "ville": "Masos De Coma-Ruga (els)",
      "adresse": "Carretera Nacional 340 km. 1187",
      "brand": "Gm Fuel Stations",
      "lat": 41.18625,
      "lng": 1.513472,
      "fuels": {
        "gazole": 1.589,
        "sp95": 1.589,
        "sp98": 1.639
      }
    },
    {
      "id": "3335",
      "cp": "43892",
      "ville": "Miami Playa",
      "adresse": "Cr N-340, 1132",
      "brand": "Repsol",
      "lat": 41.007083,
      "lng": 0.936222,
      "fuels": {
        "gazole": 1.735,
        "sp95": 1.689,
        "sp98": 1.809
      }
    },
    {
      "id": "3308",
      "cp": "43300",
      "ville": "Mont-Roig Del Camp",
      "adresse": "avda.de Reus Esquina C/.klaus fischer, 2 (a.reus esq.c/.klaus fischer,2)",
      "brand": "Qoil",
      "lat": 41.091528,
      "lng": 0.965278,
      "fuels": {
        "gazole": 1.549,
        "sp95": 1.449,
        "sp98": 1.549
      }
    },
    {
      "id": "3304",
      "cp": "43300",
      "ville": "Mont-Roig Del Camp",
      "adresse": "Carretera N-340 km. 1139",
      "brand": "Galp",
      "lat": 41.049333,
      "lng": 0.999778,
      "fuels": {
        "gazole": 1.739,
        "sp95": 1.689,
        "sp98": 1.809
      }
    },
    {
      "id": "3376",
      "cp": "43400",
      "ville": "Montblanc",
      "adresse": "Autopista Ap-2 (mrg.dcho.) km. 196",
      "brand": "Cepsa",
      "lat": 41.387222,
      "lng": 1.191306,
      "fuels": {
        "gazole": 1.744,
        "sp95": 1.684
      }
    },
    {
      "id": "3377",
      "cp": "43400",
      "ville": "Montblanc",
      "adresse": "Autopista Ap-2 (mrg.izdo.) km. 196",
      "brand": "Cepsa",
      "lat": 41.388056,
      "lng": 1.187806,
      "fuels": {
        "gazole": 1.744,
        "sp95": 1.684,
        "sp98": 1.844
      }
    },
    {
      "id": "3317",
      "cp": "43400",
      "ville": "Montblanc",
      "adresse": "Avenida Muralla Santa tecla, 10",
      "brand": "Repsol",
      "lat": 41.374361,
      "lng": 1.164611,
      "fuels": {
        "gazole": 1.725,
        "sp95": 1.699,
        "sp98": 1.819
      }
    },
    {
      "id": "9096",
      "cp": "43400",
      "ville": "Montblanc",
      "adresse": "La Guardia Dels Prats (c-14 Km 38.3)",
      "brand": "Energetics Conca s.l.",
      "lat": 41.394417,
      "lng": 1.1705,
      "fuels": {
        "gazole": 1.598
      }
    },
    {
      "id": "10716",
      "cp": "43400",
      "ville": "Montblanc",
      "adresse": "N-240 Km 38,8",
      "brand": "petro7 - Petrolis Independents",
      "lat": 41.39225,
      "lng": 1.142861,
      "fuels": {
        "gazole": 1.499,
        "sp95": 1.399,
        "sp98": 1.599,
        "gplc": 1.074
      }
    },
    {
      "id": "11876",
      "cp": "43400",
      "ville": "Montblanc",
      "adresse": "Poligono Plans De jori, Ctra lleida, 4",
      "brand": "Bonarea",
      "lat": 41.386861,
      "lng": 1.156972,
      "fuels": {
        "gazole": 1.488,
        "sp95": 1.366
      }
    },
    {
      "id": "10864",
      "cp": "43340",
      "ville": "Montbrio Del Camp",
      "adresse": "Carretera T-310 km. 8,6",
      "brand": "Repsol",
      "lat": 41.127417,
      "lng": 1.015528,
      "fuels": {
        "gazole": 1.715,
        "sp95": 1.685,
        "sp98": 1.805
      }
    },
    {
      "id": "11266",
      "cp": "43740",
      "ville": "Mora D'ebre",
      "adresse": "Poligono Camins nous, 1",
      "brand": "Bonarea",
      "lat": 41.084972,
      "lng": 0.625278,
      "fuels": {
        "gazole": 1.49,
        "sp95": 1.367
      }
    },
    {
      "id": "3257",
      "cp": "43770",
      "ville": "Mora La Nova",
      "adresse": "Carretera C 12 km. 60,900",
      "brand": "Repsol",
      "lat": 41.0795,
      "lng": 0.661917,
      "fuels": {
        "gazole": 1.699,
        "sp95": 1.649,
        "sp98": 1.819
      }
    },
    {
      "id": "3326",
      "cp": "43770",
      "ville": "Mora La Nova",
      "adresse": "Carretera ctra. N-420 km. 467,100",
      "brand": "Repsol",
      "lat": 41.093722,
      "lng": 0.647917,
      "fuels": {
        "gazole": 1.705,
        "sp95": 1.655,
        "sp98": 1.775
      }
    },
    {
      "id": "11944",
      "cp": "43770",
      "ville": "Mora La Nova",
      "adresse": "Poligono aubals, 3",
      "brand": "Esclatoil",
      "lat": 41.106167,
      "lng": 0.646472,
      "fuels": {
        "gazole": 1.539,
        "sp95": 1.449
      }
    },
    {
      "id": "3252",
      "cp": "43760",
      "ville": "Morell (el)",
      "adresse": "Avenida De La pau, ",
      "brand": "Petronor",
      "lat": 41.192972,
      "lng": 1.20175,
      "fuels": {
        "gazole": 1.725,
        "sp95": 1.685
      }
    },
    {
      "id": "3251",
      "cp": "43152",
      "ville": "Perafort",
      "adresse": "Carretera N-240, km:6,05 Perafort - Tarragona km. ",
      "brand": "Francas Energy",
      "lat": 41.173583,
      "lng": 1.238722,
      "fuels": {
        "gazole": 1.579,
        "sp95": 1.489
      }
    },
    {
      "id": "3325",
      "cp": "43152",
      "ville": "Perafort",
      "adresse": "Carretera Tarragona Lerida km. 8",
      "brand": "Repsol",
      "lat": 41.189361,
      "lng": 1.242806,
      "fuels": {
        "gazole": 1.709,
        "sp95": 1.669,
        "sp98": 1.839
      }
    },
    {
      "id": "10023",
      "cp": "43519",
      "ville": "Perello (el)",
      "adresse": "Poligono Pla De solans, S/N",
      "brand": "Alas",
      "lat": 40.878139,
      "lng": 0.716278,
      "fuels": {
        "gazole": 1.579,
        "sp95": 1.439
      }
    },
    {
      "id": "3276",
      "cp": "43810",
      "ville": "Pla De Santa Maria (el)",
      "adresse": "Carretera C-37 Valls Igualada km. 9,850",
      "brand": "Repsol",
      "lat": 41.361694,
      "lng": 1.299389,
      "fuels": {
        "gazole": 1.705,
        "sp95": 1.685
      }
    },
    {
      "id": "3246",
      "cp": "43140",
      "ville": "Pobla De Mafumet (la)",
      "adresse": "Carretera C-750 km. 1,9",
      "brand": "Repsol",
      "lat": 41.186194,
      "lng": 1.219806,
      "fuels": {
        "gazole": 1.719,
        "sp95": 1.679,
        "sp98": 1.849
      }
    },
    {
      "id": "3259",
      "cp": "43364",
      "ville": "Prades",
      "adresse": "Carretera T-700 km. 21,9",
      "brand": "Petronor",
      "lat": 41.313083,
      "lng": 0.986667,
      "fuels": {
        "gazole": 1.689,
        "sp95": 1.679,
        "sp98": 1.798
      }
    },
    {
      "id": "3236",
      "cp": "43513",
      "ville": "Rasquera",
      "adresse": "Carretera 230 km. 50",
      "brand": "Repsol",
      "lat": 41.012444,
      "lng": 0.611083,
      "fuels": {
        "gazole": 1.609,
        "sp95": 1.595,
        "sp98": 1.715
      }
    },
    {
      "id": "12203",
      "cp": "43520",
      "ville": "Raval De Cristo",
      "adresse": "Poligono Industrial La ravaleta, 10",
      "brand": "Montepio",
      "lat": 40.810028,
      "lng": 0.5085,
      "fuels": {
        "gazole": 1.529,
        "sp95": 1.499,
        "sp98": 1.705
      }
    },
    {
      "id": "2002",
      "cp": "43206",
      "ville": "Reus",
      "adresse": "apel·les Mestres 44-46",
      "brand": "Entreauto",
      "lat": 41.162944,
      "lng": 1.071278,
      "fuels": {
        "gazole": 1.559,
        "sp95": 1.489,
        "sp98": 1.589
      }
    },
    {
      "id": "3338",
      "cp": "43205",
      "ville": "Reus",
      "adresse": "Avenida s.bernat calbo, 26/28",
      "brand": "Repsol",
      "lat": 41.144556,
      "lng": 1.103556,
      "fuels": {
        "gazole": 1.709,
        "sp95": 1.675,
        "sp98": 1.795,
        "gplc": 1.075
      }
    },
    {
      "id": "3263",
      "cp": "43205",
      "ville": "Reus",
      "adresse": "Avenida Sant Bernat calbo, 16",
      "brand": "Alas",
      "lat": 41.145222,
      "lng": 1.108222,
      "fuels": {
        "gazole": 1.519,
        "sp95": 1.409,
        "sp98": 1.559
      }
    },
    {
      "id": "12860",
      "cp": "43204",
      "ville": "Reus",
      "adresse": "Calle argentina, 13",
      "brand": "Esclatoil",
      "lat": 41.145639,
      "lng": 1.132889,
      "fuels": {
        "gazole": 1.549,
        "sp95": 1.469
      }
    },
    {
      "id": "3292",
      "cp": "43205",
      "ville": "Reus",
      "adresse": "Calle Avenida s.bernardo calvo, S/N",
      "brand": "Repsol",
      "lat": 41.144444,
      "lng": 1.103333,
      "fuels": {
        "gazole": 1.719,
        "sp95": 1.675,
        "sp98": 1.795
      }
    },
    {
      "id": "13698",
      "cp": "43204",
      "ville": "Reus",
      "adresse": "Calle belgica, 9,11",
      "brand": "Gmoil",
      "lat": 41.14225,
      "lng": 1.135111,
      "fuels": {
        "gazole": 1.489,
        "sp95": 1.419
      }
    },
    {
      "id": "3330",
      "cp": "43205",
      "ville": "Reus",
      "adresse": "Calle Carretera De salou, 111",
      "brand": "Bp ",
      "lat": 41.141833,
      "lng": 1.115556,
      "fuels": {
        "gazole": 1.729,
        "sp95": 1.669,
        "sp98": 1.779
      }
    },
    {
      "id": "14220",
      "cp": "43201",
      "ville": "Reus",
      "adresse": "Calle Eivissa (d'), 1",
      "brand": "Petrolowcost",
      "lat": 41.160389,
      "lng": 1.122722,
      "fuels": {
        "gazole": 1.489,
        "sp95": 1.499
      }
    },
    {
      "id": "12116",
      "cp": "43205",
      "ville": "Reus",
      "adresse": "Calle Pare manyanet, S/N",
      "brand": "Alcampo",
      "lat": 41.145583,
      "lng": 1.098806,
      "fuels": {
        "gazole": 1.499,
        "sp95": 1.379
      }
    },
    {
      "id": "11250",
      "cp": "43203",
      "ville": "Reus",
      "adresse": "Calle Pintor fuster, 3",
      "brand": "Vilalta",
      "lat": 41.144333,
      "lng": 1.107444,
      "fuels": {
        "gazole": 1.509
      }
    },
    {
      "id": "3061",
      "cp": "43206",
      "ville": "Reus",
      "adresse": "Calle Recasens I mercade, 79",
      "brand": "Galp",
      "lat": 41.152222,
      "lng": 1.083917,
      "fuels": {
        "gazole": 1.689,
        "sp95": 1.629,
        "sp98": 1.739
      }
    },
    {
      "id": "3294",
      "cp": "43204",
      "ville": "Reus",
      "adresse": "Carrer tarragona, Cami de, 55",
      "brand": "Lorry Petrol",
      "lat": 41.152306,
      "lng": 1.114583,
      "fuels": {
        "gazole": 1.572,
        "sp95": 1.538,
        "sp98": 1.668
      }
    },
    {
      "id": "3248",
      "cp": "43206",
      "ville": "Reus",
      "adresse": "Carretera C-14 Direccio Montblanc km. 10,96",
      "brand": "Repsol",
      "lat": 41.180278,
      "lng": 1.133111,
      "fuels": {
        "gazole": 1.729,
        "sp95": 1.629,
        "sp98": 1.759
      }
    },
    {
      "id": "3249",
      "cp": "43206",
      "ville": "Reus",
      "adresse": "Carretera C-14 Direccio Reus km. 11,24",
      "brand": "Repsol",
      "lat": 41.18275,
      "lng": 1.133722,
      "fuels": {
        "gazole": 1.699,
        "sp95": 1.679
      }
    },
    {
      "id": "2026",
      "cp": "43206",
      "ville": "Reus",
      "adresse": "Carretera C-3141 km. 5",
      "brand": "Repsol",
      "lat": 41.121972,
      "lng": 1.095056,
      "fuels": {
        "gazole": 1.709,
        "sp95": 1.675,
        "sp98": 1.815
      }
    },
    {
      "id": "12683",
      "cp": "43206",
      "ville": "Reus",
      "adresse": "Carretera Riudoms km. 2,2",
      "brand": "Bonarea",
      "lat": 41.145528,
      "lng": 1.085083,
      "fuels": {
        "gazole": 1.487,
        "sp95": 1.364
      }
    },
    {
      "id": "3336",
      "cp": "43205",
      "ville": "Reus",
      "adresse": "Cl avda. Maria fortuny, 57",
      "brand": "Repsol",
      "lat": 41.158528,
      "lng": 1.117167,
      "fuels": {
        "gazole": 1.719,
        "sp95": 1.685,
        "sp98": 1.805
      }
    },
    {
      "id": "3310",
      "cp": "43205",
      "ville": "Reus",
      "adresse": "Cl dr.vilaseca-Paises catalans, 26",
      "brand": "Repsol",
      "lat": 41.156639,
      "lng": 1.096917,
      "fuels": {
        "gazole": 1.709,
        "sp95": 1.675,
        "sp98": 1.795
      }
    },
    {
      "id": "3315",
      "cp": "43206",
      "ville": "Reus",
      "adresse": "Cl montblanc, 139",
      "brand": "Repsol",
      "lat": 41.161139,
      "lng": 1.117194,
      "fuels": {
        "gazole": 1.719,
        "sp95": 1.685,
        "sp98": 1.805
      }
    },
    {
      "id": "3265",
      "cp": "43204",
      "ville": "Reus",
      "adresse": "Cr N-420, 876,8",
      "brand": "Repsol",
      "lat": 41.149806,
      "lng": 1.125083,
      "fuels": {
        "gazole": 1.699,
        "sp95": 1.679,
        "sp98": 1.809
      }
    },
    {
      "id": "3272",
      "cp": "43330",
      "ville": "Riudoms",
      "adresse": "Carretera 510,1 km. 510,1",
      "brand": "Repsol",
      "lat": 41.165361,
      "lng": 1.030028,
      "fuels": {
        "gazole": 1.705,
        "sp95": 1.669,
        "sp98": 1.789
      }
    },
    {
      "id": "8530",
      "cp": "43330",
      "ville": "Riudoms",
      "adresse": "Carretera T-310 Reus-Pratdip km. 4",
      "brand": "Shell",
      "lat": 41.137639,
      "lng": 1.061222,
      "fuels": {
        "gazole": 1.599,
        "sp95": 1.599
      }
    },
    {
      "id": "11771",
      "cp": "43883",
      "ville": "Roda De Bara",
      "adresse": "Carrer Hispano suiza, 1",
      "brand": "Esclatoil",
      "lat": 41.176806,
      "lng": 1.474917,
      "fuels": {
        "gazole": 1.589,
        "sp95": 1.509
      }
    },
    {
      "id": "11696",
      "cp": "43883",
      "ville": "Roda De Bara",
      "adresse": "Carretera N-340 km. 1183,8",
      "brand": "Repsol",
      "lat": 41.178222,
      "lng": 1.48925,
      "fuels": {
        "gazole": 1.735,
        "sp95": 1.695,
        "sp98": 1.815
      }
    },
    {
      "id": "11080",
      "cp": "43883",
      "ville": "Roda De Bara",
      "adresse": "Carretera Tv-2041 km. 0,300",
      "brand": "Petrocat",
      "lat": 41.170389,
      "lng": 1.457806,
      "fuels": {
        "gazole": 1.695,
        "sp95": 1.679,
        "sp98": 1.799
      }
    },
    {
      "id": "3260",
      "cp": "43883",
      "ville": "Roda De Bara",
      "adresse": "Cl vallespir, 118",
      "brand": "Repsol",
      "lat": 41.177944,
      "lng": 1.490806,
      "fuels": {
        "gazole": 1.735,
        "sp95": 1.705
      }
    },
    {
      "id": "14874",
      "cp": "43529",
      "ville": "Roquetes",
      "adresse": "Poligono La ravaleta, parcela, 1",
      "brand": "galp&go",
      "lat": 40.810472,
      "lng": 0.509417,
      "fuels": {
        "gazole": 1.459,
        "sp95": 1.459
      }
    },
    {
      "id": "11249",
      "cp": "43840",
      "ville": "Salou",
      "adresse": "Autovia Salou-Reus km. 1300",
      "brand": "Shell",
      "lat": 41.087306,
      "lng": 1.134778,
      "fuels": {
        "gazole": 1.599,
        "sp95": 1.619,
        "sp98": 1.759
      }
    },
    {
      "id": "12919",
      "cp": "43840",
      "ville": "Salou",
      "adresse": "Calle Victoria Dels angels, 2",
      "brand": "Esclatoil",
      "lat": 41.086,
      "lng": 1.123944,
      "fuels": {
        "gazole": 1.539,
        "sp95": 1.449
      }
    },
    {
      "id": "3337",
      "cp": "43840",
      "ville": "Salou",
      "adresse": "Cr Ap-1, 7,8",
      "brand": "Repsol",
      "lat": 41.077806,
      "lng": 1.150028,
      "fuels": {
        "gazole": 1.725,
        "sp95": 1.675,
        "sp98": 1.795,
        "gplc": 1.075
      }
    },
    {
      "id": "3355",
      "cp": "43877",
      "ville": "Sant Jaume D'enveja",
      "adresse": "Avinguda catalunya, 288",
      "brand": "Cepsa",
      "lat": 40.700972,
      "lng": 0.716667,
      "fuels": {
        "gazole": 1.689,
        "sp95": 1.639
      }
    },
    {
      "id": "8165",
      "cp": "43877",
      "ville": "Sant Jaume D'enveja",
      "adresse": "Carretera Diputacion km. 2,45",
      "brand": "Carburants Tosses ",
      "lat": 40.690806,
      "lng": 0.721694,
      "fuels": {
        "gazole": 1.49
      }
    },
    {
      "id": "3293",
      "cp": "43713",
      "ville": "Sant Jaume Dels Domenys",
      "adresse": "Au Ap-7   oeste, 208",
      "brand": "Repsol",
      "lat": 41.289444,
      "lng": 1.589944,
      "fuels": {
        "gazole": 1.735,
        "sp95": 1.669,
        "sp98": 1.789,
        "gplc": 1.075
      }
    },
    {
      "id": "3280",
      "cp": "43007",
      "ville": "Sant Pere I Sant Pau",
      "adresse": "Bloque San jordi, S/N",
      "brand": "Bp",
      "lat": 41.134694,
      "lng": 1.253667,
      "fuels": {
        "gazole": 1.769,
        "sp95": 1.669,
        "sp98": 1.759
      }
    },
    {
      "id": "16461",
      "cp": "43130",
      "ville": "Sant Salvador",
      "adresse": "Carretera N-240 km. 3,7",
      "brand": "Repsol",
      "lat": 41.151917,
      "lng": 1.240056,
      "fuels": {
        "gazole": 1.715,
        "sp95": 1.675,
        "sp98": 1.835
      }
    },
    {
      "id": "9224",
      "cp": "43570",
      "ville": "Santa Barbara",
      "adresse": "Paseo escoles, 71",
      "brand": "Agricola Del Camp Santa Barbara",
      "lat": 40.718528,
      "lng": 0.501944,
      "fuels": {
        "gazole": 1.534,
        "sp95": 1.48
      }
    },
    {
      "id": "1614",
      "cp": "43420",
      "ville": "Santa Coloma De Queralt",
      "adresse": "Carretera C-241 km. S/N",
      "brand": "Coperal",
      "lat": 41.538639,
      "lng": 1.393167,
      "fuels": {
        "gazole": 1.419,
        "sp95": 1.395
      }
    },
    {
      "id": "2029",
      "cp": "43420",
      "ville": "Santa Coloma De Queralt",
      "adresse": "Carretera Igualada km. S/N",
      "brand": "Coperal",
      "lat": 41.536694,
      "lng": 1.387667,
      "fuels": {
        "gazole": 1.415,
        "sp95": 1.401
      }
    },
    {
      "id": "3347",
      "cp": "43710",
      "ville": "Santa Oliva",
      "adresse": "Calle Alt Penedes-ur.moli serra, S/N",
      "brand": "Moeve",
      "lat": 41.236278,
      "lng": 1.544361,
      "fuels": {
        "gazole": 1.725,
        "sp95": 1.669,
        "e10": 1.729
      }
    },
    {
      "id": "9246",
      "cp": "43392",
      "ville": "Sarral",
      "adresse": "Avinguda De La conca, 33",
      "brand": "Vinicola De sarral, Sccl",
      "lat": 41.446667,
      "lng": 1.245528,
      "fuels": {
        "gazole": 1.587,
        "sp95": 1.497
      }
    },
    {
      "id": "8313",
      "cp": "43820",
      "ville": "Segur De Calafell",
      "adresse": "Carretera C-246 \"mas mel\" Sector 6 km. 4",
      "brand": "Shell",
      "lat": 41.191694,
      "lng": 1.594361,
      "fuels": {
        "gazole": 1.694,
        "sp95": 1.644,
        "sp98": 1.784
      }
    },
    {
      "id": "3341",
      "cp": "43470",
      "ville": "Selva Del Camp (la)",
      "adresse": "Carretera Salou Pons km. 15,8",
      "brand": "Cepsa",
      "lat": 41.203556,
      "lng": 1.145528,
      "fuels": {
        "gazole": 1.749,
        "sp95": 1.689
      }
    },
    {
      "id": "3327",
      "cp": "43560",
      "ville": "Senia (la)",
      "adresse": "Calle tarragona, 33",
      "brand": "Petronor",
      "lat": 40.634667,
      "lng": 0.284361,
      "fuels": {
        "gazole": 1.705,
        "sp95": 1.649,
        "sp98": 1.799
      }
    },
    {
      "id": "3328",
      "cp": "43412",
      "ville": "Solivella",
      "adresse": "Travessera Carretera De artesa, 4",
      "brand": "Repsol",
      "lat": 41.457917,
      "lng": 1.178556,
      "fuels": {
        "gazole": 1.639,
        "sp95": 1.649,
        "sp98": 1.789
      }
    },
    {
      "id": "8564",
      "cp": "43006",
      "ville": "Tarragona",
      "adresse": "Autovia A-1 Tarragona-Salou km. 3",
      "brand": "Shell",
      "lat": 41.105417,
      "lng": 1.197528,
      "fuels": {
        "gazole": 1.519,
        "sp95": 1.499,
        "sp98": 1.699
      }
    },
    {
      "id": "8536",
      "cp": "43007",
      "ville": "Tarragona",
      "adresse": "Autovia Ap-01 km. 0,450",
      "brand": "Tamoil",
      "lat": 41.114,
      "lng": 1.217083,
      "fuels": {
        "gazole": 1.539,
        "sp95": 1.499,
        "sp98": 1.599
      }
    },
    {
      "id": "3058",
      "cp": "43080",
      "ville": "Tarragona",
      "adresse": "Autovia De Reus km. 4",
      "brand": "Carrefour",
      "lat": 41.128472,
      "lng": 1.203806,
      "fuels": {
        "gazole": 1.679,
        "sp95": 1.599,
        "sp98": 1.659
      }
    },
    {
      "id": "13105",
      "cp": "43006",
      "ville": "Tarragona",
      "adresse": "Calle B-pp9, 2",
      "brand": "Benzoil",
      "lat": 41.130583,
      "lng": 1.206556,
      "fuels": {
        "gazole": 1.699,
        "sp95": 1.609
      }
    },
    {
      "id": "13842",
      "cp": "43006",
      "ville": "Tarragona",
      "adresse": "Calle Coure (del), 7",
      "brand": "Confort Auto",
      "lat": 41.138972,
      "lng": 1.218667,
      "fuels": {
        "gazole": 1.529,
        "sp95": 1.518
      }
    },
    {
      "id": "13190",
      "cp": "43006",
      "ville": "Tarragona",
      "adresse": "Calle Coure Del  En  torreforta, 9",
      "brand": "Exoil",
      "lat": 41.140583,
      "lng": 1.226167,
      "fuels": {
        "gazole": 1.558,
        "sp95": 1.459
      }
    },
    {
      "id": "13075",
      "cp": "43006",
      "ville": "Tarragona",
      "adresse": "Calle Ctra Vella De valencia, 5",
      "brand": "Bp Tarragona City",
      "lat": 41.115944,
      "lng": 1.233139,
      "fuels": {
        "gazole": 1.729,
        "sp95": 1.679,
        "sp98": 1.819
      }
    },
    {
      "id": "14721",
      "cp": "43006",
      "ville": "Tarragona",
      "adresse": "Calle Eix Transversal S/n, S/N",
      "brand": "Oil Prix",
      "lat": 41.108528,
      "lng": 1.22825,
      "fuels": {
        "gazole": 1.741,
        "sp95": 1.465,
        "gplc": 0.781
      }
    },
    {
      "id": "3291",
      "cp": "43006",
      "ville": "Tarragona",
      "adresse": "Calle francoli, 75",
      "brand": "Ballenoil",
      "lat": 41.120139,
      "lng": 1.220028,
      "fuels": {
        "gazole": 1.569,
        "sp95": 1.469
      }
    },
    {
      "id": "13382",
      "cp": "43006",
      "ville": "Tarragona",
      "adresse": "Calle mercuri, 15,17",
      "brand": "Exoil",
      "lat": 41.141167,
      "lng": 1.227028,
      "fuels": {
        "gplc": 0.957
      }
    },
    {
      "id": "3340",
      "cp": "43004",
      "ville": "Tarragona",
      "adresse": "Calle Muelle castilla, S/N",
      "brand": "Vilalta",
      "lat": 41.106639,
      "lng": 1.233222,
      "fuels": {
        "gazole": 1.609,
        "sp95": 1.549
      }
    },
    {
      "id": "8531",
      "cp": "43005",
      "ville": "Tarragona",
      "adresse": "Calle Torres Jordi (de), 1",
      "brand": "Repsol",
      "lat": 41.112694,
      "lng": 1.238611,
      "fuels": {
        "gazole": 1.699,
        "sp95": 1.659,
        "sp98": 1.779
      }
    },
    {
      "id": "3296",
      "cp": "43006",
      "ville": "Tarragona",
      "adresse": "Carrer Del coure, 2",
      "brand": "Repsol",
      "lat": 41.141194,
      "lng": 1.230639,
      "fuels": {
        "gazole": 1.739,
        "sp95": 1.709,
        "sp98": 1.819
      }
    },
    {
      "id": "3360",
      "cp": "43007",
      "ville": "Tarragona",
      "adresse": "Carretera N-340 km. 1168",
      "brand": "Moeve",
      "lat": 41.131694,
      "lng": 1.306778,
      "fuels": {
        "gazole": 1.729,
        "sp95": 1.679
      }
    },
    {
      "id": "3318",
      "cp": "43007",
      "ville": "Tarragona",
      "adresse": "Carretera N-340 Valencia - Barceloma km. 1167",
      "brand": "Repsol",
      "lat": 41.128778,
      "lng": 1.296972,
      "fuels": {
        "gazole": 1.739,
        "sp95": 1.679,
        "sp98": 1.799
      }
    },
    {
      "id": "3361",
      "cp": "43006",
      "ville": "Tarragona",
      "adresse": "Carretera N-420 km. 867",
      "brand": "Cepsa",
      "lat": 41.124361,
      "lng": 1.212444,
      "fuels": {
        "gazole": 1.744,
        "sp95": 1.654,
        "sp98": 1.814
      }
    },
    {
      "id": "3362",
      "cp": "43006",
      "ville": "Tarragona",
      "adresse": "Carretera N-420 km. 867",
      "brand": "Cepsa",
      "lat": 41.124639,
      "lng": 1.214028,
      "fuels": {
        "gazole": 1.744,
        "sp95": 1.654,
        "sp98": 1.814
      }
    },
    {
      "id": "3268",
      "cp": "43006",
      "ville": "Tarragona",
      "adresse": "Cr N-340, 1159.5",
      "brand": "Repsol",
      "lat": 41.115417,
      "lng": 1.222472,
      "fuels": {
        "gazole": 1.719,
        "sp95": 1.669,
        "sp98": 1.789,
        "gplc": 1.075
      }
    },
    {
      "id": "3319",
      "cp": "43006",
      "ville": "Tarragona",
      "adresse": "Cr N-340, 1160",
      "brand": "Repsol",
      "lat": 41.117389,
      "lng": 1.228278,
      "fuels": {
        "gazole": 1.719,
        "sp95": 1.669,
        "sp98": 1.789
      }
    },
    {
      "id": "3334",
      "cp": "43007",
      "ville": "Tarragona",
      "adresse": "Cr N-340, 1165",
      "brand": "Repsol",
      "lat": 41.122944,
      "lng": 1.280833,
      "fuels": {
        "gazole": 1.739,
        "sp95": 1.689
      }
    },
    {
      "id": "10755",
      "cp": "43006",
      "ville": "Tarragona",
      "adresse": "pol. Industrial Riu-clar, C/ Sofre nº 3",
      "brand": "Bionet",
      "lat": 41.1385,
      "lng": 1.221797,
      "fuels": {
        "gazole": 1.499,
        "sp95": 1.509,
        "sp98": 1.78
      }
    },
    {
      "id": "3264",
      "cp": "43006",
      "ville": "Tarragona",
      "adresse": "Poligono ind. francoli, Parcela 1, 1",
      "brand": "Repsol",
      "lat": 41.113944,
      "lng": 1.222444,
      "fuels": {
        "gazole": 1.719,
        "sp95": 1.669
      }
    },
    {
      "id": "14170",
      "cp": "43006",
      "ville": "Tarragona",
      "adresse": "Poligono Industrial francoli, 4",
      "brand": "Bonarea",
      "lat": 41.113833,
      "lng": 1.225806,
      "fuels": {
        "gazole": 1.486,
        "sp95": 1.363
      }
    },
    {
      "id": "3242",
      "cp": "43746",
      "ville": "Tivissa",
      "adresse": "Carretera C-44 km. 20,200",
      "brand": "Repsol",
      "lat": 41.047806,
      "lng": 0.729667,
      "fuels": {
        "gazole": 1.699,
        "sp95": 1.649,
        "sp98": 1.819
      }
    },
    {
      "id": "13815",
      "cp": "43830",
      "ville": "Torredembarra",
      "adresse": "Calle Riera De Gaia (de la), 20",
      "brand": "Oilprix",
      "lat": 41.15025,
      "lng": 1.393306,
      "fuels": {
        "gazole": 1.643,
        "sp95": 1.549
      }
    },
    {
      "id": "3390",
      "cp": "43830",
      "ville": "Torredembarra",
      "adresse": "Carretera De La Riera km. 20",
      "brand": "Galp",
      "lat": 41.152056,
      "lng": 1.393444,
      "fuels": {
        "gazole": 1.689,
        "sp95": 1.669,
        "sp98": 1.829
      }
    },
    {
      "id": "3364",
      "cp": "43830",
      "ville": "Torredembarra",
      "adresse": "Carretera N-340 km. 1177,4",
      "brand": "Moeve",
      "lat": 41.147167,
      "lng": 1.412222,
      "fuels": {
        "gazole": 1.734,
        "sp95": 1.694
      }
    },
    {
      "id": "13035",
      "cp": "43500",
      "ville": "Tortosa",
      "adresse": "Avenida Generalitat (de la), 10",
      "brand": "Tamoil",
      "lat": 40.789222,
      "lng": 0.523333,
      "fuels": {
        "gazole": 1.539,
        "sp95": 1.469
      }
    },
    {
      "id": "3269",
      "cp": "43500",
      "ville": "Tortosa",
      "adresse": "Avenida generalitat, 152",
      "brand": "Petronor",
      "lat": 40.799972,
      "lng": 0.519972,
      "fuels": {
        "gazole": 1.725,
        "sp95": 1.645,
        "sp98": 1.765
      }
    },
    {
      "id": "3322",
      "cp": "43500",
      "ville": "Tortosa",
      "adresse": "Calle Ronda reus, 25/27",
      "brand": "Campsa",
      "lat": 40.808083,
      "lng": 0.522667,
      "fuels": {
        "gazole": 1.725,
        "sp95": 1.645,
        "sp98": 1.765
      }
    },
    {
      "id": "3227",
      "cp": "43500",
      "ville": "Tortosa",
      "adresse": "Carretera C-42 km. 5",
      "brand": "Petroenergy",
      "lat": 40.76475,
      "lng": 0.569917,
      "fuels": {
        "gazole": 1.489,
        "sp95": 1.459
      }
    },
    {
      "id": "3228",
      "cp": "43500",
      "ville": "Tortosa",
      "adresse": "Carretera C/230 km. 17400",
      "brand": "Moeve",
      "lat": 40.807972,
      "lng": 0.510194,
      "fuels": {
        "gazole": 1.725,
        "sp95": 1.725,
        "sp98": 1.765
      }
    },
    {
      "id": "3060",
      "cp": "43500",
      "ville": "Tortosa",
      "adresse": "Carretera Eix De L'ebre km. S/N",
      "brand": "Alcampo",
      "lat": 40.819417,
      "lng": 0.516,
      "fuels": {
        "gazole": 1.439,
        "sp95": 1.429,
        "sp98": 1.499
      }
    },
    {
      "id": "3059",
      "cp": "43500",
      "ville": "Tortosa",
      "adresse": "Carretera Tortosa A lžaldea km. 1",
      "brand": "Supeco",
      "lat": 40.795444,
      "lng": 0.521667,
      "fuels": {
        "gazole": 1.459,
        "sp95": 1.439,
        "sp98": 1.719
      }
    },
    {
      "id": "3312",
      "cp": "43500",
      "ville": "Tortosa",
      "adresse": "Cl pza. Corona De aragon, s.n.",
      "brand": "Repsol",
      "lat": 40.816361,
      "lng": 0.513444,
      "fuels": {
        "gazole": 1.725,
        "sp95": 1.725,
        "sp98": 1.765
      }
    },
    {
      "id": "3229",
      "cp": "43500",
      "ville": "Tortosa",
      "adresse": "Rambla Felip pedrell, 164",
      "brand": "Moeve",
      "lat": 40.819333,
      "lng": 0.523889,
      "fuels": {
        "gazole": 1.689,
        "sp95": 1.689
      }
    },
    {
      "id": "14375",
      "cp": "43550",
      "ville": "Ulldecona",
      "adresse": "Calle major, 212",
      "brand": "Esclatoil",
      "lat": 40.593139,
      "lng": 0.443417,
      "fuels": {
        "gazole": 1.549,
        "sp95": 1.449
      }
    },
    {
      "id": "3266",
      "cp": "43550",
      "ville": "Ulldecona",
      "adresse": "Carretera T 331 km. 17,50",
      "brand": "Petronor",
      "lat": 40.587778,
      "lng": 0.44275,
      "fuels": {
        "gazole": 1.695,
        "sp95": 1.645,
        "sp98": 1.815
      }
    },
    {
      "id": "9830",
      "cp": "43550",
      "ville": "Ulldecona",
      "adresse": "major,  183",
      "brand": "Campo",
      "lat": 40.592889,
      "lng": 0.443917,
      "fuels": {
        "gazole": 1.529,
        "sp95": 1.499
      }
    },
    {
      "id": "12267",
      "cp": "43800",
      "ville": "Valls",
      "adresse": "Calle blanquers, 51",
      "brand": "Cepsa",
      "lat": 41.311028,
      "lng": 1.260972,
      "fuels": {
        "gazole": 1.801,
        "sp95": 1.701,
        "sp98": 1.819
      }
    },
    {
      "id": "3267",
      "cp": "43800",
      "ville": "Valls",
      "adresse": "Calle ctra. De montblanc, 34",
      "brand": "Repsol",
      "lat": 41.2885,
      "lng": 1.249472,
      "fuels": {
        "gazole": 1.705,
        "sp95": 1.685,
        "sp98": 1.835
      }
    },
    {
      "id": "3241",
      "cp": "43800",
      "ville": "Valls",
      "adresse": "Calle ctra. De tarragona, 28",
      "brand": "Repsol",
      "lat": 41.278583,
      "lng": 1.246944,
      "fuels": {
        "gazole": 1.705,
        "sp95": 1.685,
        "sp98": 1.835
      }
    },
    {
      "id": "16432",
      "cp": "43800",
      "ville": "Valls",
      "adresse": "Carrer Del pla, 148",
      "brand": "Plenergy",
      "lat": 41.301361,
      "lng": 1.260778,
      "fuels": {
        "gazole": 1.487,
        "sp95": 1.365
      }
    },
    {
      "id": "3289",
      "cp": "43800",
      "ville": "Valls",
      "adresse": "Carretera C-246 Valls-Barcelona km. 0,850",
      "brand": "Repsol",
      "lat": 41.283111,
      "lng": 1.261111,
      "fuels": {
        "gazole": 1.705,
        "sp95": 1.685,
        "sp98": 1.835
      }
    },
    {
      "id": "3286",
      "cp": "43800",
      "ville": "Valls",
      "adresse": "Carretera C-37 Valls Igualada km. 2,5",
      "brand": "Repsol",
      "lat": 41.298361,
      "lng": 1.258472,
      "fuels": {
        "gazole": 1.705,
        "sp95": 1.685,
        "sp98": 1.835,
        "gplc": 1.079
      }
    },
    {
      "id": "3387",
      "cp": "43800",
      "ville": "Valls",
      "adresse": "Carretera C-724 km. 6,3",
      "brand": "Icor Energia",
      "lat": 41.274528,
      "lng": 1.236056,
      "fuels": {
        "gazole": 1.609,
        "sp95": 1.529,
        "sp98": 1.779
      }
    },
    {
      "id": "3055",
      "cp": "43800",
      "ville": "Valls",
      "adresse": "Hiper esclat. artesans,s/N pol.ind.valls",
      "brand": "Esclatoil",
      "lat": 41.313694,
      "lng": 1.268611,
      "fuels": {
        "gazole": 1.539,
        "sp95": 1.449
      }
    },
    {
      "id": "14260",
      "cp": "43800",
      "ville": "Valls",
      "adresse": "Poligono ind. De Valls/Carretera Del pla, 180",
      "brand": "Bonarea",
      "lat": 41.304306,
      "lng": 1.262639,
      "fuels": {
        "gazole": 1.487,
        "sp95": 1.365
      }
    },
    {
      "id": "14415",
      "cp": "43800",
      "ville": "Valls",
      "adresse": "Poligono pol. 17 Parcela 127-129 Enlace Autovía A-27 Con C-37, S/N",
      "brand": "Repsol",
      "lat": 41.271861,
      "lng": 1.229361,
      "fuels": {
        "gazole": 1.709,
        "sp95": 1.679,
        "sp98": 1.799
      }
    },
    {
      "id": "3261",
      "cp": "43891",
      "ville": "Vandellos",
      "adresse": "Acceso Norte A Vandellòs (c-233 Km 9,8)",
      "brand": "Alas",
      "lat": 41.020139,
      "lng": 0.82725,
      "fuels": {
        "gazole": 1.529,
        "sp95": 1.419
      }
    },
    {
      "id": "10865",
      "cp": "43891",
      "ville": "Vandellos",
      "adresse": "Cr N-340, 1128,2",
      "brand": "Repsol",
      "lat": 40.989056,
      "lng": 0.908194,
      "fuels": {
        "gazole": 1.735,
        "sp95": 1.689,
        "sp98": 1.809
      }
    },
    {
      "id": "3224",
      "cp": "43700",
      "ville": "Vendrell (el)",
      "adresse": "Avenida De La generalitat, 22",
      "brand": "q8",
      "lat": 41.187444,
      "lng": 1.520028,
      "fuels": {
        "gazole": 1.679,
        "sp95": 1.649,
        "sp98": 1.699
      }
    },
    {
      "id": "10666",
      "cp": "43880",
      "ville": "Vendrell (el)",
      "adresse": "Avenida Las matas, 12",
      "brand": "Petrocat",
      "lat": 41.225194,
      "lng": 1.544111,
      "fuels": {
        "gazole": 1.745,
        "sp95": 1.679,
        "sp98": 1.799
      }
    },
    {
      "id": "16121",
      "cp": "43700",
      "ville": "Vendrell (el)",
      "adresse": "Calle Antoni Deu font, 19",
      "brand": "Esclatoil",
      "lat": 41.211611,
      "lng": 1.529444,
      "fuels": {
        "gazole": 1.589,
        "sp95": 1.509
      }
    },
    {
      "id": "3226",
      "cp": "43700",
      "ville": "Vendrell (el)",
      "adresse": "Carretera Ctra Comarcal 246 km. ",
      "brand": "q8",
      "lat": 41.215389,
      "lng": 1.546472,
      "fuels": {
        "gazole": 1.679,
        "sp95": 1.649,
        "sp98": 1.699
      }
    },
    {
      "id": "3339",
      "cp": "43700",
      "ville": "Vendrell (el)",
      "adresse": "Cl Avda Jaume Carner esq.c/Del mar,",
      "brand": "Repsol",
      "lat": 41.219778,
      "lng": 1.536972,
      "fuels": {
        "gazole": 1.745,
        "sp95": 1.679,
        "sp98": 1.799
      }
    },
    {
      "id": "3295",
      "cp": "43700",
      "ville": "Vendrell (el)",
      "adresse": "Cr Vendrell A Valls Km  S/N",
      "brand": "Bp La Cometa",
      "lat": 41.224778,
      "lng": 1.534611,
      "fuels": {
        "gazole": 1.699,
        "sp95": 1.659,
        "sp98": 1.799
      }
    },
    {
      "id": "3378",
      "cp": "43814",
      "ville": "Vila-Rodona",
      "adresse": "Autopista Ap-2 (mrg.dcho.) km. 221,5",
      "brand": "Galp",
      "lat": 41.286361,
      "lng": 1.414278,
      "fuels": {
        "gazole": 1.699,
        "sp95": 1.679,
        "sp98": 1.809,
        "gplc": 1.029
      }
    },
    {
      "id": "3375",
      "cp": "43814",
      "ville": "Vila-Rodona",
      "adresse": "Autopista Ap-2 (mrg.izdo.) km. 221,5",
      "brand": "Galp",
      "lat": 41.287889,
      "lng": 1.411861,
      "fuels": {
        "gazole": 1.699,
        "sp95": 1.679,
        "sp98": 1.809,
        "gplc": 1.029
      }
    },
    {
      "id": "10985",
      "cp": "43814",
      "ville": "Vila-Rodona",
      "adresse": "Carretera Tp-2003 km. 0,110",
      "brand": "Copvilar",
      "lat": 41.306611,
      "lng": 1.354611,
      "fuels": {
        "gazole": 1.47,
        "sp95": 1.42
      }
    },
    {
      "id": "3329",
      "cp": "43814",
      "ville": "Vila-Rodona",
      "adresse": "Cr C-51, 26,5",
      "brand": "Campsa",
      "lat": 41.289778,
      "lng": 1.351222,
      "fuels": {
        "gazole": 1.709,
        "sp95": 1.689,
        "sp98": 1.859
      }
    },
    {
      "id": "11536",
      "cp": "43480",
      "ville": "Vila-Seca",
      "adresse": "Avenida Vila Del Comu De la, 8",
      "brand": "Repsol",
      "lat": 41.117361,
      "lng": 1.152361,
      "fuels": {
        "gazole": 1.719,
        "sp95": 1.679,
        "sp98": 1.799,
        "gplc": 1.075
      }
    },
    {
      "id": "13055",
      "cp": "43480",
      "ville": "Vila-Seca",
      "adresse": "Calle Franqueses (de les), 12",
      "brand": "Alas",
      "lat": 41.118722,
      "lng": 1.155722,
      "fuels": {
        "gazole": 1.519,
        "sp95": 1.409,
        "gplc": 0.935
      }
    },
    {
      "id": "15061",
      "cp": "43480",
      "ville": "Vila-Seca",
      "adresse": "Calle Josep carner, 2",
      "brand": "Seroil Energy",
      "lat": 41.105389,
      "lng": 1.150583,
      "fuels": {
        "gazole": 1.549,
        "sp95": 1.489
      }
    },
    {
      "id": "13363",
      "cp": "43480",
      "ville": "Vila-Seca",
      "adresse": "Carrer Josep carner, S/N",
      "brand": "Pandora E Energy",
      "lat": 41.107944,
      "lng": 1.152417,
      "fuels": {
        "gazole": 1.549,
        "sp95": 1.479
      }
    },
    {
      "id": "8534",
      "cp": "43480",
      "ville": "Vila-Seca",
      "adresse": "Carretera N-340a km. 1151",
      "brand": "Shell",
      "lat": 41.103389,
      "lng": 1.130611,
      "fuels": {
        "gazole": 1.699,
        "sp95": 1.675,
        "sp98": 1.805,
        "gplc": 0.905
      }
    },
    {
      "id": "8533",
      "cp": "43480",
      "ville": "Vila-Seca",
      "adresse": "Paseo Passeig Pau casals, S/N",
      "brand": "Shell",
      "lat": 41.085833,
      "lng": 1.182694,
      "fuels": {
        "gazole": 1.599,
        "sp95": 1.599,
        "sp98": 1.739
      }
    },
    {
      "id": "14847",
      "cp": "43782",
      "ville": "Vilalba Dels Arcs",
      "adresse": "Calle cervantes, 5",
      "brand": "Covilalba",
      "lat": 41.119333,
      "lng": 0.408194,
      "fuels": {
        "gazole": 1.69
      }
    },
    {
      "id": "3381",
      "cp": "43141",
      "ville": "Vilallonga Del Camp",
      "adresse": "Carretera T-722 km. 11,5",
      "brand": "Icor Energia",
      "lat": 41.205778,
      "lng": 1.207444,
      "fuels": {
        "gazole": 1.649,
        "sp95": 1.539,
        "sp98": 1.779
      }
    },
    {
      "id": "3245",
      "cp": "43792",
      "ville": "Vinebre",
      "adresse": "Cr C-12, 77,8",
      "brand": "Petronor",
      "lat": 41.180833,
      "lng": 0.593444,
      "fuels": {
        "gazole": 1.695,
        "sp95": 1.645,
        "sp98": 1.815
      }
    },
    {
      "id": "3057",
      "cp": "43391",
      "ville": "Vinyols I Els Arcs",
      "adresse": "Hiper esclat. ctra. N-340 Km 1.145",
      "brand": "Esclatoil",
      "lat": 41.079389,
      "lng": 1.062528,
      "fuels": {
        "gazole": 1.539,
        "sp95": 1.449
      }
    },
    {
      "id": "8535",
      "cp": "43391",
      "ville": "Vinyols I Els Arcs",
      "adresse": "Travesía Cr Nacional 340, 233",
      "brand": "Shell",
      "lat": 41.0775,
      "lng": 1.061028,
      "fuels": {
        "gazole": 1.599,
        "sp95": 1.599,
        "sp98": 1.739
      }
    },
    {
      "id": "3284",
      "cp": "43592",
      "ville": "Xerta",
      "adresse": "Carretera C-12 km. 11",
      "brand": "Repsol",
      "lat": 40.905389,
      "lng": 0.484917,
      "fuels": {
        "gazole": 1.715,
        "sp95": 1.645
      }
    }
  ]
}