{
  "code": "44",
  "name": "Teruel",
  "regionCode": "ARA",
  "regionName": "Aragón",
  "asOf": "2026-06-14T18:11:03.980Z",
  "source": "https://sedeaplicaciones.minetur.gob.es/ServiciosRESTCarburantes/PreciosCarburantes/EstacionesTerrestres/",
  "stationCount": 69,
  "fuels": {
    "gazole": {
      "count": 67,
      "mean": 1.5756,
      "median": 1.619,
      "min": 1.373,
      "max": 1.69
    },
    "sp95": {
      "count": 62,
      "mean": 1.4901,
      "median": 1.519,
      "min": 1.278,
      "max": 1.593
    },
    "sp98": {
      "count": 30,
      "mean": 1.6375,
      "median": 1.657,
      "min": 1.34,
      "max": 1.729
    },
    "gplc": {
      "count": 4,
      "mean": 1.1005,
      "median": 1.104,
      "min": 1.085,
      "max": 1.109
    }
  },
  "stations": [
    {
      "id": "1396",
      "cp": "44566",
      "ville": "Aguaviva",
      "adresse": "Avenida La fuente,, S/N",
      "brand": "e.s. Aguaviva",
      "lat": 40.824694,
      "lng": -0.201611,
      "fuels": {
        "gazole": 1.669,
        "sp95": 1.589
      }
    },
    {
      "id": "1422",
      "cp": "44540",
      "ville": "Albalate Del Arzobispo",
      "adresse": "Carretera A-224 km. 0,200",
      "brand": "Moeve",
      "lat": 41.128361,
      "lng": -0.510583,
      "fuels": {
        "gazole": 1.624,
        "sp95": 1.529,
        "sp98": 1.655
      }
    },
    {
      "id": "10002",
      "cp": "44100",
      "ville": "Albarracin",
      "adresse": "Carretera A-1512 km. 28,6",
      "brand": "Cepsa",
      "lat": 40.412889,
      "lng": -1.440583,
      "fuels": {
        "gazole": 1.639,
        "sp95": 1.529
      }
    },
    {
      "id": "1989",
      "cp": "44477",
      "ville": "Albentosa",
      "adresse": "N-234 Km 75,000",
      "brand": "Galp",
      "lat": 40.1115,
      "lng": -0.740056,
      "fuels": {
        "gazole": 1.639,
        "sp95": 1.489,
        "sp98": 1.579
      }
    },
    {
      "id": "1442",
      "cp": "44432",
      "ville": "Alcala De La Selva",
      "adresse": "Carretera A-228 km. 33,500",
      "brand": "Galp",
      "lat": 40.365861,
      "lng": -0.706083,
      "fuels": {
        "gazole": 1.609,
        "sp95": 1.499,
        "sp98": 1.609
      }
    },
    {
      "id": "1420",
      "cp": "44600",
      "ville": "Alcañiz",
      "adresse": "Avenida maestrazgo, 4",
      "brand": "Cepsa",
      "lat": 41.043972,
      "lng": -0.130056,
      "fuels": {
        "gazole": 1.682,
        "sp95": 1.593,
        "sp98": 1.693
      }
    },
    {
      "id": "1365",
      "cp": "44600",
      "ville": "Alcañiz",
      "adresse": "Avenida zaragoza, 100",
      "brand": "Repsol",
      "lat": 41.0525,
      "lng": -0.152722,
      "fuels": {
        "gazole": 1.645,
        "sp95": 1.535,
        "sp98": 1.645,
        "gplc": 1.109
      }
    },
    {
      "id": "15890",
      "cp": "44600",
      "ville": "Alcañiz",
      "adresse": "Avenida zaragoza, 75",
      "brand": "Bonarea",
      "lat": 41.052389,
      "lng": -0.148361,
      "fuels": {
        "gazole": 1.394,
        "sp95": 1.278,
        "sp98": 1.36
      }
    },
    {
      "id": "11413",
      "cp": "44600",
      "ville": "Alcañiz",
      "adresse": "Carretera Zaragoza km. 117",
      "brand": "Alcampo",
      "lat": 41.053639,
      "lng": -0.156528,
      "fuels": {
        "gazole": 1.41,
        "sp95": 1.29,
        "sp98": 1.34
      }
    },
    {
      "id": "14735",
      "cp": "44600",
      "ville": "Alcañiz",
      "adresse": "Poligono Las Horcas  Finca 4 1/A-9, 4",
      "brand": "Gba",
      "lat": 41.01775,
      "lng": -0.090472,
      "fuels": {
        "gazole": 1.469,
        "sp95": 1.419
      }
    },
    {
      "id": "1504",
      "cp": "44550",
      "ville": "Alcorisa",
      "adresse": "Cr N-211, 212,5",
      "brand": "Repsol",
      "lat": 40.894278,
      "lng": -0.377333,
      "fuels": {
        "gazole": 1.615,
        "sp95": 1.499,
        "sp98": 1.659
      }
    },
    {
      "id": "1249",
      "cp": "44160",
      "ville": "Alfambra",
      "adresse": "Nacional 420 Cordoba-Tarragona Km 605",
      "brand": "e.s De Alfambra",
      "lat": 40.529083,
      "lng": -1.025306,
      "fuels": {
        "gazole": 1.669,
        "sp95": 1.539,
        "sp98": 1.649
      }
    },
    {
      "id": "1525",
      "cp": "44150",
      "ville": "Aliaga",
      "adresse": "Cr Te-820 70,8",
      "brand": "Repsol",
      "lat": 40.680528,
      "lng": -0.696056,
      "fuels": {
        "gazole": 1.649,
        "sp95": 1.569
      }
    },
    {
      "id": "1509",
      "cp": "44500",
      "ville": "Andorra",
      "adresse": "Avenida albalate, 7",
      "brand": "Repsol",
      "lat": 40.982278,
      "lng": -0.447833,
      "fuels": {
        "gazole": 1.613,
        "sp95": 1.566,
        "sp98": 1.62
      }
    },
    {
      "id": "8303",
      "cp": "44500",
      "ville": "Andorra",
      "adresse": "Poligono pg. Industrial La Umbria 33, 33",
      "brand": "Galp",
      "lat": 40.973861,
      "lng": -0.436361,
      "fuels": {
        "gazole": 1.635,
        "sp95": 1.557,
        "sp98": 1.712
      }
    },
    {
      "id": "13564",
      "cp": "44357",
      "ville": "Bañon",
      "adresse": "Calle Poligono agroindustrial, Lotes b1-b9, 1",
      "brand": "Gasoleos Teruel",
      "lat": 40.833083,
      "lng": -1.196778,
      "fuels": {
        "gazole": 1.429
      }
    },
    {
      "id": "1507",
      "cp": "44610",
      "ville": "Calaceite",
      "adresse": "Carretera N-420 km. 418,50",
      "brand": "Repsol",
      "lat": 41.016083,
      "lng": 0.192972,
      "fuels": {
        "gazole": 1.579,
        "sp95": 1.559,
        "sp98": 1.699
      }
    },
    {
      "id": "12734",
      "cp": "44200",
      "ville": "Calamocha",
      "adresse": "Carretera N-234 km. 190",
      "brand": "Gasolinera Jiloca",
      "lat": 40.904778,
      "lng": -1.301194,
      "fuels": {
        "gazole": 1.529,
        "sp95": 1.419
      }
    },
    {
      "id": "1424",
      "cp": "44200",
      "ville": "Calamocha",
      "adresse": "Cl Avenida Estacion nueva, 2",
      "brand": "Repsol",
      "lat": 40.913361,
      "lng": -1.298306,
      "fuels": {
        "gazole": 1.649,
        "sp95": 1.535,
        "sp98": 1.645
      }
    },
    {
      "id": "9116",
      "cp": "44570",
      "ville": "Calanda",
      "adresse": "Alcolea-Tarragona S/N",
      "brand": "La Calandina",
      "lat": 40.944806,
      "lng": -0.230722,
      "fuels": {
        "gazole": 1.579,
        "sp95": 1.499
      }
    },
    {
      "id": "1389",
      "cp": "44570",
      "ville": "Calanda",
      "adresse": "Carretera N-211 km. 227,4",
      "brand": "Cepsa",
      "lat": 40.946639,
      "lng": -0.230444,
      "fuels": {
        "gazole": 1.639,
        "sp95": 1.559
      }
    },
    {
      "id": "11799",
      "cp": "44350",
      "ville": "Caminreal",
      "adresse": "Autovia A-23 km. 176",
      "brand": "Moeve",
      "lat": 40.837611,
      "lng": -1.305361,
      "fuels": {
        "gazole": 1.614,
        "sp95": 1.519
      }
    },
    {
      "id": "1532",
      "cp": "44140",
      "ville": "Cantavieja",
      "adresse": "Carretera Iglesuela km. S/N",
      "brand": "Petronor",
      "lat": 40.508333,
      "lng": -0.407417,
      "fuels": {
        "gazole": 1.645,
        "sp95": 1.539
      }
    },
    {
      "id": "13021",
      "cp": "44630",
      "ville": "Castelseras",
      "adresse": "Calle Mayor alta, 80",
      "brand": "Sanicoop",
      "lat": 40.977528,
      "lng": -0.143778,
      "fuels": {
        "gazole": 1.439,
        "sp95": 1.315
      }
    },
    {
      "id": "1368",
      "cp": "44370",
      "ville": "Cella",
      "adresse": "N-234 Km 141",
      "brand": "Moeve",
      "lat": 40.482583,
      "lng": -1.251333,
      "fuels": {
        "gazole": 1.634,
        "sp95": 1.549
      }
    },
    {
      "id": "12678",
      "cp": "44370",
      "ville": "Cella",
      "adresse": "Poligono campichuelo, S/N",
      "brand": "Gasoleos Teruel",
      "lat": 40.461528,
      "lng": -1.296778,
      "fuels": {
        "gazole": 1.429
      }
    },
    {
      "id": "14694",
      "cp": "44370",
      "ville": "Cella",
      "adresse": "Poligono Las hazas, 5",
      "brand": "Subigas",
      "lat": 40.45875,
      "lng": -1.245694,
      "fuels": {
        "gazole": 1.373,
        "sp95": 1.367
      }
    },
    {
      "id": "10906",
      "cp": "44370",
      "ville": "Cella",
      "adresse": "Variante De Gea",
      "brand": "Bp",
      "lat": 40.446806,
      "lng": -1.286278,
      "fuels": {
        "gazole": 1.669,
        "sp95": 1.549
      }
    },
    {
      "id": "9555",
      "cp": "44623",
      "ville": "Cretas",
      "adresse": "Carrera Carretera  comarcal, S/N",
      "brand": "coop.cretas",
      "lat": 40.931278,
      "lng": 0.214778,
      "fuels": {
        "sp95": 1.431
      }
    },
    {
      "id": "11986",
      "cp": "44490",
      "ville": "Ferreruela De Huerva",
      "adresse": "Autovia A-23 km. 202",
      "brand": "Repsol",
      "lat": 41.050833,
      "lng": -1.276389,
      "fuels": {
        "gazole": 1.639,
        "sp95": 1.519,
        "sp98": 1.629,
        "gplc": 1.109
      }
    },
    {
      "id": "9986",
      "cp": "44490",
      "ville": "Ferreruela De Huerva",
      "adresse": "Calle peiron, S/N",
      "brand": "Gasoleos Teruel",
      "lat": 41.060639,
      "lng": -1.235667,
      "fuels": {
        "gazole": 1.429
      }
    },
    {
      "id": "1358",
      "cp": "44530",
      "ville": "Hijar",
      "adresse": "Carretera hijar, N-232 km. Km 164,4",
      "brand": "q8",
      "lat": 41.170611,
      "lng": -0.442194,
      "fuels": {
        "gazole": 1.569,
        "sp95": 1.499,
        "sp98": 1.599
      }
    },
    {
      "id": "13506",
      "cp": "44420",
      "ville": "Manzanera",
      "adresse": "Carretera A-1514 km. 10,5",
      "brand": "Repsol",
      "lat": 40.063472,
      "lng": -0.825333,
      "fuels": {
        "gazole": 1.639,
        "sp95": 1.519
      }
    },
    {
      "id": "1455",
      "cp": "44564",
      "ville": "Mas De Las Matas",
      "adresse": "Calle Cl aguaviva, 9",
      "brand": "Campsa",
      "lat": 40.831472,
      "lng": -0.24025,
      "fuels": {
        "gazole": 1.605,
        "sp95": 1.499
      }
    },
    {
      "id": "11017",
      "cp": "44564",
      "ville": "Mas De Las Matas",
      "adresse": "Carretera De Calanda km. 6",
      "brand": "coop.san Antonio",
      "lat": 40.836194,
      "lng": -0.244611,
      "fuels": {
        "gazole": 1.629,
        "sp95": 1.529
      }
    },
    {
      "id": "1437",
      "cp": "44300",
      "ville": "Monreal Del Campo",
      "adresse": "Autovia Mudejar km. 165",
      "brand": "Repsol",
      "lat": 40.750583,
      "lng": -1.333361,
      "fuels": {
        "gazole": 1.659,
        "sp95": 1.589,
        "sp98": 1.689
      }
    },
    {
      "id": "1443",
      "cp": "44300",
      "ville": "Monreal Del Campo",
      "adresse": "Carrera nac.234, km.177,5, ",
      "brand": "Repsol",
      "lat": 40.78275,
      "lng": -1.346972,
      "fuels": {
        "gazole": 1.619,
        "sp95": 1.509,
        "sp98": 1.669
      }
    },
    {
      "id": "9887",
      "cp": "44300",
      "ville": "Monreal Del Campo",
      "adresse": "Eras Del Majuelo S/N",
      "brand": "Gasoleos Teruel",
      "lat": 40.778,
      "lng": -1.357,
      "fuels": {
        "gazole": 1.429,
        "sp95": 1.319
      }
    },
    {
      "id": "9852",
      "cp": "44300",
      "ville": "Monreal Del Campo",
      "adresse": "Poligono El Tollo parcela, 2/31",
      "brand": "Fycasa Logistica s.l.",
      "lat": 40.772944,
      "lng": -1.339556,
      "fuels": {
        "gazole": 1.479,
        "sp95": 1.419
      }
    },
    {
      "id": "1392",
      "cp": "44652",
      "ville": "Monroyo",
      "adresse": "Travesía n232a, ",
      "brand": "Repsol",
      "lat": 40.788111,
      "lng": -0.035556,
      "fuels": {
        "gazole": 1.619,
        "sp95": 1.569,
        "sp98": 1.629
      }
    },
    {
      "id": "1427",
      "cp": "44700",
      "ville": "Montalban",
      "adresse": "Carretera nac. 211, km. 165,6 km. ",
      "brand": "Repsol",
      "lat": 40.831417,
      "lng": -0.798167,
      "fuels": {
        "gazole": 1.639,
        "sp95": 1.549
      }
    },
    {
      "id": "10907",
      "cp": "44400",
      "ville": "Mora De Rubielos",
      "adresse": "av. Valencia",
      "brand": "Bp",
      "lat": 40.247722,
      "lng": -0.759833,
      "fuels": {
        "gazole": 1.669,
        "sp95": 1.559,
        "sp98": 1.729
      }
    },
    {
      "id": "1361",
      "cp": "44780",
      "ville": "Muniesa",
      "adresse": "Parcela La Variante S/N Km 64510",
      "brand": "Gasoleos Teruel",
      "lat": 41.028194,
      "lng": -0.806722,
      "fuels": {
        "gazole": 1.469,
        "sp95": 1.379
      }
    },
    {
      "id": "1395",
      "cp": "44366",
      "ville": "Orihuela Del Tremedal",
      "adresse": "Carretera Cr A Albarracin km. 13",
      "brand": "e.s.orihuela Del Tremedal",
      "lat": 40.547639,
      "lng": -1.651944,
      "fuels": {
        "gazole": 1.599,
        "sp95": 1.589
      }
    },
    {
      "id": "9637",
      "cp": "44586",
      "ville": "Peñarroya De Tastavins",
      "adresse": "Carretera A-2413 km. 1,825",
      "brand": " San Fabian Y San Sabastian",
      "lat": 40.758778,
      "lng": 0.042611,
      "fuels": {
        "gazole": 1.492
      }
    },
    {
      "id": "1436",
      "cp": "44163",
      "ville": "Perales Del Alfambra",
      "adresse": "N-420 Km 617.0",
      "brand": "Gasoleos Teruel",
      "lat": 40.627667,
      "lng": -1.000472,
      "fuels": {
        "gazole": 1.409,
        "sp95": 1.339
      }
    },
    {
      "id": "9408",
      "cp": "44589",
      "ville": "Portellada (la)",
      "adresse": "Partida olivarets, 0",
      "brand": "Seragas",
      "lat": 40.880194,
      "lng": 0.054083,
      "fuels": {
        "gazole": 1.56,
        "sp95": 1.5
      }
    },
    {
      "id": "1447",
      "cp": "44510",
      "ville": "Puebla De Hijar (la)",
      "adresse": "Carretera N-232    p.km. 170.2 km. ",
      "brand": "Repsol",
      "lat": 41.219833,
      "lng": -0.469806,
      "fuels": {
        "gazole": 1.629,
        "sp95": 1.559,
        "sp98": 1.689
      }
    },
    {
      "id": "11674",
      "cp": "44450",
      "ville": "Puebla De Valverde (la)",
      "adresse": "Autovia A-23 km. 100",
      "brand": "Moeve",
      "lat": 40.220056,
      "lng": -0.939889,
      "fuels": {
        "gazole": 1.614,
        "sp95": 1.519
      }
    },
    {
      "id": "1404",
      "cp": "44415",
      "ville": "Rubielos De Mora",
      "adresse": "Cr Te - 200, 16,4",
      "brand": "Repsol",
      "lat": 40.19075,
      "lng": -0.655917,
      "fuels": {
        "gazole": 1.609,
        "sp95": 1.499
      }
    },
    {
      "id": "14548",
      "cp": "44195",
      "ville": "San Blas",
      "adresse": "Calle pol.ind.la Paz Calle Genova Parcela 137, 137",
      "brand": "Super Cash Vimar",
      "lat": 40.362333,
      "lng": -1.152083,
      "fuels": {
        "gazole": 1.424,
        "sp95": 1.332
      }
    },
    {
      "id": "9714",
      "cp": "44195",
      "ville": "San Blas",
      "adresse": "Poligono Poligono Industrial La paz, 18",
      "brand": "Gasoleos Teruel",
      "lat": 40.363111,
      "lng": -1.146528,
      "fuels": {
        "gazole": 1.409,
        "sp95": 1.319
      }
    },
    {
      "id": "1510",
      "cp": "44360",
      "ville": "Santa Eulalia",
      "adresse": "Carretera Sagunto A Burgos km. 150",
      "brand": "Repsol",
      "lat": 40.564778,
      "lng": -1.2855,
      "fuels": {
        "gazole": 1.639,
        "sp95": 1.519,
        "sp98": 1.629
      }
    },
    {
      "id": "1405",
      "cp": "44460",
      "ville": "Sarrion",
      "adresse": "Carretera n. 234 km. 83",
      "brand": "Repsol",
      "lat": 40.149639,
      "lng": -0.823556,
      "fuels": {
        "gazole": 1.629,
        "sp95": 1.529,
        "sp98": 1.639,
        "gplc": 1.085
      }
    },
    {
      "id": "1419",
      "cp": "44002",
      "ville": "Teruel",
      "adresse": "Avenida sagunto, 5",
      "brand": "Repsol",
      "lat": 40.336611,
      "lng": -1.104944,
      "fuels": {
        "gazole": 1.635,
        "sp95": 1.525,
        "sp98": 1.685
      }
    },
    {
      "id": "1438",
      "cp": "44001",
      "ville": "Teruel",
      "adresse": "Avenida zaragoza, 22",
      "brand": "Moeve",
      "lat": 40.347889,
      "lng": -1.116611,
      "fuels": {
        "gazole": 1.629,
        "sp95": 1.519,
        "sp98": 1.689
      }
    },
    {
      "id": "1257",
      "cp": "44003",
      "ville": "Teruel",
      "adresse": "c.n 420 A Km 583,2",
      "brand": "Civera",
      "lat": 40.360472,
      "lng": -1.107917,
      "fuels": {
        "gazole": 1.589,
        "sp95": 1.489,
        "sp98": 1.679
      }
    },
    {
      "id": "1441",
      "cp": "44001",
      "ville": "Teruel",
      "adresse": "Calle Cuesta Del carrajete, 2",
      "brand": "Moeve",
      "lat": 40.337083,
      "lng": -1.101278,
      "fuels": {
        "gazole": 1.629,
        "sp95": 1.519
      }
    },
    {
      "id": "13047",
      "cp": "44003",
      "ville": "Teruel",
      "adresse": "Carretera San Julián km. 83",
      "brand": "Gasexpress",
      "lat": 40.338028,
      "lng": -1.101083,
      "fuels": {
        "gazole": 1.429,
        "sp95": 1.339
      }
    },
    {
      "id": "1391",
      "cp": "44002",
      "ville": "Teruel",
      "adresse": "Cl avda. De Sagunto-fuenfresca, s.n",
      "brand": "Repsol",
      "lat": 40.332611,
      "lng": -1.087472,
      "fuels": {
        "gazole": 1.639,
        "sp95": 1.509,
        "sp98": 1.669,
        "gplc": 1.099
      }
    },
    {
      "id": "1511",
      "cp": "44001",
      "ville": "Teruel",
      "adresse": "Cr N-234, 123,5",
      "brand": "Repsol",
      "lat": 40.356944,
      "lng": -1.135639,
      "fuels": {
        "gazole": 1.629,
        "sp95": 1.519,
        "sp98": 1.629
      }
    },
    {
      "id": "1512",
      "cp": "44001",
      "ville": "Teruel",
      "adresse": "Cr N-234, 123,5",
      "brand": "Repsol",
      "lat": 40.357556,
      "lng": -1.136722,
      "fuels": {
        "gazole": 1.629,
        "sp95": 1.519
      }
    },
    {
      "id": "9799",
      "cp": "44193",
      "ville": "Teruel",
      "adresse": "Poligono b, 27",
      "brand": "Agrimartin",
      "lat": 40.362556,
      "lng": -1.154917,
      "fuels": {
        "gazole": 1.45
      }
    },
    {
      "id": "1369",
      "cp": "44760",
      "ville": "Utrillas",
      "adresse": "Cr N-420 653,1",
      "brand": "Repsol",
      "lat": 40.802472,
      "lng": -0.837611,
      "fuels": {
        "gazole": 1.629,
        "sp95": 1.539,
        "sp98": 1.689
      }
    },
    {
      "id": "9204",
      "cp": "44594",
      "ville": "Valdealgorfa",
      "adresse": "Calle Beato Martinez Pascual S/nº",
      "brand": "Scoaval",
      "lat": 40.994617,
      "lng": -0.032652,
      "fuels": {
        "gazole": 1.69
      }
    },
    {
      "id": "1508",
      "cp": "44580",
      "ville": "Valderrobres",
      "adresse": "Avenida Cortes De aragon, 85",
      "brand": "Cepsa",
      "lat": 40.872528,
      "lng": 0.150917,
      "fuels": {
        "gazole": 1.639,
        "sp95": 1.539,
        "sp98": 1.659
      }
    },
    {
      "id": "14298",
      "cp": "44580",
      "ville": "Valderrobres",
      "adresse": "Carretera a2412 km. 23",
      "brand": "Gasoleos Sersuco",
      "lat": 40.865306,
      "lng": 0.163472,
      "fuels": {
        "sp95": 1.38
      }
    },
    {
      "id": "13375",
      "cp": "44394",
      "ville": "Villafranca Del Campo",
      "adresse": "Autovia A-23 km. 160",
      "brand": "Valcarce",
      "lat": 40.702417,
      "lng": -1.317556,
      "fuels": {
        "gazole": 1.649,
        "sp95": 1.509,
        "sp98": 1.659
      }
    },
    {
      "id": "9886",
      "cp": "44380",
      "ville": "Villarquemado",
      "adresse": "Calle larga, 2",
      "brand": "Gasoleos Teruel",
      "lat": 40.517833,
      "lng": -1.269278,
      "fuels": {
        "gazole": 1.429
      }
    }
  ]
}