{
  "code": "47",
  "name": "Valladolid",
  "regionCode": "CYL",
  "regionName": "Castilla y León",
  "asOf": "2026-07-14T07:19:29.494Z",
  "source": "https://sedeaplicaciones.minetur.gob.es/ServiciosRESTCarburantes/PreciosCarburantes/EstacionesTerrestres/",
  "stationCount": 152,
  "fuels": {
    "gazole": {
      "count": 151,
      "mean": 1.5784,
      "median": 1.609,
      "min": 1.339,
      "max": 1.679
    },
    "sp95": {
      "count": 146,
      "mean": 1.5675,
      "median": 1.619,
      "min": 1.299,
      "max": 1.689
    },
    "sp98": {
      "count": 71,
      "mean": 1.7931,
      "median": 1.815,
      "min": 1.299,
      "max": 1.859
    },
    "gplc": {
      "count": 17,
      "mean": 1.0507,
      "median": 1.05,
      "min": 1.019,
      "max": 1.074
    }
  },
  "stations": [
    {
      "id": "6279",
      "cp": "47510",
      "ville": "Alaejos",
      "adresse": "Carretera N 620 km. 181,700",
      "brand": "Valcarce",
      "lat": 41.303361,
      "lng": -5.215556,
      "fuels": {
        "gazole": 1.639,
        "sp95": 1.589
      }
    },
    {
      "id": "6180",
      "cp": "47238",
      "ville": "Alcazaren",
      "adresse": "Carretera N-601, pk. 159,40 km. ",
      "brand": "Moeve",
      "lat": 41.386556,
      "lng": -4.685056,
      "fuels": {
        "gazole": 1.625,
        "sp95": 1.619
      }
    },
    {
      "id": "6302",
      "cp": "47162",
      "ville": "Aldeamayor De San Martin",
      "adresse": "Autovia Carretera Sg 601 Km 13,75 km. 13,750",
      "brand": "Valcarce ",
      "lat": 41.541917,
      "lng": -4.658667,
      "fuels": {
        "gazole": 1.579,
        "sp95": 1.509
      }
    },
    {
      "id": "13436",
      "cp": "47162",
      "ville": "Aldeamayor De San Martin",
      "adresse": "Calle calvario, 18",
      "brand": "Maxpetrol",
      "lat": 41.511056,
      "lng": -4.636333,
      "fuels": {
        "gazole": 1.459,
        "sp95": 1.429,
        "gplc": 1.05
      }
    },
    {
      "id": "6339",
      "cp": "47160",
      "ville": "Arrabal De Portillo",
      "adresse": "Cr Cl-601, 22,7",
      "brand": "Repsol",
      "lat": 41.475833,
      "lng": -4.598167,
      "fuels": {
        "gazole": 1.645,
        "sp95": 1.635,
        "sp98": 1.805
      }
    },
    {
      "id": "15678",
      "cp": "47195",
      "ville": "Arroyo De La Encomienda",
      "adresse": "Avenida salamanca, 21",
      "brand": "Ballenoil",
      "lat": 41.623056,
      "lng": -4.769778,
      "fuels": {
        "gazole": 1.489,
        "sp95": 1.439
      }
    },
    {
      "id": "15578",
      "cp": "47195",
      "ville": "Arroyo De La Encomienda",
      "adresse": "Avenida salamanca, 25",
      "brand": "Moeve",
      "lat": 41.623833,
      "lng": -4.77075,
      "fuels": {
        "gazole": 1.667,
        "sp95": 1.645
      }
    },
    {
      "id": "15521",
      "cp": "47195",
      "ville": "Arroyo De La Encomienda",
      "adresse": "Calle Felipe ii, 2",
      "brand": "Gasexpress Valladolid 5",
      "lat": 41.618194,
      "lng": -4.786889,
      "fuels": {
        "gazole": 1.509,
        "sp95": 1.459
      }
    },
    {
      "id": "6357",
      "cp": "47210",
      "ville": "Ataquines",
      "adresse": "Autovia a6 km. 141",
      "brand": "Repsol",
      "lat": 41.182028,
      "lng": -4.807472,
      "fuels": {
        "gazole": 1.669,
        "sp95": 1.644,
        "sp98": 1.847,
        "gplc": 1.074
      }
    },
    {
      "id": "9918",
      "cp": "47210",
      "ville": "Ataquines",
      "adresse": "Carretera Fuente El Sol km. S/N",
      "brand": "San Agustin",
      "lat": 41.180444,
      "lng": -4.810444,
      "fuels": {
        "gazole": 1.562,
        "sp95": 1.54
      }
    },
    {
      "id": "6104",
      "cp": "47670",
      "ville": "Becilla De Valderaduey",
      "adresse": "Carretera Nacional 6o1 Adanero A Gijon km. 259,7",
      "brand": "Moeve",
      "lat": 42.091944,
      "lng": -5.206722,
      "fuels": {
        "gazole": 1.659,
        "sp95": 1.649,
        "sp98": 1.749
      }
    },
    {
      "id": "10379",
      "cp": "47670",
      "ville": "Becilla De Valderaduey",
      "adresse": "Ctra De  Rioseco , km258",
      "brand": "Agropal",
      "lat": 42.091944,
      "lng": -5.205583,
      "fuels": {
        "gazole": 1.477
      }
    },
    {
      "id": "4739",
      "cp": "47462",
      "ville": "Bobadilla Del Campo",
      "adresse": "Carretera L-801 Alaejos-Ataquines km. 22,800",
      "brand": "Avia",
      "lat": 41.206194,
      "lng": -5.019917,
      "fuels": {
        "gazole": 1.679,
        "sp95": 1.629
      }
    },
    {
      "id": "6107",
      "cp": "47151",
      "ville": "Boecillo",
      "adresse": "Carretera Madrid km. 177",
      "brand": "Moeve",
      "lat": 41.536222,
      "lng": -4.6995,
      "fuels": {
        "gazole": 1.667,
        "sp95": 1.645
      }
    },
    {
      "id": "6360",
      "cp": "47260",
      "ville": "Cabezon De Pisuerga",
      "adresse": "Carretera A-62 km. 112",
      "brand": "Repsol",
      "lat": 41.744056,
      "lng": -4.659833,
      "fuels": {
        "gazole": 1.629,
        "sp95": 1.649,
        "sp98": 1.819
      }
    },
    {
      "id": "10813",
      "cp": "47310",
      "ville": "Campaspero",
      "adresse": "Camino Las fuente, 1",
      "brand": "Cocope s.coop",
      "lat": 41.488861,
      "lng": -4.194361,
      "fuels": {
        "gazole": 1.459
      }
    },
    {
      "id": "12169",
      "cp": "47512",
      "ville": "Castrejon De Trabancos",
      "adresse": "Calle afueras, 1",
      "brand": "Servicocetra s.l.u.",
      "lat": 41.244694,
      "lng": -5.172111,
      "fuels": {
        "gazole": 1.434,
        "sp95": 1.448
      }
    },
    {
      "id": "15571",
      "cp": "47520",
      "ville": "Castronuño",
      "adresse": "Camino Carretera boveda, 19",
      "brand": "Es Castronuño",
      "lat": 41.387722,
      "lng": -5.269167,
      "fuels": {
        "gazole": 1.499,
        "sp95": 1.459
      }
    },
    {
      "id": "8891",
      "cp": "47270",
      "ville": "Cigales",
      "adresse": "ctra. Valladolid - Cigales , km. 1,7",
      "brand": "e.s. Real",
      "lat": 41.720667,
      "lng": -4.708889,
      "fuels": {
        "gazole": 1.479,
        "sp95": 1.489,
        "gplc": 1.05
      }
    },
    {
      "id": "6165",
      "cp": "47193",
      "ville": "Cisterniga",
      "adresse": "N-122 Km 353,8",
      "brand": "Cepsa",
      "lat": 41.598583,
      "lng": -4.656111,
      "fuels": {
        "gazole": 1.667,
        "sp95": 1.645
      }
    },
    {
      "id": "6210",
      "cp": "47313",
      "ville": "Cogeces Del Monte",
      "adresse": "Calle real, 81",
      "brand": "Cocope s.coop.",
      "lat": 41.511,
      "lng": -4.322861,
      "fuels": {
        "gazole": 1.459,
        "sp95": 1.499
      }
    },
    {
      "id": "6383",
      "cp": "47290",
      "ville": "Cubillas De Santa Marta",
      "adresse": "Autovia A-62 km. 102",
      "brand": "Repsol",
      "lat": 41.809667,
      "lng": -4.582806,
      "fuels": {
        "gazole": 1.645,
        "sp95": 1.629,
        "sp98": 1.809
      }
    },
    {
      "id": "6384",
      "cp": "47290",
      "ville": "Cubillas De Santa Marta",
      "adresse": "Autovia A-62 km. 102",
      "brand": "Repsol",
      "lat": 41.809722,
      "lng": -4.58375,
      "fuels": {
        "gazole": 1.645,
        "sp95": 1.629,
        "sp98": 1.809
      }
    },
    {
      "id": "9370",
      "cp": "47176",
      "ville": "Esguevillas De Esgueva",
      "adresse": "Valladolid-tortoles, km. 30",
      "brand": "An energeticos, s.l. - Esguevillas De Esgueva",
      "lat": 41.741194,
      "lng": -4.385306,
      "fuels": {
        "gazole": 1.519,
        "sp95": 1.485
      }
    },
    {
      "id": "6356",
      "cp": "47195",
      "ville": "flecha, La",
      "adresse": "Avenida salamanca, 34",
      "brand": "Repsol",
      "lat": 41.622861,
      "lng": -4.773583,
      "fuels": {
        "gazole": 1.639,
        "sp95": 1.669,
        "sp98": 1.839
      }
    },
    {
      "id": "15928",
      "cp": "47420",
      "ville": "Iscar",
      "adresse": "Calle San miguel, 47",
      "brand": "ion+",
      "lat": 41.358361,
      "lng": -4.542917,
      "fuels": {
        "gazole": 1.399,
        "sp95": 1.439
      }
    },
    {
      "id": "12055",
      "cp": "47420",
      "ville": "Iscar",
      "adresse": "Carretera Iscar-Cuellar km. 17,3",
      "brand": "Maxpetrol",
      "lat": 41.368278,
      "lng": -4.504417,
      "fuels": {
        "gazole": 1.459,
        "sp95": 1.429,
        "sp98": 1.529,
        "gplc": 1.05
      }
    },
    {
      "id": "6313",
      "cp": "47420",
      "ville": "Iscar",
      "adresse": "Cr C-112, 21",
      "brand": "Repsol",
      "lat": 41.359028,
      "lng": -4.539611,
      "fuels": {
        "gazole": 1.635,
        "sp95": 1.625,
        "sp98": 1.795
      }
    },
    {
      "id": "4930",
      "cp": "47140",
      "ville": "Laguna De Duero",
      "adresse": "Avenida De madrid, 1",
      "brand": "Avia",
      "lat": 41.587083,
      "lng": -4.718722,
      "fuels": {
        "gazole": 1.559,
        "sp95": 1.599
      }
    },
    {
      "id": "15862",
      "cp": "47140",
      "ville": "Laguna De Duero",
      "adresse": "Calle roble, 1",
      "brand": "Plenergy",
      "lat": 41.592,
      "lng": -4.723306,
      "fuels": {
        "gazole": 1.539,
        "sp95": 1.499
      }
    },
    {
      "id": "8553",
      "cp": "47140",
      "ville": "Laguna De Duero",
      "adresse": "ctra.n-601 (avda. De La Ronda S/n) Km 184",
      "brand": "Shell",
      "lat": 41.594639,
      "lng": -4.723694,
      "fuels": {
        "gazole": 1.569,
        "sp95": 1.609,
        "sp98": 1.749,
        "gplc": 1.019
      }
    },
    {
      "id": "9626",
      "cp": "47680",
      "ville": "Mayorga",
      "adresse": "Calle diseminados, 17",
      "brand": "Agropal",
      "lat": 42.161139,
      "lng": -5.271028,
      "fuels": {
        "gazole": 1.477,
        "sp95": 1.477
      }
    },
    {
      "id": "6324",
      "cp": "47680",
      "ville": "Mayorga",
      "adresse": "Carretera N-601 km. 269",
      "brand": "Galp",
      "lat": 42.160417,
      "lng": -5.267278,
      "fuels": {
        "gazole": 1.609,
        "sp95": 1.519
      }
    },
    {
      "id": "13034",
      "cp": "47800",
      "ville": "Medina De Rioseco",
      "adresse": "Calle radilla, 1",
      "brand": "Sugasyl Sl",
      "lat": 41.891639,
      "lng": -5.055167,
      "fuels": {
        "gazole": 1.467
      }
    },
    {
      "id": "10378",
      "cp": "47800",
      "ville": "Medina De Rioseco",
      "adresse": "Carretera Carretera Adanero km. 232",
      "brand": "An Energéticos - Medina De Rioseco",
      "lat": 41.894528,
      "lng": -5.054833,
      "fuels": {
        "gazole": 1.519,
        "sp95": 1.485
      }
    },
    {
      "id": "6286",
      "cp": "47800",
      "ville": "Medina De Rioseco",
      "adresse": "Cr N-601, 233,6",
      "brand": "Repsol",
      "lat": 41.889167,
      "lng": -5.051389,
      "fuels": {
        "gazole": 1.669,
        "sp95": 1.639
      }
    },
    {
      "id": "6198",
      "cp": "47400",
      "ville": "Medina Del Campo",
      "adresse": "Autovia A - 6 Madrid-La Coruña km. 154,100",
      "brand": "Repsol",
      "lat": 41.275306,
      "lng": -4.887778,
      "fuels": {
        "gazole": 1.675,
        "sp95": 1.645,
        "sp98": 1.815
      }
    },
    {
      "id": "8294",
      "cp": "47400",
      "ville": "Medina Del Campo",
      "adresse": "Autovia A-6 km. 165",
      "brand": "Galp",
      "lat": 41.355278,
      "lng": -4.958806,
      "fuels": {
        "gazole": 1.629,
        "sp95": 1.629,
        "sp98": 1.769
      }
    },
    {
      "id": "6330",
      "cp": "47400",
      "ville": "Medina Del Campo",
      "adresse": "Avenida De La constitucion, 54",
      "brand": "Repsol",
      "lat": 41.318139,
      "lng": -4.916472,
      "fuels": {
        "gazole": 1.675,
        "sp95": 1.629,
        "sp98": 1.799
      }
    },
    {
      "id": "14937",
      "cp": "47400",
      "ville": "Medina Del Campo",
      "adresse": "Avenida De La constitucion, 82",
      "brand": "Petroprix",
      "lat": 41.322111,
      "lng": -4.920861,
      "fuels": {
        "gazole": 1.339,
        "sp95": 1.299
      }
    },
    {
      "id": "6246",
      "cp": "47400",
      "ville": "Medina Del Campo",
      "adresse": "Avenida Del cuartel, 1",
      "brand": "Repsol",
      "lat": 41.305194,
      "lng": -4.911028,
      "fuels": {
        "gazole": 1.675,
        "sp95": 1.629,
        "sp98": 1.799
      }
    },
    {
      "id": "10876",
      "cp": "47400",
      "ville": "Medina Del Campo",
      "adresse": "Avenida Quinto centenario, 2",
      "brand": "Repsol",
      "lat": 41.301806,
      "lng": -4.909111,
      "fuels": {
        "gazole": 1.675,
        "sp95": 1.629,
        "sp98": 1.799
      }
    },
    {
      "id": "15415",
      "cp": "47400",
      "ville": "Medina Del Campo",
      "adresse": "Calle alarifes, 3",
      "brand": "Lowcost Medina",
      "lat": 41.324417,
      "lng": -4.915944,
      "fuels": {
        "gazole": 1.369,
        "sp95": 1.319
      }
    },
    {
      "id": "6098",
      "cp": "47400",
      "ville": "Medina Del Campo",
      "adresse": "Carretera Ctra A Peñarada S/N km. ",
      "brand": "q8",
      "lat": 41.300389,
      "lng": -4.907694,
      "fuels": {
        "gazole": 1.339,
        "sp95": 1.299,
        "sp98": 1.299
      }
    },
    {
      "id": "13574",
      "cp": "47250",
      "ville": "Mojados",
      "adresse": "Calle Miguel pelillo, 30",
      "brand": "Maxpetrol ",
      "lat": 41.433806,
      "lng": -4.666944,
      "fuels": {
        "gazole": 1.459,
        "sp95": 1.429
      }
    },
    {
      "id": "14028",
      "cp": "47250",
      "ville": "Mojados",
      "adresse": "Carretera Va 404 km. 26",
      "brand": "Nuñez Villarreal",
      "lat": 41.431167,
      "lng": -4.672944,
      "fuels": {
        "gazole": 1.425,
        "sp95": 1.45
      }
    },
    {
      "id": "6344",
      "cp": "47250",
      "ville": "Mojados",
      "adresse": "Cr N-601, 167,7",
      "brand": "Repsol",
      "lat": 41.453528,
      "lng": -4.667667,
      "fuels": {
        "gazole": 1.649,
        "sp95": 1.649,
        "sp98": 1.819
      }
    },
    {
      "id": "6178",
      "cp": "47120",
      "ville": "Mota Del Marques",
      "adresse": "Autovia A-6 km. 202",
      "brand": "Repsol",
      "lat": 41.626972,
      "lng": -5.173278,
      "fuels": {
        "gazole": 1.655,
        "sp95": 1.685,
        "sp98": 1.855
      }
    },
    {
      "id": "6124",
      "cp": "47630",
      "ville": "Mudarra (la)",
      "adresse": "Carrera Nacional 601, 218,1",
      "brand": "Shell",
      "lat": 41.78625,
      "lng": -4.94175,
      "fuels": {
        "gazole": 1.589,
        "sp95": 1.599,
        "sp98": 1.739
      }
    },
    {
      "id": "12892",
      "cp": "47500",
      "ville": "Nava Del Rey",
      "adresse": "Autovia A-62 km. 169,6",
      "brand": "La Loba 2000",
      "lat": 41.410556,
      "lng": -5.134528,
      "fuels": {
        "gazole": 1.659,
        "sp95": 1.639,
        "sp98": 1.829,
        "gplc": 1.069
      }
    },
    {
      "id": "15556",
      "cp": "47071",
      "ville": "Navabuena",
      "adresse": "Avenida burgos, 36",
      "brand": "Plenergy",
      "lat": 41.664278,
      "lng": -4.730472,
      "fuels": {
        "gazole": 1.549,
        "sp95": 1.499
      }
    },
    {
      "id": "9190",
      "cp": "47410",
      "ville": "Olmedo",
      "adresse": "Carretera Aguasal km. 15",
      "brand": "Coop Cocol",
      "lat": 41.285111,
      "lng": -4.678333,
      "fuels": {
        "gazole": 1.54
      }
    },
    {
      "id": "6325",
      "cp": "47410",
      "ville": "Olmedo",
      "adresse": "Carretera N-601 km. 147,8",
      "brand": "Galp",
      "lat": 41.282361,
      "lng": -4.681639,
      "fuels": {
        "gazole": 1.639,
        "sp95": 1.639
      }
    },
    {
      "id": "6247",
      "cp": "47410",
      "ville": "Olmedo",
      "adresse": "Cr N-601 149",
      "brand": "Repsol",
      "lat": 41.287889,
      "lng": -4.681167,
      "fuels": {
        "gazole": 1.659,
        "sp95": 1.625
      }
    },
    {
      "id": "6179",
      "cp": "47314",
      "ville": "Padilla De Duero",
      "adresse": "Cr N-122, 312",
      "brand": "Repsol",
      "lat": 41.612611,
      "lng": -4.175444,
      "fuels": {
        "gazole": 1.639,
        "sp95": 1.649,
        "sp98": 1.829
      }
    },
    {
      "id": "6194",
      "cp": "47196",
      "ville": "Pedraja De Portillo (la)",
      "adresse": "Carretera N-601 km. 173,8",
      "brand": "Repsol",
      "lat": 41.508972,
      "lng": -4.690083,
      "fuels": {
        "gazole": 1.649,
        "sp95": 1.649,
        "sp98": 1.819
      }
    },
    {
      "id": "4928",
      "cp": "47430",
      "ville": "Pedrajas De San Esteban",
      "adresse": "Carretera ctra.alcazaren-pedrajas, km8 km. ",
      "brand": "e.s.pedrajas",
      "lat": 41.345139,
      "lng": -4.59875,
      "fuels": {
        "gazole": 1.398,
        "sp95": 1.428
      }
    },
    {
      "id": "6409",
      "cp": "47112",
      "ville": "Pedrosa Del Rey",
      "adresse": "Carretera Cr Vp-6701 Villaester-Pedrosa Del Rey km. 1",
      "brand": "Repsol",
      "lat": 41.51825,
      "lng": -5.213694,
      "fuels": {
        "gazole": 1.659,
        "sp95": 1.669,
        "sp98": 1.855,
        "gplc": 1.045
      }
    },
    {
      "id": "6291",
      "cp": "47300",
      "ville": "Peñafiel",
      "adresse": "Avenida escalona, 19",
      "brand": "Repsol",
      "lat": 41.602528,
      "lng": -4.114806,
      "fuels": {
        "gazole": 1.679,
        "sp95": 1.679,
        "sp98": 1.789,
        "gplc": 1.059
      }
    },
    {
      "id": "12711",
      "cp": "47300",
      "ville": "Peñafiel",
      "adresse": "Avenida escalona, 5",
      "brand": "Autoservicio 24h Jlz",
      "lat": 41.603083,
      "lng": -4.113917,
      "fuels": {
        "gazole": 1.579,
        "sp95": 1.579
      }
    },
    {
      "id": "9391",
      "cp": "47300",
      "ville": "Peñafiel",
      "adresse": "Carretera Pesquera km. 0,800",
      "brand": "cocope, s. coop.",
      "lat": 41.608694,
      "lng": -4.115278,
      "fuels": {
        "gazole": 1.419,
        "sp95": 1.459
      }
    },
    {
      "id": "11021",
      "cp": "47350",
      "ville": "Quintanilla De Onesimo",
      "adresse": "Carretera Soria n_122 km. 329",
      "brand": "Repsol",
      "lat": 41.625083,
      "lng": -4.368806,
      "fuels": {
        "gazole": 1.639,
        "sp95": 1.629,
        "sp98": 1.799
      }
    },
    {
      "id": "6379",
      "cp": "47170",
      "ville": "Renedo De Esgueva",
      "adresse": "Carretera Valladolid-Tortoles km. 7",
      "brand": "Repsol",
      "lat": 41.658278,
      "lng": -4.640111,
      "fuels": {
        "gazole": 1.649,
        "sp95": 1.665,
        "sp98": 1.785
      }
    },
    {
      "id": "12893",
      "cp": "47490",
      "ville": "Rueda",
      "adresse": "Carretera A-6 km. 175",
      "brand": "Prio",
      "lat": 41.441028,
      "lng": -4.979556,
      "fuels": {
        "gazole": 1.5,
        "sp95": 1.504,
        "gplc": 1.051
      }
    },
    {
      "id": "4965",
      "cp": "47490",
      "ville": "Rueda",
      "adresse": "Carretera Madrid km. 171",
      "brand": "Los Ceas",
      "lat": 41.406111,
      "lng": -4.960806,
      "fuels": {
        "gazole": 1.629,
        "sp95": 1.579,
        "sp98": 1.749
      }
    },
    {
      "id": "6137",
      "cp": "47164",
      "ville": "San Miguel Del Arroyo",
      "adresse": "Carretera Cl-601 km. 35,5",
      "brand": "Moeve",
      "lat": 41.439333,
      "lng": -4.453833,
      "fuels": {
        "gazole": 1.649,
        "sp95": 1.649
      }
    },
    {
      "id": "11506",
      "cp": "47132",
      "ville": "San Miguel Del Pino",
      "adresse": "Carretera Vp-9803 km. 0,7",
      "brand": "Shell",
      "lat": 41.525028,
      "lng": -4.916333,
      "fuels": {
        "gazole": 1.669,
        "sp95": 1.649,
        "sp98": 1.789
      }
    },
    {
      "id": "9832",
      "cp": "47851",
      "ville": "San Pedro De Latarce",
      "adresse": "Camino Torrejon S/N",
      "brand": "Agropal",
      "lat": 41.738778,
      "lng": -5.330722,
      "fuels": {
        "gazole": 1.477
      }
    },
    {
      "id": "12433",
      "cp": "47493",
      "ville": "San Vicente Del Palacio",
      "adresse": "Autovia A-6 km. 147",
      "brand": "Valcarce",
      "lat": 41.22225,
      "lng": -4.842333,
      "fuels": {
        "gazole": 1.649,
        "sp95": 1.589
      }
    },
    {
      "id": "6199",
      "cp": "47493",
      "ville": "San Vicente Del Palacio",
      "adresse": "Autovia a6 km. 147,200",
      "brand": "Repsol",
      "lat": 41.220694,
      "lng": -4.848167,
      "fuels": {
        "gazole": 1.679,
        "sp95": 1.639,
        "sp98": 1.809
      }
    },
    {
      "id": "5513",
      "cp": "47155",
      "ville": "Santovenia De Pisuerga",
      "adresse": "Cañada La aguilera, S/N",
      "brand": "Avia u.s. La Aguilera",
      "lat": 41.692194,
      "lng": -4.678083,
      "fuels": {
        "gazole": 1.616,
        "sp95": 1.626
      }
    },
    {
      "id": "4932",
      "cp": "47155",
      "ville": "Santovenia De Pisuerga",
      "adresse": "Carretera Vieja De Santander nº 22 km. ",
      "brand": "Servatra",
      "lat": 41.687417,
      "lng": -4.683056,
      "fuels": {
        "gazole": 1.549,
        "sp95": 1.509
      }
    },
    {
      "id": "6185",
      "cp": "47340",
      "ville": "Sardon De Duero",
      "adresse": "Cr N-122, 335,4",
      "brand": "Hafesa Oil",
      "lat": 41.606861,
      "lng": -4.441222,
      "fuels": {
        "gazole": 1.549,
        "sp95": 1.559
      }
    },
    {
      "id": "6399",
      "cp": "47239",
      "ville": "Serrada",
      "adresse": "Carretera C A-610 km. 26",
      "brand": "Repsol",
      "lat": 41.461389,
      "lng": -4.861028,
      "fuels": {
        "gazole": 1.645,
        "sp95": 1.655,
        "sp98": 1.825
      }
    },
    {
      "id": "6173",
      "cp": "47511",
      "ville": "Siete Iglesias De Trabancos",
      "adresse": "A-62 Km 177,8",
      "brand": "Moeve",
      "lat": 41.346944,
      "lng": -5.178083,
      "fuels": {
        "gazole": 1.667,
        "sp95": 1.645
      }
    },
    {
      "id": "6140",
      "cp": "47130",
      "ville": "Simancas",
      "adresse": "A-62 Km 138,6",
      "brand": "Moeve",
      "lat": 41.566278,
      "lng": -4.860583,
      "fuels": {
        "gazole": 1.667,
        "sp95": 1.645,
        "sp98": 1.837
      }
    },
    {
      "id": "6176",
      "cp": "47130",
      "ville": "Simancas",
      "adresse": "Autovia A-62 km. 132,6",
      "brand": "Repsol",
      "lat": 41.603694,
      "lng": -4.810306,
      "fuels": {
        "gazole": 1.645,
        "sp95": 1.665,
        "sp98": 1.835
      }
    },
    {
      "id": "6141",
      "cp": "47130",
      "ville": "Simancas",
      "adresse": "Autovia A-62 km. 138,6",
      "brand": "Moeve",
      "lat": 41.565833,
      "lng": -4.85975,
      "fuels": {
        "gazole": 1.667,
        "sp95": 1.645,
        "sp98": 1.837
      }
    },
    {
      "id": "6382",
      "cp": "47830",
      "ville": "Tordehumos",
      "adresse": "Carretera Va 505 km. 11,7",
      "brand": "Repsol",
      "lat": 41.807861,
      "lng": -5.145667,
      "fuels": {
        "gazole": 1.649,
        "sp95": 1.619,
        "sp98": 1.809
      }
    },
    {
      "id": "14768",
      "cp": "47100",
      "ville": "Tordesillas",
      "adresse": "Autovia A 62 km. 148",
      "brand": "Repsol",
      "lat": 41.517806,
      "lng": -4.945028,
      "fuels": {
        "gazole": 1.659,
        "sp95": 1.669,
        "sp98": 1.839,
        "gplc": 1.045
      }
    },
    {
      "id": "6276",
      "cp": "47100",
      "ville": "Tordesillas",
      "adresse": "Avenida De portugal, 7",
      "brand": "Repsol",
      "lat": 41.501278,
      "lng": -5.004333,
      "fuels": {
        "gazole": 1.649,
        "sp95": 1.659,
        "sp98": 1.829
      }
    },
    {
      "id": "15295",
      "cp": "47100",
      "ville": "Tordesillas",
      "adresse": "Avenida zamora, 6",
      "brand": "Svg",
      "lat": 41.503778,
      "lng": -5.0095,
      "fuels": {
        "gazole": 1.57,
        "sp95": 1.58
      }
    },
    {
      "id": "13488",
      "cp": "47001",
      "ville": "Tordesillas",
      "adresse": "Calle Gaspar De tordesillas, 2",
      "brand": "Eoil",
      "lat": 41.502944,
      "lng": -5.006611,
      "fuels": {
        "gazole": 1.595,
        "sp95": 1.58
      }
    },
    {
      "id": "6345",
      "cp": "47320",
      "ville": "Tudela De Duero",
      "adresse": "Autovia A-11 km. 349",
      "brand": "Repsol",
      "lat": 41.591583,
      "lng": -4.607056,
      "fuels": {
        "gazole": 1.655,
        "sp95": 1.659,
        "sp98": 1.829
      }
    },
    {
      "id": "9406",
      "cp": "47320",
      "ville": "Tudela De Duero",
      "adresse": "Villabañez Km 2,5",
      "brand": "An Energeticos - Jaramiel",
      "lat": 41.601,
      "lng": -4.560694,
      "fuels": {
        "gazole": 1.529,
        "sp95": 1.495
      }
    },
    {
      "id": "6150",
      "cp": "47009",
      "ville": "Valladolid",
      "adresse": "Autovia Burgos km. 117",
      "brand": "Cepsa",
      "lat": 41.712556,
      "lng": -4.701222,
      "fuels": {
        "gazole": 1.649,
        "sp95": 1.645,
        "sp98": 1.835
      }
    },
    {
      "id": "6092",
      "cp": "47014",
      "ville": "Valladolid",
      "adresse": "Autovia Puente colgante, urb. Parque Sol km. S/N",
      "brand": "Carrefour",
      "lat": 41.642833,
      "lng": -4.763278,
      "fuels": {
        "gazole": 1.599,
        "sp95": 1.559,
        "sp98": 1.749
      }
    },
    {
      "id": "8555",
      "cp": "47009",
      "ville": "Valladolid",
      "adresse": "avda.de Gijon",
      "brand": "Shell",
      "lat": 41.661111,
      "lng": -4.746083,
      "fuels": {
        "gazole": 1.559,
        "sp95": 1.579,
        "sp98": 1.719
      }
    },
    {
      "id": "6277",
      "cp": "47009",
      "ville": "Valladolid",
      "adresse": "Avenida burgos, 100",
      "brand": "Repsol",
      "lat": 41.672694,
      "lng": -4.724333,
      "fuels": {
        "gazole": 1.649,
        "sp95": 1.659,
        "sp98": 1.829
      }
    },
    {
      "id": "6239",
      "cp": "47009",
      "ville": "Valladolid",
      "adresse": "Avenida burgos, 34",
      "brand": "Cepsa",
      "lat": 41.664139,
      "lng": -4.73075,
      "fuels": {
        "gazole": 1.678,
        "sp95": 1.645,
        "gplc": 1.064
      }
    },
    {
      "id": "14859",
      "cp": "47009",
      "ville": "Valladolid",
      "adresse": "Avenida burgos, 50",
      "brand": "Espanoil",
      "lat": 41.666167,
      "lng": -4.729028,
      "fuels": {
        "gazole": 1.509,
        "sp95": 1.459
      }
    },
    {
      "id": "13492",
      "cp": "47009",
      "ville": "Valladolid",
      "adresse": "Avenida burgos, 82",
      "brand": "Gasexpress",
      "lat": 41.671139,
      "lng": -4.725306,
      "fuels": {
        "gazole": 1.509,
        "sp95": 1.459
      }
    },
    {
      "id": "6222",
      "cp": "47009",
      "ville": "Valladolid",
      "adresse": "Avenida De burgos, 33",
      "brand": "Repsol",
      "lat": 41.668,
      "lng": -4.72825,
      "fuels": {
        "gazole": 1.645,
        "sp95": 1.665,
        "sp98": 1.835
      }
    },
    {
      "id": "11667",
      "cp": "47009",
      "ville": "Valladolid",
      "adresse": "Avenida De burgos, 51",
      "brand": "Shell",
      "lat": 41.674361,
      "lng": -4.724222,
      "fuels": {
        "gazole": 1.559,
        "sp95": 1.509,
        "sp98": 1.709
      }
    },
    {
      "id": "9265",
      "cp": "47010",
      "ville": "Valladolid",
      "adresse": "Avenida De Palencia nº 35",
      "brand": "Repsol",
      "lat": 41.661,
      "lng": -4.717556,
      "fuels": {
        "gazole": 1.645,
        "sp95": 1.655,
        "sp98": 1.825
      }
    },
    {
      "id": "15759",
      "cp": "47012",
      "ville": "Valladolid",
      "adresse": "Avenida De Soria 28-b, S/N",
      "brand": "Plenergy",
      "lat": 41.617417,
      "lng": -4.692806,
      "fuels": {
        "gazole": 1.537,
        "sp95": 1.499
      }
    },
    {
      "id": "14537",
      "cp": "47009",
      "ville": "Valladolid",
      "adresse": "Avenida gijon, 78",
      "brand": "Petroprix",
      "lat": 41.660861,
      "lng": -4.751611,
      "fuels": {
        "gazole": 1.509,
        "sp95": 1.459
      }
    },
    {
      "id": "6259",
      "cp": "47008",
      "ville": "Valladolid",
      "adresse": "Avenida Norte De castilla, 1",
      "brand": "Repsol",
      "lat": 41.628806,
      "lng": -4.732111,
      "fuels": {
        "gazole": 1.645,
        "sp95": 1.659,
        "sp98": 1.829
      }
    },
    {
      "id": "14618",
      "cp": "47008",
      "ville": "Valladolid",
      "adresse": "Avenida Norte De castilla, 54",
      "brand": "Ballenoil",
      "lat": 41.619472,
      "lng": -4.737056,
      "fuels": {
        "gazole": 1.489,
        "sp95": 1.439
      }
    },
    {
      "id": "6233",
      "cp": "47014",
      "ville": "Valladolid",
      "adresse": "Avenida salamanca, 126",
      "brand": "Repsol",
      "lat": 41.637972,
      "lng": -4.746639,
      "fuels": {
        "gazole": 1.645,
        "sp95": 1.665,
        "sp98": 1.785,
        "gplc": 1.059
      }
    },
    {
      "id": "12395",
      "cp": "47014",
      "ville": "Valladolid",
      "adresse": "Avenida salamanca, 80",
      "brand": "Repsol",
      "lat": 41.627806,
      "lng": -4.759639,
      "fuels": {
        "gazole": 1.645,
        "sp95": 1.665,
        "sp98": 1.835
      }
    },
    {
      "id": "6220",
      "cp": "47013",
      "ville": "Valladolid",
      "adresse": "Avenida segovia, 44",
      "brand": "Repsol",
      "lat": 41.637139,
      "lng": -4.721889,
      "fuels": {
        "gazole": 1.635,
        "sp95": 1.655,
        "sp98": 1.825
      }
    },
    {
      "id": "13570",
      "cp": "47008",
      "ville": "Valladolid",
      "adresse": "Avenida zamora, 51",
      "brand": "Gasexpress",
      "lat": 41.6195,
      "lng": -4.735861,
      "fuels": {
        "gazole": 1.489,
        "sp95": 1.439
      }
    },
    {
      "id": "13507",
      "cp": "47007",
      "ville": "Valladolid",
      "adresse": "Calle arca7, S/N",
      "brand": "Gasexpress ",
      "lat": 41.619694,
      "lng": -4.726417,
      "fuels": {
        "gazole": 1.489,
        "sp95": 1.439
      }
    },
    {
      "id": "14350",
      "cp": "47012",
      "ville": "Valladolid",
      "adresse": "Calle azalea, 1",
      "brand": "Dst",
      "lat": 41.6425,
      "lng": -4.689889,
      "fuels": {
        "gazole": 1.499,
        "sp95": 1.449
      }
    },
    {
      "id": "12558",
      "cp": "47008",
      "ville": "Valladolid",
      "adresse": "Calle bronce, S/N",
      "brand": "Repsol Butano",
      "lat": 41.6155,
      "lng": -4.736333,
      "fuels": {
        "gplc": 1.055
      }
    },
    {
      "id": "6181",
      "cp": "47008",
      "ville": "Valladolid",
      "adresse": "Calle Camino Viejo De simancas, 46",
      "brand": "Repsol",
      "lat": 41.621556,
      "lng": -4.75625,
      "fuels": {
        "gazole": 1.635,
        "sp95": 1.665,
        "sp98": 1.785
      }
    },
    {
      "id": "16351",
      "cp": "47013",
      "ville": "Valladolid",
      "adresse": "Calle carraca, 4",
      "brand": "Petroprix",
      "lat": 41.632389,
      "lng": -4.710972,
      "fuels": {
        "gazole": 1.489,
        "sp95": 1.439
      }
    },
    {
      "id": "14101",
      "cp": "47008",
      "ville": "Valladolid",
      "adresse": "Calle Continuacion Arca real, 111",
      "brand": "Dst Arca Real",
      "lat": 41.626889,
      "lng": -4.72825,
      "fuels": {
        "gazole": 1.459,
        "sp95": 1.439
      }
    },
    {
      "id": "6093",
      "cp": "47010",
      "ville": "Valladolid",
      "adresse": "Calle Costa brava, 2",
      "brand": "Carrefour",
      "lat": 41.670028,
      "lng": -4.708639,
      "fuels": {
        "gazole": 1.599,
        "sp95": 1.559,
        "sp98": 1.789
      }
    },
    {
      "id": "13782",
      "cp": "47012",
      "ville": "Valladolid",
      "adresse": "Calle cromo, 50",
      "brand": "Tencar",
      "lat": 41.625861,
      "lng": -4.707444,
      "fuels": {
        "gazole": 1.499,
        "sp95": 1.469
      }
    },
    {
      "id": "14897",
      "cp": "47008",
      "ville": "Valladolid",
      "adresse": "Calle Daniel Del Olmo 23, 23",
      "brand": "Plenergy",
      "lat": 41.627861,
      "lng": -4.729056,
      "fuels": {
        "gazole": 1.529,
        "sp95": 1.479
      }
    },
    {
      "id": "14873",
      "cp": "47008",
      "ville": "Valladolid",
      "adresse": "Calle Daniel Del Olmo gonzález, 16",
      "brand": "Petroprix",
      "lat": 41.627528,
      "lng": -4.7325,
      "fuels": {
        "gazole": 1.489,
        "sp95": 1.439
      }
    },
    {
      "id": "9482",
      "cp": "47009",
      "ville": "Valladolid",
      "adresse": "Calle euro, 17",
      "brand": "Dst Mercaolid",
      "lat": 41.672528,
      "lng": -4.717806,
      "fuels": {
        "gazole": 1.549,
        "sp95": 1.499
      }
    },
    {
      "id": "15212",
      "cp": "47197",
      "ville": "Valladolid",
      "adresse": "Calle Francisco umbral, 3",
      "brand": "Las Palmeras",
      "lat": 41.628333,
      "lng": -4.761972,
      "fuels": {
        "gazole": 1.489,
        "sp95": 1.439,
        "sp98": 1.699
      }
    },
    {
      "id": "13834",
      "cp": "47012",
      "ville": "Valladolid",
      "adresse": "Calle hidrogeno, 83",
      "brand": "Especial Oil",
      "lat": 41.60175,
      "lng": -4.6975,
      "fuels": {
        "gazole": 1.519,
        "sp95": 1.479
      }
    },
    {
      "id": "15788",
      "cp": "47012",
      "ville": "Valladolid",
      "adresse": "Calle pirita, 49",
      "brand": "Texacoil",
      "lat": 41.621056,
      "lng": -4.703917,
      "fuels": {
        "gazole": 1.499,
        "sp95": 1.499
      }
    },
    {
      "id": "11960",
      "cp": "47012",
      "ville": "Valladolid",
      "adresse": "Calle plata, 40",
      "brand": "Repsol",
      "lat": 41.618306,
      "lng": -4.705028,
      "fuels": {
        "gazole": 1.639,
        "sp95": 1.659,
        "sp98": 1.829,
        "gplc": 1.049
      }
    },
    {
      "id": "14269",
      "cp": "47012",
      "ville": "Valladolid",
      "adresse": "Calle plata, 74",
      "brand": "Low Cost San Cristobal",
      "lat": 41.615806,
      "lng": -4.710361,
      "fuels": {
        "gazole": 1.489,
        "sp95": 1.439
      }
    },
    {
      "id": "6413",
      "cp": "47007",
      "ville": "Valladolid",
      "adresse": "Calle Puente colgante, 10",
      "brand": "Repsol",
      "lat": 41.641111,
      "lng": -4.734222,
      "fuels": {
        "gazole": 1.635,
        "sp95": 1.659,
        "sp98": 1.829
      }
    },
    {
      "id": "11330",
      "cp": "47008",
      "ville": "Valladolid",
      "adresse": "Calle Ronda Interior sur, Sn",
      "brand": "Gasolinera Valladolid Pisuerga",
      "lat": 41.618556,
      "lng": -4.720778,
      "fuels": {
        "gazole": 1.489,
        "sp95": 1.439
      }
    },
    {
      "id": "16056",
      "cp": "47012",
      "ville": "Valladolid",
      "adresse": "Calle Santa Maria De La cabeza, 28",
      "brand": "Ballenoil",
      "lat": 41.64525,
      "lng": -4.699472,
      "fuels": {
        "gazole": 1.489,
        "sp95": 1.439
      }
    },
    {
      "id": "12981",
      "cp": "47016",
      "ville": "Valladolid",
      "adresse": "Calle Santiago Lopez gonzalez, 17",
      "brand": "La Estrella De Qatar",
      "lat": 41.628278,
      "lng": -4.769028,
      "fuels": {
        "gazole": 1.489,
        "sp95": 1.439
      }
    },
    {
      "id": "15074",
      "cp": "47197",
      "ville": "Valladolid",
      "adresse": "Calle Santiago Lopez gonzalez, 3",
      "brand": "Ballenoil",
      "lat": 41.626083,
      "lng": -4.766556,
      "fuels": {
        "gazole": 1.489,
        "sp95": 1.439
      }
    },
    {
      "id": "13813",
      "cp": "47008",
      "ville": "Valladolid",
      "adresse": "Calle teide, 8",
      "brand": "La Estrella De Qatar",
      "lat": 41.619972,
      "lng": -4.717611,
      "fuels": {
        "gazole": 1.487,
        "sp95": 1.439,
        "sp98": 1.695
      }
    },
    {
      "id": "13756",
      "cp": "47012",
      "ville": "Valladolid",
      "adresse": "Calle turquesa, 71",
      "brand": "La Estrella De Qatar",
      "lat": 41.62075,
      "lng": -4.696694,
      "fuels": {
        "gazole": 1.498,
        "sp95": 1.475
      }
    },
    {
      "id": "11958",
      "cp": "47008",
      "ville": "Valladolid",
      "adresse": "Carretera C-610 km. 3,50",
      "brand": "Repsol",
      "lat": 41.605444,
      "lng": -4.753333,
      "fuels": {
        "gazole": 1.635,
        "sp95": 1.665,
        "sp98": 1.785
      }
    },
    {
      "id": "6260",
      "cp": "47012",
      "ville": "Valladolid",
      "adresse": "Carretera Cl-601 km. 4,8",
      "brand": "Repsol",
      "lat": 41.608861,
      "lng": -4.709417,
      "fuels": {
        "gazole": 1.655,
        "sp95": 1.655,
        "sp98": 1.825
      }
    },
    {
      "id": "6327",
      "cp": "47609",
      "ville": "Valladolid",
      "adresse": "Carretera Fuensaldaña km. 2,7",
      "brand": "Repsol",
      "lat": 41.680694,
      "lng": -4.742167,
      "fuels": {
        "gazole": 1.645,
        "sp95": 1.659,
        "sp98": 1.829
      }
    },
    {
      "id": "6414",
      "cp": "47008",
      "ville": "Valladolid",
      "adresse": "Carretera N-601 Madrid km. 183",
      "brand": "Cepsa",
      "lat": 41.600639,
      "lng": -4.723111,
      "fuels": {
        "gazole": 1.678,
        "sp95": 1.645,
        "sp98": 1.837
      }
    },
    {
      "id": "6323",
      "cp": "47012",
      "ville": "Valladolid",
      "adresse": "Carretera Soria km. 3,200",
      "brand": "Galp",
      "lat": 41.631528,
      "lng": -4.704111,
      "fuels": {
        "gazole": 1.609,
        "sp95": 1.629
      }
    },
    {
      "id": "11421",
      "cp": "47012",
      "ville": "Valladolid",
      "adresse": "Carretera Villabañez km. 100",
      "brand": "Repsol",
      "lat": 41.646306,
      "lng": -4.694083,
      "fuels": {
        "gazole": 1.645,
        "sp95": 1.659,
        "sp98": 1.799
      }
    },
    {
      "id": "6406",
      "cp": "47009",
      "ville": "Valladolid",
      "adresse": "Cl Camino cabildo, s.n.",
      "brand": "Repsol",
      "lat": 41.674278,
      "lng": -4.718611,
      "fuels": {
        "gazole": 1.639,
        "sp95": 1.659,
        "sp98": 1.829,
        "gplc": 1.059
      }
    },
    {
      "id": "8556",
      "cp": "47014",
      "ville": "Valladolid",
      "adresse": "cl.ciudad Habana (parquesol)",
      "brand": "Shell",
      "lat": 41.631889,
      "lng": -4.767361,
      "fuels": {
        "gazole": 1.609,
        "sp95": 1.629,
        "sp98": 1.769,
        "gplc": 1.019
      }
    },
    {
      "id": "6255",
      "cp": "47008",
      "ville": "Valladolid",
      "adresse": "Cr N-601, 187",
      "brand": "Repsol",
      "lat": 41.618806,
      "lng": -4.726361,
      "fuels": {
        "gazole": 1.639,
        "sp95": 1.655,
        "sp98": 1.775
      }
    },
    {
      "id": "6148",
      "cp": "47011",
      "ville": "Valladolid",
      "adresse": "ctra. De circunvalacion, 113",
      "brand": "Moeve",
      "lat": 41.652,
      "lng": -4.704417,
      "fuels": {
        "gazole": 1.667,
        "sp95": 1.645
      }
    },
    {
      "id": "6290",
      "cp": "47013",
      "ville": "Valladolid",
      "adresse": "Paseo Arco De ladrillo, 65",
      "brand": "Repsol",
      "lat": 41.629611,
      "lng": -4.727306,
      "fuels": {
        "gazole": 1.629,
        "sp95": 1.659,
        "sp98": 1.829
      }
    },
    {
      "id": "6248",
      "cp": "47009",
      "ville": "Valladolid",
      "adresse": "Plaza San bartolome, Sn",
      "brand": "Cepsa",
      "lat": 41.6605,
      "lng": -4.733472,
      "fuels": {
        "gazole": 1.679,
        "sp95": 1.649
      }
    },
    {
      "id": "4916",
      "cp": "47133",
      "ville": "Vega De Valdetronco",
      "adresse": "Autopista a6 km. 196",
      "brand": "Bp ",
      "lat": 41.597806,
      "lng": -5.121806,
      "fuels": {
        "gazole": 1.639,
        "sp95": 1.659,
        "sp98": 1.849
      }
    },
    {
      "id": "6197",
      "cp": "47133",
      "ville": "Vega De Valdetronco",
      "adresse": "Autovia A - 6 Madrid-La Coruña km. 193,800",
      "brand": "Repsol",
      "lat": 41.576056,
      "lng": -5.099306,
      "fuels": {
        "gazole": 1.645,
        "sp95": 1.675,
        "sp98": 1.845,
        "gplc": 1.045
      }
    },
    {
      "id": "6252",
      "cp": "47600",
      "ville": "Villalon De Campos",
      "adresse": "Calle carcaba, 2",
      "brand": "Repsol",
      "lat": 42.098056,
      "lng": -5.032389,
      "fuels": {
        "gazole": 1.679,
        "sp95": 1.635
      }
    },
    {
      "id": "6227",
      "cp": "47132",
      "ville": "Villamarciel",
      "adresse": "Carretera A-62 km. 142",
      "brand": "Repsol",
      "lat": 41.539972,
      "lng": -4.895778,
      "fuels": {
        "gazole": 1.655,
        "sp95": 1.679,
        "sp98": 1.839
      }
    },
    {
      "id": "15742",
      "cp": "47620",
      "ville": "Villanubla",
      "adresse": "Avenida Fuentes claras, 1",
      "brand": "Beroil Villanubla",
      "lat": 41.696889,
      "lng": -4.827056,
      "fuels": {
        "gazole": 1.399,
        "sp95": 1.419
      }
    },
    {
      "id": "6200",
      "cp": "47850",
      "ville": "Villanueva De Los Caballeros",
      "adresse": "Carrer Madrid-coruña, 223",
      "brand": "Repsol",
      "lat": 41.785528,
      "lng": -5.323944,
      "fuels": {
        "gazole": 1.659,
        "sp95": 1.689,
        "sp98": 1.859
      }
    },
    {
      "id": "6201",
      "cp": "47850",
      "ville": "Villanueva De Los Caballeros",
      "adresse": "Cr A-6, 224,6 (n-6 Km 224,66)",
      "brand": "Repsol",
      "lat": 41.774333,
      "lng": -5.311361,
      "fuels": {
        "gazole": 1.659,
        "sp95": 1.689,
        "sp98": 1.859
      }
    },
    {
      "id": "11620",
      "cp": "47860",
      "ville": "Villardefrades",
      "adresse": "Autovia A-6 km. 211",
      "brand": "Easygas",
      "lat": 41.693278,
      "lng": -5.218944,
      "fuels": {
        "gazole": 1.519,
        "sp95": 1.509
      }
    },
    {
      "id": "6342",
      "cp": "47860",
      "ville": "Villardefrades",
      "adresse": "Carretera N-6 km. 216",
      "brand": "Petronor",
      "lat": 41.7235,
      "lng": -5.252556,
      "fuels": {
        "gazole": 1.629,
        "sp95": 1.625,
        "sp98": 1.795
      }
    },
    {
      "id": "8554",
      "cp": "47113",
      "ville": "Villavieja Del Cerro",
      "adresse": "Carretera A-6 km. 186",
      "brand": "Shell ",
      "lat": 41.526,
      "lng": -5.042417,
      "fuels": {
        "gazole": 1.59,
        "sp95": 1.594,
        "sp98": 1.742
      }
    },
    {
      "id": "13449",
      "cp": "47310",
      "ville": "Zaratan",
      "adresse": "Avenida gijón, 37",
      "brand": "Gasexpress",
      "lat": 41.660944,
      "lng": -4.766556,
      "fuels": {
        "gazole": 1.509,
        "sp95": 1.459
      }
    },
    {
      "id": "6091",
      "cp": "47610",
      "ville": "Zaratan",
      "adresse": "Calle Parque De Ocio equinocio, S/N",
      "brand": "Gasolinera Zaratan",
      "lat": 41.659722,
      "lng": -4.774333,
      "fuels": {
        "gazole": 1.499,
        "sp95": 1.449
      }
    },
    {
      "id": "5510",
      "cp": "47610",
      "ville": "Zaratán",
      "adresse": "adva. gijon, N-601 Km 194,6",
      "brand": "Repostar--Zaratan",
      "lat": 41.661806,
      "lng": -4.768083,
      "fuels": {
        "gazole": 1.579,
        "sp95": 1.569,
        "sp98": 1.709
      }
    },
    {
      "id": "14688",
      "cp": "47610",
      "ville": "Zaratán",
      "adresse": "Avenida Ramon Y cajal, S/N",
      "brand": "Dst",
      "lat": 41.635083,
      "lng": -4.784389,
      "fuels": {
        "gazole": 1.529,
        "sp95": 1.489
      }
    }
  ]
}