{
  "code": "50",
  "name": "Zaragoza",
  "regionCode": "ARA",
  "regionName": "Aragón",
  "asOf": "2026-07-10T19:09:04.111Z",
  "source": "https://sedeaplicaciones.minetur.gob.es/ServiciosRESTCarburantes/PreciosCarburantes/EstacionesTerrestres/",
  "stationCount": 234,
  "fuels": {
    "gazole": {
      "count": 232,
      "mean": 1.5474,
      "median": 1.586,
      "min": 1.289,
      "max": 1.695
    },
    "sp95": {
      "count": 219,
      "mean": 1.5572,
      "median": 1.607,
      "min": 1.299,
      "max": 1.699
    },
    "sp98": {
      "count": 95,
      "mean": 1.7597,
      "median": 1.779,
      "min": 1.429,
      "max": 1.849
    },
    "gplc": {
      "count": 10,
      "mean": 1.037,
      "median": 1.045,
      "min": 0.829,
      "max": 1.189
    }
  },
  "stations": [
    {
      "id": "1375",
      "cp": "50560",
      "ville": "Agon",
      "adresse": "Carretera N-122 km. 53,5",
      "brand": "Repsol",
      "lat": 41.840056,
      "lng": -1.419444,
      "fuels": {
        "gazole": 1.619,
        "sp95": 1.639,
        "sp98": 1.759
      }
    },
    {
      "id": "9133",
      "cp": "50408",
      "ville": "Aguaron",
      "adresse": "Carretera Calatayud Cariñena km. 0",
      "brand": "Cooperativa Viticola San Jose",
      "lat": 41.340278,
      "lng": -1.264722,
      "fuels": {
        "gazole": 1.57,
        "sp95": 1.59
      }
    },
    {
      "id": "1439",
      "cp": "50630",
      "ville": "Alagon",
      "adresse": "Autovia A-68 km. 265",
      "brand": "Repsol",
      "lat": 41.761639,
      "lng": -1.149528,
      "fuels": {
        "gazole": 1.599,
        "sp95": 1.629,
        "sp98": 1.809
      }
    },
    {
      "id": "1440",
      "cp": "50630",
      "ville": "Alagon",
      "adresse": "Autovia A-68 km. 265",
      "brand": "Repsol",
      "lat": 41.761111,
      "lng": -1.149389,
      "fuels": {
        "gazole": 1.599,
        "sp95": 1.629,
        "sp98": 1.809
      }
    },
    {
      "id": "12429",
      "cp": "50630",
      "ville": "Alagon",
      "adresse": "Avenida La jarea, 66",
      "brand": "Ochoa Lores (la jarea)",
      "lat": 41.768139,
      "lng": -1.127056,
      "fuels": {
        "gazole": 1.429,
        "sp95": 1.389
      }
    },
    {
      "id": "1426",
      "cp": "50630",
      "ville": "Alagon",
      "adresse": "Calle Carrera De caballos, 74",
      "brand": "Repsol",
      "lat": 41.766806,
      "lng": -1.1265,
      "fuels": {
        "gazole": 1.586,
        "sp95": 1.619
      }
    },
    {
      "id": "9046",
      "cp": "50630",
      "ville": "Alagon",
      "adresse": "Vía torremata, 5",
      "brand": "Sanantonio",
      "lat": 41.764583,
      "lng": -1.126167,
      "fuels": {
        "gazole": 1.478,
        "sp95": 1.394
      }
    },
    {
      "id": "1976",
      "cp": "50172",
      "ville": "Alfajarin",
      "adresse": "Carretera Nacional Ii km. 341",
      "brand": "Repsol",
      "lat": 41.606417,
      "lng": -0.691639,
      "fuels": {
        "gazole": 1.585,
        "sp95": 1.619,
        "sp98": 1.739
      }
    },
    {
      "id": "1977",
      "cp": "50172",
      "ville": "Alfajarin",
      "adresse": "Carretera Nacional Ii km. 341",
      "brand": "Repsol",
      "lat": 41.606806,
      "lng": -0.691167,
      "fuels": {
        "gazole": 1.585,
        "sp95": 1.619,
        "sp98": 1.739
      }
    },
    {
      "id": "14416",
      "cp": "50172",
      "ville": "Alfajarin",
      "adresse": "Carretera Nacional Ii km. 341,2",
      "brand": "Alfa Energy",
      "lat": 41.604778,
      "lng": -0.689139,
      "fuels": {
        "gazole": 1.479,
        "sp95": 1.479
      }
    },
    {
      "id": "1530",
      "cp": "50461",
      "ville": "Alfamen",
      "adresse": "Carretera A-1304 km. 7,3",
      "brand": "Petronor",
      "lat": 41.436444,
      "lng": -1.24025,
      "fuels": {
        "gazole": 1.595,
        "sp95": 1.605
      }
    },
    {
      "id": "1264",
      "cp": "50100",
      "ville": "Almunia De Doña Godina (la)",
      "adresse": "Avenida madrid, 14",
      "brand": "Cosanse",
      "lat": 41.477278,
      "lng": -1.379333,
      "fuels": {
        "gazole": 1.589,
        "sp95": 1.579
      }
    },
    {
      "id": "1372",
      "cp": "50100",
      "ville": "Almunia De Doña Godina (la)",
      "adresse": "Carretera A-220 km. 3,6",
      "brand": "Area-220",
      "lat": 41.450694,
      "lng": -1.346556,
      "fuels": {
        "gazole": 1.569,
        "sp95": 1.549
      }
    },
    {
      "id": "1403",
      "cp": "50100",
      "ville": "Almunia De Doña Godina (la)",
      "adresse": "Carretera Madrid km. 272",
      "brand": "Repsol",
      "lat": 41.483222,
      "lng": -1.371528,
      "fuels": {
        "gazole": 1.645,
        "sp95": 1.645,
        "sp98": 1.825
      }
    },
    {
      "id": "14131",
      "cp": "50100",
      "ville": "Almunia De Doña Godina (la)",
      "adresse": "Carretera Nacional A-121 km. 41",
      "brand": "Gasolprice",
      "lat": 41.490083,
      "lng": -1.379389,
      "fuels": {
        "gazole": 1.569,
        "sp95": 1.549
      }
    },
    {
      "id": "1488",
      "cp": "50100",
      "ville": "Almunia De Doña Godina (la)",
      "adresse": "Carretera Ricla (a-121) km. 43,1",
      "brand": "Moeve",
      "lat": 41.483056,
      "lng": -1.379361,
      "fuels": {
        "gazole": 1.649,
        "sp95": 1.659
      }
    },
    {
      "id": "9003",
      "cp": "50313",
      "ville": "Aniñon",
      "adresse": "Calle Las tablas, S/N",
      "brand": "Petrorcal",
      "lat": 41.447028,
      "lng": -1.706528,
      "fuels": {
        "gazole": 1.599,
        "sp95": 1.629
      }
    },
    {
      "id": "1489",
      "cp": "50220",
      "ville": "Ariza",
      "adresse": "Autovia A-2 km. 197,2",
      "brand": "Moeve",
      "lat": 41.311611,
      "lng": -2.002722,
      "fuels": {
        "gazole": 1.618,
        "sp95": 1.607
      }
    },
    {
      "id": "1490",
      "cp": "50220",
      "ville": "Ariza",
      "adresse": "Autovia A-2 km. 197,3",
      "brand": "Moeve",
      "lat": 41.312611,
      "lng": -2.001333,
      "fuels": {
        "gazole": 1.618,
        "sp95": 1.607
      }
    },
    {
      "id": "10934",
      "cp": "50200",
      "ville": "Ateca",
      "adresse": "Autopista A-2 km. 221",
      "brand": "Arento",
      "lat": 41.312778,
      "lng": -1.768167,
      "fuels": {
        "gazole": 1.599,
        "sp95": 1.639
      }
    },
    {
      "id": "1462",
      "cp": "50140",
      "ville": "Azuara",
      "adresse": "Carretera a1506 km. 59",
      "brand": "Cepsa",
      "lat": 41.259111,
      "lng": -0.869,
      "fuels": {
        "gazole": 1.604,
        "sp95": 1.61
      }
    },
    {
      "id": "10537",
      "cp": "50694",
      "ville": "Bardena Del Caudillo",
      "adresse": "Calle pinar, S/N",
      "brand": "coop. Virgen Oliva",
      "lat": 42.176528,
      "lng": -1.197556,
      "fuels": {
        "gazole": 1.436,
        "sp95": 1.441
      }
    },
    {
      "id": "12836",
      "cp": "50130",
      "ville": "Belchite",
      "adresse": "Camino Las lavanderas, S/N",
      "brand": "Cooperativa San Martin",
      "lat": 41.310306,
      "lng": -0.744667,
      "fuels": {
        "gazole": 1.519,
        "sp95": 1.549
      }
    },
    {
      "id": "1513",
      "cp": "50130",
      "ville": "Belchite",
      "adresse": "Carretera A 222 km. 28,800",
      "brand": "Repsol",
      "lat": 41.309667,
      "lng": -0.742333,
      "fuels": {
        "gazole": 1.639,
        "sp95": 1.629,
        "sp98": 1.759
      }
    },
    {
      "id": "1470",
      "cp": "50695",
      "ville": "Biota",
      "adresse": "Carretera La Estacion S/N km. 1",
      "brand": "Moeve",
      "lat": 42.260639,
      "lng": -1.194694,
      "fuels": {
        "gazole": 1.64,
        "sp95": 1.618
      }
    },
    {
      "id": "11844",
      "cp": "50540",
      "ville": "Borja",
      "adresse": "Calle Barbalanca-cenicero, S/N",
      "brand": "Bola",
      "lat": 41.832806,
      "lng": -1.516611,
      "fuels": {
        "gazole": 1.45,
        "sp95": 1.45
      }
    },
    {
      "id": "10930",
      "cp": "50540",
      "ville": "Borja",
      "adresse": "Carretera Ainzon km. 2",
      "brand": "Coop Borja",
      "lat": 41.831639,
      "lng": -1.528278,
      "fuels": {
        "gazole": 1.47,
        "sp95": 1.475
      }
    },
    {
      "id": "9311",
      "cp": "50540",
      "ville": "Borja",
      "adresse": "Carretera Canto Coral km. 62",
      "brand": "Estacion De Servicio Moncayo",
      "lat": 41.832,
      "lng": -1.520611,
      "fuels": {
        "gazole": 1.599,
        "sp95": 1.579
      }
    },
    {
      "id": "1388",
      "cp": "50246",
      "ville": "Brea De Aragon",
      "adresse": "Calle oriente, 26",
      "brand": "Repsol",
      "lat": 41.521917,
      "lng": -1.599833,
      "fuels": {
        "gazole": 1.609,
        "sp95": 1.605
      }
    },
    {
      "id": "9016",
      "cp": "50177",
      "ville": "Bujaraloz",
      "adresse": "Calle extramuros, 0",
      "brand": "Senersa s.l",
      "lat": 41.498333,
      "lng": -0.148083,
      "fuels": {
        "gazole": 1.39,
        "sp95": 1.405
      }
    },
    {
      "id": "1260",
      "cp": "50177",
      "ville": "Bujaraloz",
      "adresse": "ctra. De sastago, S/N",
      "brand": "Bonarea",
      "lat": 41.475944,
      "lng": -0.153111,
      "fuels": {
        "gazole": 1.299,
        "sp95": 1.311
      }
    },
    {
      "id": "1535",
      "cp": "50730",
      "ville": "Burgo De Ebro (el)",
      "adresse": "Autovia A-68 km. 225,2",
      "brand": "Repsol",
      "lat": 41.583361,
      "lng": -0.774694,
      "fuels": {
        "gazole": 1.609,
        "sp95": 1.655,
        "sp98": 1.835
      }
    },
    {
      "id": "12549",
      "cp": "50420",
      "ville": "Cadrete",
      "adresse": "Avenida zaragoza, 35",
      "brand": "Mg",
      "lat": 41.561667,
      "lng": -0.967,
      "fuels": {
        "gazole": 1.569,
        "sp95": 1.499,
        "sp98": 1.599
      }
    },
    {
      "id": "9253",
      "cp": "50300",
      "ville": "Calatayud",
      "adresse": "Autovia A-2 km. 231",
      "brand": "e.s. Valdeherrera",
      "lat": 41.324611,
      "lng": -1.667611,
      "fuels": {
        "gazole": 1.635,
        "sp95": 1.679,
        "sp98": 1.839
      }
    },
    {
      "id": "1990",
      "cp": "50300",
      "ville": "Calatayud",
      "adresse": "Avenida Fuerzas armadas, S/N",
      "brand": "Moeve",
      "lat": 41.3555,
      "lng": -1.62025,
      "fuels": {
        "gazole": 1.649,
        "sp95": 1.649,
        "sp98": 1.799
      }
    },
    {
      "id": "1360",
      "cp": "50300",
      "ville": "Calatayud",
      "adresse": "Avenida Fuerzas armadas, Sn",
      "brand": "Alcampo",
      "lat": 41.353,
      "lng": -1.631528,
      "fuels": {
        "gazole": 1.355,
        "sp95": 1.346,
        "sp98": 1.509
      }
    },
    {
      "id": "1428",
      "cp": "50300",
      "ville": "Calatayud",
      "adresse": "Avenida Ramon Y cajal, S/N",
      "brand": "Repsol",
      "lat": 41.352139,
      "lng": -1.646528,
      "fuels": {
        "gazole": 1.619,
        "sp95": 1.669,
        "sp98": 1.839
      }
    },
    {
      "id": "15063",
      "cp": "50300",
      "ville": "Calatayud",
      "adresse": "Calle Carretera De valencia,, 6",
      "brand": "Bonarea",
      "lat": 41.343528,
      "lng": -1.641861,
      "fuels": {
        "gazole": 1.304,
        "sp95": 1.316
      }
    },
    {
      "id": "1985",
      "cp": "50300",
      "ville": "Calatayud",
      "adresse": "Carretera A-2 km. 239,75",
      "brand": "Bp",
      "lat": 41.364917,
      "lng": -1.586583,
      "fuels": {
        "gazole": 1.619,
        "sp95": 1.649,
        "sp98": 1.799
      }
    },
    {
      "id": "1356",
      "cp": "50300",
      "ville": "Calatayud",
      "adresse": "Carretera Avda/ Fuerzas Armadas S/N km. S/N",
      "brand": "q8",
      "lat": 41.353083,
      "lng": -1.630278,
      "fuels": {
        "gazole": 1.519,
        "sp95": 1.499
      }
    },
    {
      "id": "1385",
      "cp": "50300",
      "ville": "Calatayud",
      "adresse": "Carretera N-234 km. 256,4",
      "brand": "Repsol",
      "lat": 41.335389,
      "lng": -1.642778,
      "fuels": {
        "gazole": 1.625,
        "sp95": 1.669,
        "sp98": 1.799
      }
    },
    {
      "id": "10708",
      "cp": "50300",
      "ville": "Calatayud",
      "adresse": "Poligono La charluca, Calle a, 171",
      "brand": "La Charluca Es",
      "lat": 41.327472,
      "lng": -1.643,
      "fuels": {
        "gazole": 1.559,
        "sp95": 1.589
      }
    },
    {
      "id": "1502",
      "cp": "50280",
      "ville": "Calatorao",
      "adresse": "Autopista A-2 km. 276,9",
      "brand": "Moeve",
      "lat": 41.50175,
      "lng": -1.32125,
      "fuels": {
        "gazole": 1.639,
        "sp95": 1.659
      }
    },
    {
      "id": "1377",
      "cp": "50280",
      "ville": "Calatorao",
      "adresse": "Autovia A-2 km. 280,100",
      "brand": "Repsol",
      "lat": 41.5165,
      "lng": -1.288111,
      "fuels": {
        "gazole": 1.645,
        "sp95": 1.659,
        "sp98": 1.789
      }
    },
    {
      "id": "1376",
      "cp": "50280",
      "ville": "Calatorao",
      "adresse": "Autovia A-2 km. 281,6",
      "brand": "Repsol",
      "lat": 41.524333,
      "lng": -1.273361,
      "fuels": {
        "gazole": 1.645,
        "sp95": 1.659,
        "sp98": 1.789
      }
    },
    {
      "id": "9940",
      "cp": "50280",
      "ville": "Calatorao",
      "adresse": "Avenida monares, 1",
      "brand": "Bodega Santo Cristo",
      "lat": 41.519417,
      "lng": -1.350722,
      "fuels": {
        "gazole": 1.569
      }
    },
    {
      "id": "1456",
      "cp": "50280",
      "ville": "Calatorao",
      "adresse": "Calle Doctor carnicero, S/N",
      "brand": "Calatorao Es",
      "lat": 41.523639,
      "lng": -1.348194,
      "fuels": {
        "gazole": 1.589,
        "sp95": 1.609
      }
    },
    {
      "id": "1464",
      "cp": "50400",
      "ville": "Cariñena",
      "adresse": "Carretera N-330 km. 449,6",
      "brand": "Moeve",
      "lat": 41.335639,
      "lng": -1.219639,
      "fuels": {
        "gazole": 1.618,
        "sp95": 1.651
      }
    },
    {
      "id": "11882",
      "cp": "50400",
      "ville": "Cariñena",
      "adresse": "Carretera N-330 km. 46,00",
      "brand": "Deca 2006 ",
      "lat": 41.361111,
      "lng": -1.208056,
      "fuels": {
        "gazole": 1.569,
        "sp95": 1.589
      }
    },
    {
      "id": "12002",
      "cp": "50720",
      "ville": "Cartuja Baja",
      "adresse": "Autovia ctra. Castellon ( A 68) km. 233,150",
      "brand": "Bp",
      "lat": 41.623167,
      "lng": -0.845917,
      "fuels": {
        "gazole": 1.639,
        "sp95": 1.639,
        "sp98": 1.779,
        "gplc": 0.829
      }
    },
    {
      "id": "1505",
      "cp": "50013",
      "ville": "Cartuja Baja",
      "adresse": "Carretera Castellon km. 3,7",
      "brand": "Bp Avellanas",
      "lat": 41.622861,
      "lng": -0.846444,
      "fuels": {
        "gazole": 1.639,
        "sp95": 1.639,
        "sp98": 1.779
      }
    },
    {
      "id": "1497",
      "cp": "50720",
      "ville": "Cartuja Baja",
      "adresse": "Carretera N-232 km. 229,2",
      "brand": "Cepsa",
      "lat": 41.60075,
      "lng": -0.816361,
      "fuels": {
        "gazole": 1.625,
        "sp95": 1.595
      }
    },
    {
      "id": "11371",
      "cp": "50720",
      "ville": "Cartuja Baja",
      "adresse": "crta.a-68 Km 231,170",
      "brand": "Shell",
      "lat": 41.611111,
      "lng": -0.835,
      "fuels": {
        "gazole": 1.579,
        "sp95": 1.619,
        "sp98": 1.759
      }
    },
    {
      "id": "1479",
      "cp": "50700",
      "ville": "Caspe",
      "adresse": "Avenida Costa joaquin, 3",
      "brand": "Cepsa",
      "lat": 41.235944,
      "lng": -0.04375,
      "fuels": {
        "gazole": 1.618,
        "sp95": 1.596,
        "sp98": 1.788
      }
    },
    {
      "id": "1247",
      "cp": "50700",
      "ville": "Caspe",
      "adresse": "Avenida maella, 56,5",
      "brand": "ganar, s. coop.",
      "lat": 41.227694,
      "lng": -0.029944,
      "fuels": {
        "gazole": 1.296,
        "sp95": 1.31
      }
    },
    {
      "id": "1370",
      "cp": "50700",
      "ville": "Caspe",
      "adresse": "Carretera A-230 km. 1,8",
      "brand": "Repsol",
      "lat": 41.249056,
      "lng": -0.067917,
      "fuels": {
        "gazole": 1.629,
        "sp95": 1.639,
        "sp98": 1.749
      }
    },
    {
      "id": "16082",
      "cp": "50700",
      "ville": "Caspe",
      "adresse": "Poligono Ind- Los arcos, S/N",
      "brand": "Bonarea",
      "lat": 41.232778,
      "lng": -0.058694,
      "fuels": {
        "gazole": 1.3,
        "sp95": 1.313
      }
    },
    {
      "id": "1519",
      "cp": "50292",
      "ville": "Cetina",
      "adresse": "Autovia Autovia Del  Nordeste km. 202",
      "brand": "Repsol",
      "lat": 41.302944,
      "lng": -1.945833,
      "fuels": {
        "gazole": 1.585,
        "sp95": 1.619,
        "sp98": 1.739
      }
    },
    {
      "id": "1520",
      "cp": "50292",
      "ville": "Cetina",
      "adresse": "Autovia Nordeste km. 202",
      "brand": "Repsol",
      "lat": 41.303611,
      "lng": -1.946278,
      "fuels": {
        "gazole": 1.585,
        "sp95": 1.619,
        "sp98": 1.739
      }
    },
    {
      "id": "1382",
      "cp": "50292",
      "ville": "Cetina",
      "adresse": "Carretera Enlace Autovia Aragon km. 200",
      "brand": "Avia",
      "lat": 41.305917,
      "lng": -1.964361,
      "fuels": {
        "gazole": 1.559,
        "sp95": 1.579
      }
    },
    {
      "id": "14652",
      "cp": "50830",
      "ville": "Comercio (el)",
      "adresse": "Carretera a23 Pg Ind 28 Parcela 49 km. 304",
      "brand": "Moeve",
      "lat": 41.778472,
      "lng": -0.8305,
      "fuels": {
        "gazole": 1.619,
        "sp95": 1.639,
        "sp98": 1.749
      }
    },
    {
      "id": "13416",
      "cp": "50410",
      "ville": "Cuarte De Huerva",
      "adresse": "Avenida San jose, 69",
      "brand": "Low Cost Repost",
      "lat": 41.599139,
      "lng": -0.925667,
      "fuels": {
        "gazole": 1.449,
        "sp95": 1.459
      }
    },
    {
      "id": "14127",
      "cp": "50410",
      "ville": "Cuarte De Huerva",
      "adresse": "Calle Fontana De trevi, 247",
      "brand": "Monte Aluma",
      "lat": 41.5865,
      "lng": -0.940194,
      "fuels": {
        "gazole": 1.448,
        "sp95": 1.458
      }
    },
    {
      "id": "11105",
      "cp": "50410",
      "ville": "Cuarte De Huerva",
      "adresse": "Carretera Valencia km. 8",
      "brand": "Cepsa",
      "lat": 41.595167,
      "lng": -0.941361,
      "fuels": {
        "gazole": 1.577,
        "sp95": 1.581,
        "sp98": 1.773
      }
    },
    {
      "id": "12257",
      "cp": "50410",
      "ville": "Cuarte De Huerva",
      "adresse": "Carretera Valencia km. 8,8",
      "brand": "Plenergy",
      "lat": 41.587722,
      "lng": -0.948944,
      "fuels": {
        "gazole": 1.289,
        "sp95": 1.299
      }
    },
    {
      "id": "1448",
      "cp": "50360",
      "ville": "Daroca",
      "adresse": "Cr N-234, 220,2",
      "brand": "Repsol",
      "lat": 41.117167,
      "lng": -1.406028,
      "fuels": {
        "gazole": 1.629,
        "sp95": 1.635,
        "sp98": 1.815
      }
    },
    {
      "id": "1461",
      "cp": "50600",
      "ville": "Ejea De Los Caballeros",
      "adresse": "Carretera A-127 km. 31,5",
      "brand": "Laboil",
      "lat": 42.118389,
      "lng": -1.142861,
      "fuels": {
        "gazole": 1.495,
        "sp95": 1.459
      }
    },
    {
      "id": "1473",
      "cp": "50600",
      "ville": "Ejea De Los Caballeros",
      "adresse": "Carretera A-127 km. 32,3",
      "brand": "Plenergy",
      "lat": 42.126806,
      "lng": -1.144528,
      "fuels": {
        "gazole": 1.409,
        "sp95": 1.369
      }
    },
    {
      "id": "11419",
      "cp": "50600",
      "ville": "Ejea De Los Caballeros",
      "adresse": "Carretera Erla km. 70",
      "brand": "Alcampo",
      "lat": 42.130639,
      "lng": -1.127917,
      "fuels": {
        "gazole": 1.414,
        "sp95": 1.369,
        "sp98": 1.779
      }
    },
    {
      "id": "10528",
      "cp": "50600",
      "ville": "Ejea De Los Caballeros",
      "adresse": "ctra. Tudela Km 1.300",
      "brand": "coop. Virgen Oliva",
      "lat": 42.130281,
      "lng": -1.157506,
      "fuels": {
        "gazole": 1.436,
        "sp95": 1.441
      }
    },
    {
      "id": "1973",
      "cp": "50600",
      "ville": "Ejea De Los Caballeros",
      "adresse": "Paseo De La constitucion, s.n.",
      "brand": "Repsol",
      "lat": 42.127861,
      "lng": -1.130389,
      "fuels": {
        "gazole": 1.639,
        "sp95": 1.659,
        "sp98": 1.789
      }
    },
    {
      "id": "11081",
      "cp": "50600",
      "ville": "Ejea De Los Caballeros",
      "adresse": "Poligono valdeferrin, 61",
      "brand": "Laboil",
      "lat": 42.130278,
      "lng": -1.167194,
      "fuels": {
        "gazole": 1.495,
        "sp95": 1.459
      }
    },
    {
      "id": "11486",
      "cp": "50290",
      "ville": "Epila",
      "adresse": "Autovia A-2 (mrg.izdo.) km. 285",
      "brand": "Moeve",
      "lat": 41.538528,
      "lng": -1.242167,
      "fuels": {
        "gazole": 1.607,
        "sp95": 1.607,
        "sp98": 1.799,
        "gplc": 1.133
      }
    },
    {
      "id": "1471",
      "cp": "50290",
      "ville": "Epila",
      "adresse": "Autovia A-2 km. 285",
      "brand": "Moeve",
      "lat": 41.540417,
      "lng": -1.233833,
      "fuels": {
        "gazole": 1.529,
        "sp95": 1.524
      }
    },
    {
      "id": "1265",
      "cp": "50290",
      "ville": "Epila",
      "adresse": "Carretera Muel km. 64",
      "brand": "e.s.epila",
      "lat": 41.59475,
      "lng": -1.274806,
      "fuels": {
        "gazole": 1.429,
        "sp95": 1.409,
        "sp98": 1.599
      }
    },
    {
      "id": "15732",
      "cp": "50290",
      "ville": "Epila",
      "adresse": "Carretera Muel-Plataforma Logistica Bonarea km. 288",
      "brand": "Bonarea",
      "lat": 41.553806,
      "lng": -1.208694,
      "fuels": {
        "gazole": 1.302,
        "sp95": 1.314
      }
    },
    {
      "id": "11853",
      "cp": "50290",
      "ville": "Epila",
      "adresse": "Poligono valdemuel, Sn",
      "brand": "Cooperativa San Pedro Arbues",
      "lat": 41.5955,
      "lng": -1.273194,
      "fuels": {
        "gazole": 1.429,
        "sp95": 1.409
      }
    },
    {
      "id": "9639",
      "cp": "50611",
      "ville": "Erla",
      "adresse": "Avenida goya, 10",
      "brand": "Petronor",
      "lat": 42.114389,
      "lng": -0.947806,
      "fuels": {
        "gazole": 1.585,
        "sp95": 1.605
      }
    },
    {
      "id": "12415",
      "cp": "50163",
      "ville": "Farlete",
      "adresse": "Calle Horno (del), 1",
      "brand": "Cooperativa",
      "lat": 41.681028,
      "lng": -0.506944,
      "fuels": {
        "gazole": 1.45
      }
    },
    {
      "id": "11699",
      "cp": "50795",
      "ville": "Fayon",
      "adresse": "Calle Carretera De ronda, 0",
      "brand": "No Tiene",
      "lat": 41.244944,
      "lng": 0.332444,
      "fuels": {
        "gazole": 1.625,
        "sp95": 1.597
      }
    },
    {
      "id": "1258",
      "cp": "50320",
      "ville": "Frasno (el)",
      "adresse": "Autovia Autovia Aragon km. 253",
      "brand": "Mlc Aluenda",
      "lat": 41.414806,
      "lng": -1.516972,
      "fuels": {
        "gazole": 1.609,
        "sp95": 1.589,
        "gplc": 0.999
      }
    },
    {
      "id": "1534",
      "cp": "50529",
      "ville": "Fuendejalon",
      "adresse": "A-121 Km 8,1",
      "brand": "Repsol",
      "lat": 41.762833,
      "lng": -1.475639,
      "fuels": {
        "gazole": 1.619,
        "sp95": 1.605
      }
    },
    {
      "id": "9604",
      "cp": "50740",
      "ville": "Fuentes De Ebro",
      "adresse": "N-232 Km 209,100",
      "brand": "Cova",
      "lat": 41.50675,
      "lng": -0.615611,
      "fuels": {
        "gazole": 1.45
      }
    },
    {
      "id": "1431",
      "cp": "50740",
      "ville": "Fuentes De Ebro",
      "adresse": "Paseo Justicia (del), 1",
      "brand": "Repsol",
      "lat": 41.514972,
      "lng": -0.63675,
      "fuels": {
        "gazole": 1.579,
        "sp95": 1.629,
        "sp98": 1.849
      }
    },
    {
      "id": "1414",
      "cp": "50650",
      "ville": "Gallur",
      "adresse": "Autopista Ap-68 km. 254",
      "brand": "Repsol",
      "lat": 41.832972,
      "lng": -1.319722,
      "fuels": {
        "gazole": 1.599,
        "sp95": 1.625,
        "sp98": 1.755
      }
    },
    {
      "id": "1413",
      "cp": "50650",
      "ville": "Gallur",
      "adresse": "Autopista Ap-68 km. 254",
      "brand": "Repsol",
      "lat": 41.834472,
      "lng": -1.32,
      "fuels": {
        "gazole": 1.599,
        "sp95": 1.625,
        "sp98": 1.755
      }
    },
    {
      "id": "8994",
      "cp": "50650",
      "ville": "Gallur",
      "adresse": "Calle afueras, S/N",
      "brand": "Cosanpe",
      "lat": 41.862528,
      "lng": -1.312944,
      "fuels": {
        "gazole": 1.44,
        "sp95": 1.46
      }
    },
    {
      "id": "1468",
      "cp": "50650",
      "ville": "Gallur",
      "adresse": "Carretera N-232 km. 286",
      "brand": "Avia",
      "lat": 41.846111,
      "lng": -1.355389,
      "fuels": {
        "gazole": 1.606,
        "sp95": 1.628
      }
    },
    {
      "id": "1458",
      "cp": "50190",
      "ville": "Garrapinillos",
      "adresse": "Autovia A-2 km. 306,0",
      "brand": "Galp",
      "lat": 41.618389,
      "lng": -1.042444,
      "fuels": {
        "gazole": 1.609,
        "sp95": 1.634
      }
    },
    {
      "id": "1987",
      "cp": "50190",
      "ville": "Garrapinillos",
      "adresse": "Autovia Almenareta-2 km. 0",
      "brand": "Galp",
      "lat": 41.6155,
      "lng": -1.058833,
      "fuels": {
        "gazole": 1.609,
        "sp95": 1.634
      }
    },
    {
      "id": "1483",
      "cp": "50190",
      "ville": "Garrapinillos",
      "adresse": "Carretera N-125 km. 5,6",
      "brand": "Moeve",
      "lat": 41.663639,
      "lng": -0.983306,
      "fuels": {
        "gazole": 1.618,
        "sp95": 1.618,
        "sp98": 1.81
      }
    },
    {
      "id": "1475",
      "cp": "50190",
      "ville": "Garrapinillos",
      "adresse": "N-232 Km 249,4",
      "brand": "Repsol",
      "lat": 41.695306,
      "lng": -0.990167,
      "fuels": {
        "gazole": 1.609,
        "sp95": 1.629
      }
    },
    {
      "id": "11519",
      "cp": "50190",
      "ville": "Garrapinillos",
      "adresse": "Ronda Canal Imperial De aragon, 8",
      "brand": "Family Energy",
      "lat": 41.651444,
      "lng": -0.981111,
      "fuels": {
        "gazole": 1.289,
        "sp95": 1.299,
        "sp98": 1.429
      }
    },
    {
      "id": "1498",
      "cp": "50250",
      "ville": "Illueca",
      "adresse": "Carretera A-1503 km. 20,1",
      "brand": "Cepsa",
      "lat": 41.531944,
      "lng": -1.618056,
      "fuels": {
        "gazole": 1.579,
        "sp95": 1.599
      }
    },
    {
      "id": "10915",
      "cp": "50250",
      "ville": "Illueca",
      "adresse": "ctra. A-1503, p.k. 22,800 (a-1503-Circunvalacion Km 22.800)",
      "brand": "D P S",
      "lat": 41.531694,
      "lng": -1.626861,
      "fuels": {
        "gazole": 1.579,
        "sp95": 1.599,
        "sp98": 1.699
      }
    },
    {
      "id": "1371",
      "cp": "50692",
      "ville": "Joyosa (la)",
      "adresse": "Cr N 232 Km  257",
      "brand": "e.s. La Joyosa",
      "lat": 41.736972,
      "lng": -1.066694,
      "fuels": {
        "gazole": 1.629,
        "sp95": 1.609
      }
    },
    {
      "id": "14212",
      "cp": "50131",
      "ville": "Lecera",
      "adresse": "Calle dula, Sn",
      "brand": "An Energeticos s.l. - Lecera",
      "lat": 41.202194,
      "lng": -0.7085,
      "fuels": {
        "gazole": 1.539,
        "sp95": 1.495
      }
    },
    {
      "id": "1515",
      "cp": "50131",
      "ville": "Lecera",
      "adresse": "Carretera A-222 km. 40,700",
      "brand": "Es Ntra Sra Olivar",
      "lat": 41.208861,
      "lng": -0.710861,
      "fuels": {
        "gazole": 1.639,
        "sp95": 1.629,
        "sp98": 1.759
      }
    },
    {
      "id": "8986",
      "cp": "50160",
      "ville": "Leciñena",
      "adresse": "Carretera San Mateo nº 5 km. ",
      "brand": "coop. San Isidro Leciñena",
      "lat": 41.793333,
      "lng": -0.615167,
      "fuels": {
        "gazole": 1.51,
        "sp95": 1.45
      }
    },
    {
      "id": "11291",
      "cp": "50619",
      "ville": "Luesia",
      "adresse": "Carretera De Ejea-Luesia Km 31",
      "brand": "coop. San Esteban De Luesia",
      "lat": 42.360222,
      "lng": -1.022694,
      "fuels": {
        "gazole": 1.483,
        "sp95": 1.451
      }
    },
    {
      "id": "8996",
      "cp": "50295",
      "ville": "Lumpiaque",
      "adresse": "Avenida Constitucion De la, 11",
      "brand": "San Francisco De Asis",
      "lat": 41.633278,
      "lng": -1.300028,
      "fuels": {
        "gazole": 1.45
      }
    },
    {
      "id": "9925",
      "cp": "50610",
      "ville": "Luna",
      "adresse": "valdanias, 2",
      "brand": "Cooperativa De Luna",
      "lat": 42.164278,
      "lng": -0.9365,
      "fuels": {
        "gazole": 1.4
      }
    },
    {
      "id": "10012",
      "cp": "50710",
      "ville": "Maella",
      "adresse": "Avenida aragon, 110",
      "brand": "Magalia energia, s.l.",
      "lat": 41.119806,
      "lng": 0.140306,
      "fuels": {
        "gazole": 1.45
      }
    },
    {
      "id": "8195",
      "cp": "50710",
      "ville": "Maella",
      "adresse": "Avenida caspe, 1",
      "brand": "e.s.maella",
      "lat": 41.12525,
      "lng": 0.135444,
      "fuels": {
        "gazole": 1.478,
        "sp95": 1.41,
        "sp98": 1.627
      }
    },
    {
      "id": "9754",
      "cp": "50520",
      "ville": "Magallon",
      "adresse": "Calle Joaquin costa, 8",
      "brand": "Santo Cristo De Magallon s.c.c.",
      "lat": 41.830417,
      "lng": -1.463611,
      "fuels": {
        "gazole": 1.509
      }
    },
    {
      "id": "10114",
      "cp": "50550",
      "ville": "Mallen",
      "adresse": "Calle Juan Carlos I Rey De españa, 20",
      "brand": "Cooperativa Comarcal Stmo Cristo De La Columna",
      "lat": 41.903278,
      "lng": -1.419667,
      "fuels": {
        "gazole": 1.498,
        "sp95": 1.508
      }
    },
    {
      "id": "1516",
      "cp": "50430",
      "ville": "Maria De Huerva",
      "adresse": "Cr N-330, 480,3",
      "brand": "Repsol",
      "lat": 41.539889,
      "lng": -0.996556,
      "fuels": {
        "gazole": 1.635,
        "sp95": 1.659,
        "sp98": 1.829
      }
    },
    {
      "id": "1531",
      "cp": "50164",
      "ville": "Monegrillo",
      "adresse": "Carretera A-1104 km. 26,1",
      "brand": "Repsol",
      "lat": 41.637972,
      "lng": -0.419389,
      "fuels": {
        "gazole": 1.585,
        "sp95": 1.609
      }
    },
    {
      "id": "14989",
      "cp": "50291",
      "ville": "Monreal De Ariza",
      "adresse": "Autovia Del Nordeste km. 186",
      "brand": "Bp",
      "lat": 41.30725,
      "lng": -2.122833,
      "fuels": {
        "gazole": 1.579,
        "sp95": 1.579
      }
    },
    {
      "id": "1496",
      "cp": "50194",
      "ville": "Movera",
      "adresse": "Carretera N-Ii A km. 329,647",
      "brand": "Moeve",
      "lat": 41.658944,
      "lng": -0.80725,
      "fuels": {
        "gazole": 1.64,
        "sp95": 1.618
      }
    },
    {
      "id": "13784",
      "cp": "50540",
      "ville": "Muel",
      "adresse": "Carretera A-1101 km. 13,000",
      "brand": "Repsol",
      "lat": 41.471111,
      "lng": -1.099722,
      "fuels": {
        "gazole": 1.629,
        "sp95": 1.665,
        "sp98": 1.795
      }
    },
    {
      "id": "1250",
      "cp": "50196",
      "ville": "Muela (la)",
      "adresse": "A ii, Km Km 299,3",
      "brand": "Shell",
      "lat": 41.58575,
      "lng": -1.099611,
      "fuels": {
        "gazole": 1.619,
        "sp95": 1.639,
        "sp98": 1.779
      }
    },
    {
      "id": "11028",
      "cp": "50196",
      "ville": "Muela (la)",
      "adresse": "Avenida Justicia De aragon, 33",
      "brand": "Cosanclemente",
      "lat": 41.581722,
      "lng": -1.113917,
      "fuels": {
        "gazole": 1.478
      }
    },
    {
      "id": "11780",
      "cp": "50196",
      "ville": "Muela (la)",
      "adresse": "Calle Santo domingo, 14",
      "brand": "Bola",
      "lat": 41.616861,
      "lng": -1.067556,
      "fuels": {
        "gazole": 1.57,
        "sp95": 1.61
      }
    },
    {
      "id": "1266",
      "cp": "50196",
      "ville": "Muela (la)",
      "adresse": "Paseo Reina sofia, 13",
      "brand": "e.s.la Muela",
      "lat": 41.579444,
      "lng": -1.113083,
      "fuels": {
        "gazole": 1.489,
        "sp95": 1.468,
        "sp98": 1.599
      }
    },
    {
      "id": "1503",
      "cp": "50196",
      "ville": "Muela (la)",
      "adresse": "Poligono Poligono Industrial 5, Parcela 20 (a-2 Pk 306), 20",
      "brand": "Moeve",
      "lat": 41.605778,
      "lng": -1.077278,
      "fuels": {
        "gazole": 1.629,
        "sp95": 1.651
      }
    },
    {
      "id": "13060",
      "cp": "50219",
      "ville": "Munebrega",
      "adresse": "Carretera a202 km. 14,100",
      "brand": "El Plano",
      "lat": 41.247056,
      "lng": -1.705,
      "fuels": {
        "gazole": 1.59,
        "sp95": 1.64
      }
    },
    {
      "id": "11820",
      "cp": "50794",
      "ville": "Nonaspe",
      "adresse": "Avenida Orbe cano, 1",
      "brand": "Carburantes nonaspe, Sl",
      "lat": 41.208861,
      "lng": 0.250611,
      "fuels": {
        "gazole": 1.56
      }
    },
    {
      "id": "11885",
      "cp": "50510",
      "ville": "Novallas",
      "adresse": "Poligono El Navallo Parcela b2, S/N",
      "brand": "coop. ntra.sra. Pilar",
      "lat": 41.948917,
      "lng": -1.698444,
      "fuels": {
        "gazole": 1.5,
        "sp95": 1.49
      }
    },
    {
      "id": "9068",
      "cp": "50810",
      "ville": "Ontinar De Salz",
      "adresse": "Calle cooperativa, 2",
      "brand": "Cooperativa San Isidro",
      "lat": 41.93875,
      "lng": -0.757611,
      "fuels": {
        "gazole": 1.5,
        "sp95": 1.48
      }
    },
    {
      "id": "10158",
      "cp": "50690",
      "ville": "Pedrola",
      "adresse": "Carretera N-232 km. 271,200",
      "brand": "Moeve",
      "lat": 41.773528,
      "lng": -1.216306,
      "fuels": {
        "gazole": 1.607,
        "sp95": 1.629
      }
    },
    {
      "id": "10157",
      "cp": "50690",
      "ville": "Pedrola",
      "adresse": "Carretera N-232 km. 271,200",
      "brand": "Moeve",
      "lat": 41.772806,
      "lng": -1.216889,
      "fuels": {
        "gazole": 1.607,
        "sp95": 1.629
      }
    },
    {
      "id": "10987",
      "cp": "50690",
      "ville": "Pedrola",
      "adresse": "Carretera N-232 km. 276",
      "brand": "Beroil",
      "lat": 41.802472,
      "lng": -1.256222,
      "fuels": {
        "gazole": 1.469,
        "sp95": 1.499
      }
    },
    {
      "id": "1975",
      "cp": "50690",
      "ville": "Pedrola",
      "adresse": "Carretera Nacional 232 km. 276",
      "brand": "Repsol",
      "lat": 41.802611,
      "lng": -1.256278,
      "fuels": {
        "gazole": 1.599,
        "sp95": 1.609,
        "sp98": 1.789
      }
    },
    {
      "id": "1259",
      "cp": "50193",
      "ville": "Peñaflor",
      "adresse": "Carretera a123 km. 10,4",
      "brand": "Moeve",
      "lat": 41.750806,
      "lng": -0.801806,
      "fuels": {
        "gazole": 1.597,
        "sp95": 1.62
      }
    },
    {
      "id": "1484",
      "cp": "50161",
      "ville": "Perdiguera",
      "adresse": "Carretera A-129 km. 18,500",
      "brand": "Sin Rotulo",
      "lat": 41.74825,
      "lng": -0.639972,
      "fuels": {
        "gazole": 1.575,
        "sp95": 1.605,
        "sp98": 1.789
      }
    },
    {
      "id": "1992",
      "cp": "50750",
      "ville": "Pina De Ebro",
      "adresse": "Autopista Ap-2(mrg.dcho.) km. 47,7",
      "brand": "Cepsa",
      "lat": 41.52425,
      "lng": -0.395306,
      "fuels": {
        "gazole": 1.618,
        "sp95": 1.651,
        "sp98": 1.821
      }
    },
    {
      "id": "1991",
      "cp": "50750",
      "ville": "Pina De Ebro",
      "adresse": "Autopista Ap-2(mrg.izdo.) km. 47,7",
      "brand": "Cepsa",
      "lat": 41.525889,
      "lng": -0.397806,
      "fuels": {
        "gazole": 1.618,
        "sp95": 1.651,
        "sp98": 1.821
      }
    },
    {
      "id": "1528",
      "cp": "50750",
      "ville": "Pina De Ebro",
      "adresse": "Calle Fernando El catolico, 56",
      "brand": "Repsol",
      "lat": 41.492778,
      "lng": -0.520222,
      "fuels": {
        "gazole": 1.585,
        "sp95": 1.629
      }
    },
    {
      "id": "9061",
      "cp": "50750",
      "ville": "Pina De Ebro",
      "adresse": "Carretera a1107 km. 2,51",
      "brand": "Pina De Ebro - An Energeticos",
      "lat": 41.495222,
      "lng": -0.512944,
      "fuels": {
        "gazole": 1.448,
        "sp95": 1.425
      }
    },
    {
      "id": "1982",
      "cp": "50298",
      "ville": "Pinseque",
      "adresse": "Autopista A-68 km. 258,2",
      "brand": "Repsol",
      "lat": 41.738306,
      "lng": -1.076389,
      "fuels": {
        "gazole": 1.605,
        "sp95": 1.625,
        "sp98": 1.805
      }
    },
    {
      "id": "12855",
      "cp": "50298",
      "ville": "Pinseque",
      "adresse": "Avenida zaragoza, 58",
      "brand": "laboil, s.l.",
      "lat": 41.742472,
      "lng": -1.095944,
      "fuels": {
        "gazole": 1.379,
        "sp95": 1.359
      }
    },
    {
      "id": "9232",
      "cp": "50298",
      "ville": "Pinseque",
      "adresse": "Poligono Los leones, Parcelas 185-191",
      "brand": "Gasoleos Mercadaiz",
      "lat": 41.736028,
      "lng": -1.072611,
      "fuels": {
        "gazole": 1.425
      }
    },
    {
      "id": "1410",
      "cp": "50171",
      "ville": "Puebla De Alfinden (la)",
      "adresse": "Carretera A-2 km. 333,8",
      "brand": "Repsol",
      "lat": 41.640639,
      "lng": -0.754694,
      "fuels": {
        "gazole": 1.599,
        "sp95": 1.625,
        "sp98": 1.755,
        "gplc": 1.055
      }
    },
    {
      "id": "10682",
      "cp": "50171",
      "ville": "Puebla De Alfinden (la)",
      "adresse": "Carretera Nacional Ii  p.k. 335",
      "brand": "Repsol",
      "lat": 41.633611,
      "lng": -0.756556,
      "fuels": {
        "gazole": 1.615,
        "sp95": 1.635,
        "sp98": 1.815
      }
    },
    {
      "id": "1409",
      "cp": "50171",
      "ville": "Puebla De Alfinden (la)",
      "adresse": "Cr A-2, 333,8",
      "brand": "Repsol",
      "lat": 41.640722,
      "lng": -0.754611,
      "fuels": {
        "gazole": 1.599,
        "sp95": 1.625,
        "gplc": 1.035
      }
    },
    {
      "id": "9036",
      "cp": "50770",
      "ville": "Quinto",
      "adresse": "Carretera Castellon km. 197",
      "brand": "Sociedad Cooperativa Agraria Santa Ana",
      "lat": 41.435583,
      "lng": -0.507806,
      "fuels": {
        "gazole": 1.449,
        "sp95": 1.409
      }
    },
    {
      "id": "1433",
      "cp": "50770",
      "ville": "Quinto",
      "adresse": "Carretera N-232a km. 194",
      "brand": "Repsol",
      "lat": 41.432722,
      "lng": -0.504083,
      "fuels": {
        "gazole": 1.599,
        "sp95": 1.645
      }
    },
    {
      "id": "1517",
      "cp": "50637",
      "ville": "Remolinos",
      "adresse": "Carretera Alagon Tudela km. 9,700",
      "brand": "Repsol",
      "lat": 41.836167,
      "lng": -1.177194,
      "fuels": {
        "gazole": 1.599,
        "sp95": 1.605,
        "sp98": 1.785
      }
    },
    {
      "id": "9791",
      "cp": "50270",
      "ville": "Ricla",
      "adresse": "Carretera A-121 km. 37",
      "brand": "Repsol",
      "lat": 41.518472,
      "lng": -1.397111,
      "fuels": {
        "gazole": 1.645,
        "sp95": 1.645,
        "sp98": 1.825
      }
    },
    {
      "id": "12071",
      "cp": "50299",
      "ville": "Sabiñan",
      "adresse": "Carretera A-1503 km. 7,500",
      "brand": "No",
      "lat": 41.447222,
      "lng": -1.56025,
      "fuels": {
        "gazole": 1.609,
        "sp95": 1.559
      }
    },
    {
      "id": "1425",
      "cp": "50670",
      "ville": "Sadaba",
      "adresse": "Calle avda. Urruti candido, 2",
      "brand": "Coop San Jose - Sádaba",
      "lat": 42.283333,
      "lng": -1.272111,
      "fuels": {
        "gazole": 1.58,
        "sp95": 1.6
      }
    },
    {
      "id": "9095",
      "cp": "50670",
      "ville": "Sadaba",
      "adresse": "Carretera De Pinsoro km. 1",
      "brand": "Cooperativa San Jose ",
      "lat": 42.278611,
      "lng": -1.292778,
      "fuels": {
        "gazole": 1.5,
        "sp95": 1.45
      }
    },
    {
      "id": "1362",
      "cp": "50820",
      "ville": "San Juan De Mozarrifar",
      "adresse": "Carretera N-330 km. S/N",
      "brand": "Ids",
      "lat": 41.738667,
      "lng": -0.844917,
      "fuels": {
        "gazole": 1.657
      }
    },
    {
      "id": "10285",
      "cp": "50840",
      "ville": "San Mateo De Gallego",
      "adresse": "Carretera Santa Isabel - San Mateo km. 19,1",
      "brand": "coop. Virgen Del Rosario",
      "lat": 41.822944,
      "lng": -0.773944,
      "fuels": {
        "gazole": 1.51,
        "sp95": 1.449
      }
    },
    {
      "id": "9037",
      "cp": "50669",
      "ville": "Santa Engracia",
      "adresse": "Calle extramuros, S/N",
      "brand": "Cepsa",
      "lat": 41.943028,
      "lng": -1.326083,
      "fuels": {
        "gazole": 1.57
      }
    },
    {
      "id": "8982",
      "cp": "50612",
      "ville": "Sierra De Luna",
      "adresse": "Carretera Zuera-Luna km. 24,100",
      "brand": "Coop Sierra De Luna",
      "lat": 42.050222,
      "lng": -0.909278,
      "fuels": {
        "gazole": 1.436,
        "sp95": 1.441
      }
    },
    {
      "id": "1416",
      "cp": "50629",
      "ville": "Sobradiel",
      "adresse": "Au A-68, 283",
      "brand": "Repsol",
      "lat": 41.731639,
      "lng": -1.029833,
      "fuels": {
        "gazole": 1.599,
        "sp95": 1.625,
        "sp98": 1.755
      }
    },
    {
      "id": "1415",
      "cp": "50629",
      "ville": "Sobradiel",
      "adresse": "Au A-68, 283",
      "brand": "Petronor",
      "lat": 41.730583,
      "lng": -1.031417,
      "fuels": {
        "gazole": 1.599,
        "sp95": 1.625,
        "sp98": 1.755
      }
    },
    {
      "id": "1518",
      "cp": "50680",
      "ville": "Sos Del Rey Catolico",
      "adresse": "Carretera A-127 km. 89,00",
      "brand": "An Energeticos s,l - Sos Del Rey Catolico",
      "lat": 42.490944,
      "lng": -1.215111,
      "fuels": {
        "gazole": 1.489,
        "sp95": 1.479
      }
    },
    {
      "id": "1472",
      "cp": "50500",
      "ville": "Tarazona",
      "adresse": "Avenida Teresa cajal, 22",
      "brand": "Moeve",
      "lat": 41.893972,
      "lng": -1.721278,
      "fuels": {
        "gazole": 1.669,
        "sp95": 1.699,
        "sp98": 1.829
      }
    },
    {
      "id": "11557",
      "cp": "50500",
      "ville": "Tarazona",
      "adresse": "Calle castilla, Sn",
      "brand": "El Mayoria Combustibles",
      "lat": 41.8905,
      "lng": -1.709556,
      "fuels": {
        "sp95": 1.429
      }
    },
    {
      "id": "9011",
      "cp": "50500",
      "ville": "Tarazona",
      "adresse": "pg. cunchillos, S/N",
      "brand": "Cooperativa San Atilano",
      "lat": 41.906694,
      "lng": -1.714694,
      "fuels": {
        "gazole": 1.425,
        "sp95": 1.431
      }
    },
    {
      "id": "12162",
      "cp": "50660",
      "ville": "Tauste",
      "adresse": "Autopista A-126 km. 37,850",
      "brand": "laboil, s.l.",
      "lat": 41.893639,
      "lng": -1.245778,
      "fuels": {
        "gazole": 1.299,
        "sp95": 1.309,
        "sp98": 1.679
      }
    },
    {
      "id": "1446",
      "cp": "50660",
      "ville": "Tauste",
      "adresse": "Avenida constitucion, Sn",
      "brand": "Repsol",
      "lat": 41.925278,
      "lng": -1.254972,
      "fuels": {
        "gazole": 1.585,
        "sp95": 1.605,
        "sp98": 1.785
      }
    },
    {
      "id": "9351",
      "cp": "50660",
      "ville": "Tauste",
      "adresse": "Camino abarquillo, S/N",
      "brand": "Cooperativa San Miguel",
      "lat": 41.914,
      "lng": -1.259917,
      "fuels": {
        "sp95": 1.422
      }
    },
    {
      "id": "15322",
      "cp": "50660",
      "ville": "Tauste",
      "adresse": "Carretera Gallur-Sanguesa km. 11",
      "brand": "Saso De Mira s.l.",
      "lat": 41.956806,
      "lng": -1.238889,
      "fuels": {
        "gazole": 1.375
      }
    },
    {
      "id": "9807",
      "cp": "50660",
      "ville": "Tauste",
      "adresse": "Vía perimetral, S/N",
      "brand": "Bonarea",
      "lat": 41.912194,
      "lng": -1.255333,
      "fuels": {
        "gazole": 1.301,
        "sp95": 1.313
      }
    },
    {
      "id": "1529",
      "cp": "50296",
      "ville": "Urrea De Jalon",
      "adresse": "Av zaragoza, S/nº (a-122 Km 13,8)",
      "brand": "Repsol",
      "lat": 41.665806,
      "lng": -1.239167,
      "fuels": {
        "gazole": 1.599,
        "sp95": 1.599
      }
    },
    {
      "id": "1521",
      "cp": "50180",
      "ville": "Utebo",
      "adresse": "Autopista A-68 km. 246",
      "brand": "Repsol",
      "lat": 41.677167,
      "lng": -0.957889,
      "fuels": {
        "gazole": 1.609,
        "sp95": 1.629,
        "sp98": 1.809
      }
    },
    {
      "id": "1522",
      "cp": "50180",
      "ville": "Utebo",
      "adresse": "Autopista Autopista A-68 km. 246",
      "brand": "Repsol",
      "lat": 41.678639,
      "lng": -0.961806,
      "fuels": {
        "gazole": 1.609,
        "sp95": 1.629,
        "sp98": 1.809
      }
    },
    {
      "id": "1474",
      "cp": "50180",
      "ville": "Utebo",
      "adresse": "Autovia Carretera Nacional  232 km. 249,5",
      "brand": "Repsol",
      "lat": 41.695694,
      "lng": -0.989639,
      "fuels": {
        "gazole": 1.609,
        "sp95": 1.629,
        "sp98": 1.809
      }
    },
    {
      "id": "12983",
      "cp": "50180",
      "ville": "Utebo",
      "adresse": "Calle dinamarca, S/N",
      "brand": "Bonarea",
      "lat": 41.710833,
      "lng": -1.019611,
      "fuels": {
        "gazole": 1.3,
        "sp95": 1.312
      }
    },
    {
      "id": "1500",
      "cp": "50180",
      "ville": "Utebo",
      "adresse": "Carretera N-232a km. 250,9",
      "brand": "Cepsa",
      "lat": 41.703694,
      "lng": -1.004139,
      "fuels": {
        "gazole": 1.585,
        "sp95": 1.64
      }
    },
    {
      "id": "11348",
      "cp": "50180",
      "ville": "Utebo",
      "adresse": "Carretera Zaragoza-Logroño km. 12,300",
      "brand": "Alcampo",
      "lat": 41.701889,
      "lng": -1.001306,
      "fuels": {
        "gazole": 1.365,
        "sp95": 1.364,
        "sp98": 1.499
      }
    },
    {
      "id": "12004",
      "cp": "50490",
      "ville": "Villadoz",
      "adresse": "Autovia A 23 Somprt-Sagunto km. 215",
      "brand": "Bp",
      "lat": 41.17075,
      "lng": -1.292528,
      "fuels": {
        "gazole": 1.619,
        "sp95": 1.599,
        "sp98": 1.739
      }
    },
    {
      "id": "1383",
      "cp": "50162",
      "ville": "Villamayor",
      "adresse": "Carretera A-129 km. 4,1",
      "brand": "Repsol",
      "lat": 41.681361,
      "lng": -0.780861,
      "fuels": {
        "gazole": 1.609,
        "sp95": 1.619,
        "sp98": 1.799
      }
    },
    {
      "id": "8984",
      "cp": "50162",
      "ville": "Villamayor De Gallego",
      "adresse": "Camino molino, del, 105",
      "brand": "El Pueyo",
      "lat": 41.692917,
      "lng": -0.775972,
      "fuels": {
        "gazole": 1.567,
        "sp95": 1.577
      }
    },
    {
      "id": "14924",
      "cp": "50830",
      "ville": "Villanueva De Gallego",
      "adresse": "Calle Carretera zaragoza, Pg 29, Parcela 183, S/N",
      "brand": "Bonarea",
      "lat": 41.777417,
      "lng": -0.828444,
      "fuels": {
        "gazole": 1.3,
        "sp95": 1.312
      }
    },
    {
      "id": "1449",
      "cp": "50830",
      "ville": "Villanueva De Gallego",
      "adresse": "Carretera Carretera N-330 km. 513",
      "brand": "Repsol",
      "lat": 41.761472,
      "lng": -0.831278,
      "fuels": {
        "gazole": 1.629,
        "sp95": 1.639,
        "sp98": 1.769
      }
    },
    {
      "id": "12408",
      "cp": "50820",
      "ville": "Villanueva De Gallego",
      "adresse": "Poligono San miguel, 512",
      "brand": "Us San Miguel",
      "lat": 41.754444,
      "lng": -0.8375,
      "fuels": {
        "gazole": 1.399,
        "sp95": 1.399
      }
    },
    {
      "id": "1466",
      "cp": "50153",
      "ville": "Villanueva De Huerva",
      "adresse": "Carretera a1101 km. 16,5",
      "brand": "Cepsa",
      "lat": 41.350472,
      "lng": -1.038972,
      "fuels": {
        "gazole": 1.604,
        "sp95": 1.605
      }
    },
    {
      "id": "8275",
      "cp": "50692",
      "ville": "Villarrapa",
      "adresse": "Autovia A-68 km. 258,25",
      "brand": "Repsol",
      "lat": 41.740389,
      "lng": -1.078944,
      "fuels": {
        "gazole": 1.605,
        "sp95": 1.625,
        "sp98": 1.805
      }
    },
    {
      "id": "1394",
      "cp": "50310",
      "ville": "Villarroya De La Sierra",
      "adresse": "Calle gasca, 108",
      "brand": "Petronor",
      "lat": 41.466056,
      "lng": -1.787278,
      "fuels": {
        "gazole": 1.599,
        "sp95": 1.609,
        "sp98": 1.789
      }
    },
    {
      "id": "13290",
      "cp": "50010",
      "ville": "Zaragoza",
      "adresse": "Autovia A-2 km. 311",
      "brand": "Bonarea",
      "lat": 41.632583,
      "lng": -0.983889,
      "fuels": {
        "gazole": 1.3,
        "sp95": 1.312
      }
    },
    {
      "id": "1417",
      "cp": "50016",
      "ville": "Zaragoza",
      "adresse": "Autovia A-2 km. 328",
      "brand": "Oilprix",
      "lat": 41.667167,
      "lng": -0.813833,
      "fuels": {
        "gazole": 1.539,
        "sp95": 1.491
      }
    },
    {
      "id": "1501",
      "cp": "50015",
      "ville": "Zaragoza",
      "adresse": "Autovia A-23 km. 505",
      "brand": "Cepsa",
      "lat": 41.698889,
      "lng": -0.867667,
      "fuels": {
        "gazole": 1.607,
        "sp95": 1.618
      }
    },
    {
      "id": "1980",
      "cp": "50011",
      "ville": "Zaragoza",
      "adresse": "Autovia Logroño km. 0,3",
      "brand": "Repsol",
      "lat": 41.660139,
      "lng": -0.925194,
      "fuels": {
        "gazole": 1.629,
        "sp95": 1.639,
        "sp98": 1.759,
        "gplc": 1.189
      }
    },
    {
      "id": "14697",
      "cp": "50011",
      "ville": "Zaragoza",
      "adresse": "Autovia Logroño km. 243",
      "brand": "Repsol",
      "lat": 41.660778,
      "lng": -0.927083,
      "fuels": {
        "gazole": 1.629,
        "sp95": 1.639,
        "sp98": 1.759
      }
    },
    {
      "id": "1445",
      "cp": "50012",
      "ville": "Zaragoza",
      "adresse": "Autovia Madrid km. 309",
      "brand": "Repsol",
      "lat": 41.625083,
      "lng": -1.009972,
      "fuels": {
        "gazole": 1.639,
        "sp95": 1.659,
        "sp98": 1.769
      }
    },
    {
      "id": "1444",
      "cp": "50012",
      "ville": "Zaragoza",
      "adresse": "Autovia Madrid km. 309",
      "brand": "Repsol",
      "lat": 41.624556,
      "lng": -1.010028,
      "fuels": {
        "gazole": 1.639,
        "sp95": 1.659
      }
    },
    {
      "id": "1381",
      "cp": "50002",
      "ville": "Zaragoza",
      "adresse": "Avenida 3er cinturon, S/N",
      "brand": "Repsol",
      "lat": 41.644972,
      "lng": -0.857667,
      "fuels": {
        "gazole": 1.625,
        "sp95": 1.635,
        "sp98": 1.815
      }
    },
    {
      "id": "1495",
      "cp": "50014",
      "ville": "Zaragoza",
      "adresse": "Avenida Alcalde Caballero-Juan De La cierva, 60",
      "brand": "Moeve",
      "lat": 41.672528,
      "lng": -0.862111,
      "fuels": {
        "gazole": 1.558,
        "sp95": 1.578
      }
    },
    {
      "id": "1398",
      "cp": "50014",
      "ville": "Zaragoza",
      "adresse": "Avenida Alcalde caballero, 22",
      "brand": "Repsol",
      "lat": 41.670917,
      "lng": -0.861139,
      "fuels": {
        "gazole": 1.586,
        "sp95": 1.619,
        "sp98": 1.749
      }
    },
    {
      "id": "1493",
      "cp": "50008",
      "ville": "Zaragoza",
      "adresse": "Avenida Camino De Los torres, 2",
      "brand": "Moeve",
      "lat": 41.648556,
      "lng": -0.868222,
      "fuels": {
        "gazole": 1.558,
        "sp95": 1.588
      }
    },
    {
      "id": "11275",
      "cp": "50013",
      "ville": "Zaragoza",
      "adresse": "Avenida casablanca, 11",
      "brand": "Repsol",
      "lat": 41.622972,
      "lng": -0.939389,
      "fuels": {
        "gazole": 1.629,
        "sp95": 1.649
      }
    },
    {
      "id": "1267",
      "cp": "50014",
      "ville": "Zaragoza",
      "adresse": "Avenida Cataluña 254-258",
      "brand": "Shell",
      "lat": 41.667556,
      "lng": -0.851083,
      "fuels": {
        "gazole": 1.498,
        "sp95": 1.518,
        "sp98": 1.658
      }
    },
    {
      "id": "1432",
      "cp": "50014",
      "ville": "Zaragoza",
      "adresse": "Avenida cataluña, 44",
      "brand": "Dago",
      "lat": 41.660278,
      "lng": -0.868889,
      "fuels": {
        "gazole": 1.598,
        "sp95": 1.628,
        "sp98": 1.778
      }
    },
    {
      "id": "16379",
      "cp": "50197",
      "ville": "Zaragoza",
      "adresse": "Avenida De La diagonal, 12",
      "brand": "Plenergy",
      "lat": 41.635528,
      "lng": -0.989722,
      "fuels": {
        "gazole": 1.289,
        "sp95": 1.299
      }
    },
    {
      "id": "11276",
      "cp": "50197",
      "ville": "Zaragoza",
      "adresse": "Avenida Diagonal plaza, 13, 13",
      "brand": "Repsol",
      "lat": 41.636028,
      "lng": -0.991167,
      "fuels": {
        "gazole": 1.625,
        "sp95": 1.639,
        "sp98": 1.819
      }
    },
    {
      "id": "12289",
      "cp": "50197",
      "ville": "Zaragoza",
      "adresse": "Avenida Diagonal plaza, 22",
      "brand": "Repsol/ Casa Cosme",
      "lat": 41.636528,
      "lng": -0.990111,
      "fuels": {
        "gazole": 1.589,
        "sp95": 1.625
      }
    },
    {
      "id": "16258",
      "cp": "50197",
      "ville": "Zaragoza",
      "adresse": "Avenida diagonal, 19",
      "brand": "Nieves",
      "lat": 41.638639,
      "lng": -0.992556,
      "fuels": {
        "gazole": 1.499,
        "sp95": 1.499
      }
    },
    {
      "id": "1379",
      "cp": "50007",
      "ville": "Zaragoza",
      "adresse": "Avenida Fray Julian garces, 112",
      "brand": "Petronor",
      "lat": 41.625472,
      "lng": -0.888389,
      "fuels": {
        "gazole": 1.619,
        "sp95": 1.639,
        "sp98": 1.819
      }
    },
    {
      "id": "12944",
      "cp": "50012",
      "ville": "Zaragoza",
      "adresse": "Avenida Gomez laguna, 151",
      "brand": "Gasolprime",
      "lat": 41.634222,
      "lng": -0.923278,
      "fuels": {
        "gazole": 1.449,
        "sp95": 1.419,
        "gplc": 0.859
      }
    },
    {
      "id": "1460",
      "cp": "50011",
      "ville": "Zaragoza",
      "adresse": "Avenida hispanidad, 87,89",
      "brand": "Moeve",
      "lat": 41.649944,
      "lng": -0.919139,
      "fuels": {
        "gazole": 1.595,
        "sp95": 1.607,
        "gplc": 1.177
      }
    },
    {
      "id": "9847",
      "cp": "50016",
      "ville": "Zaragoza",
      "adresse": "Avenida industris, S/N",
      "brand": "Repsol",
      "lat": 41.6725,
      "lng": -0.832944,
      "fuels": {
        "gazole": 1.609,
        "sp95": 1.619,
        "sp98": 1.799
      }
    },
    {
      "id": "11786",
      "cp": "50012",
      "ville": "Zaragoza",
      "adresse": "Avenida La ilustracion, 1",
      "brand": "Repsol",
      "lat": 41.626667,
      "lng": -0.922778,
      "fuels": {
        "gazole": 1.629,
        "sp95": 1.649,
        "sp98": 1.779
      }
    },
    {
      "id": "1378",
      "cp": "50013",
      "ville": "Zaragoza",
      "adresse": "Avenida Miguel servet, 254",
      "brand": "Repsol",
      "lat": 41.634528,
      "lng": -0.861833,
      "fuels": {
        "gazole": 1.615,
        "sp95": 1.639
      }
    },
    {
      "id": "11816",
      "cp": "50011",
      "ville": "Zaragoza",
      "adresse": "Avenida navarra, 180",
      "brand": "Carrefour",
      "lat": 41.659278,
      "lng": -0.918972,
      "fuels": {
        "gazole": 1.549,
        "sp95": 1.589,
        "sp98": 1.709
      }
    },
    {
      "id": "12120",
      "cp": "50015",
      "ville": "Zaragoza",
      "adresse": "Avenida ranillas, 18",
      "brand": "Repsol",
      "lat": 41.662111,
      "lng": -0.887417,
      "fuels": {
        "gazole": 1.619,
        "sp95": 1.635
      }
    },
    {
      "id": "1478",
      "cp": "50015",
      "ville": "Zaragoza",
      "adresse": "Avenida ranillas, 20",
      "brand": "Repsol",
      "lat": 41.661389,
      "lng": -0.885917,
      "fuels": {
        "gazole": 1.619,
        "sp95": 1.635,
        "sp98": 1.765
      }
    },
    {
      "id": "1477",
      "cp": "50016",
      "ville": "Zaragoza",
      "adresse": "Avenida Santa isabel, 7",
      "brand": "Moeve",
      "lat": 41.670278,
      "lng": -0.839722,
      "fuels": {
        "gazole": 1.618,
        "sp95": 1.629,
        "sp98": 1.821
      }
    },
    {
      "id": "1979",
      "cp": "50005",
      "ville": "Zaragoza",
      "adresse": "Avenida valencia, 20",
      "brand": "Repsol",
      "lat": 41.647083,
      "lng": -0.895194,
      "fuels": {
        "gazole": 1.588,
        "sp95": 1.618,
        "sp98": 1.788
      }
    },
    {
      "id": "13482",
      "cp": "50011",
      "ville": "Zaragoza",
      "adresse": "Calle Carretera Del aeropuerto, 236",
      "brand": "Nafte",
      "lat": 41.661222,
      "lng": -0.953611,
      "fuels": {
        "gazole": 1.499,
        "sp95": 1.499
      }
    },
    {
      "id": "8183",
      "cp": "50009",
      "ville": "Zaragoza",
      "adresse": "Calle Duquesa De villahermosa, S/N",
      "brand": "q8",
      "lat": 41.64675,
      "lng": -0.905583,
      "fuels": {
        "gazole": 1.559
      }
    },
    {
      "id": "13122",
      "cp": "50012",
      "ville": "Zaragoza",
      "adresse": "Calle iberica, via, 89",
      "brand": "Nafte",
      "lat": 41.621972,
      "lng": -0.913139,
      "fuels": {
        "gazole": 1.459,
        "sp95": 1.459
      }
    },
    {
      "id": "12396",
      "cp": "50020",
      "ville": "Zaragoza",
      "adresse": "Calle Isla De murano, S/N",
      "brand": "Repsol",
      "lat": 41.609722,
      "lng": -0.881944,
      "fuels": {
        "gazole": 1.625,
        "sp95": 1.639,
        "sp98": 1.769,
        "gplc": 1.035
      }
    },
    {
      "id": "16078",
      "cp": "50197",
      "ville": "Zaragoza",
      "adresse": "Calle Isla De pantelaria, 38",
      "brand": "Costco",
      "lat": 41.637639,
      "lng": -0.977472,
      "fuels": {
        "gazole": 1.41,
        "sp95": 1.421
      }
    },
    {
      "id": "13368",
      "cp": "50014",
      "ville": "Zaragoza",
      "adresse": "Calle Juan De La cierva, 15",
      "brand": "Confort Auto",
      "lat": 41.667417,
      "lng": -0.859833,
      "fuels": {
        "gazole": 1.463,
        "sp95": 1.453,
        "sp98": 1.638
      }
    },
    {
      "id": "12882",
      "cp": "50014",
      "ville": "Zaragoza",
      "adresse": "Calle Juan De La cierva, 21",
      "brand": "Nafte",
      "lat": 41.668694,
      "lng": -0.860556,
      "fuels": {
        "gazole": 1.469,
        "sp95": 1.469
      }
    },
    {
      "id": "8317",
      "cp": "50018",
      "ville": "Zaragoza",
      "adresse": "Calle Maria zambrano, S/N",
      "brand": "Carrefour",
      "lat": 41.677889,
      "lng": -0.89,
      "fuels": {
        "gazole": 1.549,
        "sp95": 1.589,
        "sp98": 1.709
      }
    },
    {
      "id": "14327",
      "cp": "50001",
      "ville": "Zaragoza",
      "adresse": "Calle Marques De La cadena, 68",
      "brand": "Autonetoil",
      "lat": 41.665417,
      "lng": -0.866639,
      "fuels": {
        "gazole": 1.449,
        "sp95": 1.459
      }
    },
    {
      "id": "13218",
      "cp": "50013",
      "ville": "Zaragoza",
      "adresse": "Calle Miguel servet, 280",
      "brand": "Nafte",
      "lat": 41.633222,
      "lng": -0.860917,
      "fuels": {
        "gazole": 1.499,
        "sp95": 1.499
      }
    },
    {
      "id": "1491",
      "cp": "50018",
      "ville": "Zaragoza",
      "adresse": "Calle Poeta Maria zambrano, 2",
      "brand": "Cepsa",
      "lat": 41.678917,
      "lng": -0.889917,
      "fuels": {
        "gazole": 1.649,
        "sp95": 1.679
      }
    },
    {
      "id": "1988",
      "cp": "50015",
      "ville": "Zaragoza",
      "adresse": "Calle Valle De broto, S/N",
      "brand": "Galp",
      "lat": 41.666222,
      "lng": -0.876944,
      "fuels": {
        "gazole": 1.569,
        "sp95": 1.599,
        "sp98": 1.739
      }
    },
    {
      "id": "9844",
      "cp": "50016",
      "ville": "Zaragoza",
      "adresse": "Carretera barcelona,nacional Ii A km. 331",
      "brand": "Repsol",
      "lat": 41.651722,
      "lng": -0.795111,
      "fuels": {
        "gazole": 1.609,
        "sp95": 1.619,
        "sp98": 1.799
      }
    },
    {
      "id": "9034",
      "cp": "50014",
      "ville": "Zaragoza",
      "adresse": "Carretera Cogullada km. S/N",
      "brand": "Cooperativa San Lamberto",
      "lat": 41.681972,
      "lng": -0.852556,
      "fuels": {
        "gazole": 1.533,
        "sp95": 1.453
      }
    },
    {
      "id": "1480",
      "cp": "50011",
      "ville": "Zaragoza",
      "adresse": "Carretera ctra.logroño 42 km. 243,420",
      "brand": "Es Miralbueno Cepsa",
      "lat": 41.663389,
      "lng": -0.930833,
      "fuels": {
        "gazole": 1.598,
        "sp95": 1.628,
        "sp98": 1.778
      }
    },
    {
      "id": "12516",
      "cp": "50012",
      "ville": "Zaragoza",
      "adresse": "Carretera Madrid km. 315,2",
      "brand": "Alcampo",
      "lat": 41.644083,
      "lng": -0.936028,
      "fuels": {
        "gazole": 1.449,
        "sp95": 1.419,
        "sp98": 1.499
      }
    },
    {
      "id": "1248",
      "cp": "50012",
      "ville": "Zaragoza",
      "adresse": "Carretera N-330 km. 485,410",
      "brand": "Haxx",
      "lat": 41.5755,
      "lng": -0.960417,
      "fuels": {
        "gazole": 1.499,
        "sp95": 1.529
      }
    },
    {
      "id": "1454",
      "cp": "50012",
      "ville": "Zaragoza",
      "adresse": "Carretera N-330 km. 491,9",
      "brand": "Repsol",
      "lat": 41.621972,
      "lng": -0.913694,
      "fuels": {
        "gazole": 1.625,
        "sp95": 1.645,
        "sp98": 1.825
      }
    },
    {
      "id": "1430",
      "cp": "50009",
      "ville": "Zaragoza",
      "adresse": "Cl Avenida hispanidad, 15",
      "brand": "Repsol",
      "lat": 41.633389,
      "lng": -0.908694,
      "fuels": {
        "gazole": 1.619,
        "sp95": 1.635,
        "sp98": 1.765
      }
    },
    {
      "id": "1429",
      "cp": "50009",
      "ville": "Zaragoza",
      "adresse": "Cl Avenida hispanidad, 16",
      "brand": "Repsol",
      "lat": 41.634222,
      "lng": -0.9085,
      "fuels": {
        "gazole": 1.619,
        "sp95": 1.635,
        "sp98": 1.765,
        "gplc": 1.059
      }
    },
    {
      "id": "1399",
      "cp": "50015",
      "ville": "Zaragoza",
      "adresse": "Cr A-23, 506,5",
      "brand": "Repsol",
      "lat": 41.707889,
      "lng": -0.863222,
      "fuels": {
        "gazole": 1.619,
        "sp95": 1.635,
        "sp98": 1.765
      }
    },
    {
      "id": "1986",
      "cp": "50001",
      "ville": "Zaragoza",
      "adresse": "Paseo De La mina, 12",
      "brand": "Repsol",
      "lat": 41.647444,
      "lng": -0.877444,
      "fuels": {
        "gazole": 1.619,
        "sp95": 1.635,
        "sp98": 1.765
      }
    },
    {
      "id": "1494",
      "cp": "50001",
      "ville": "Zaragoza",
      "adresse": "Paseo Echegaray Y caballero, 99",
      "brand": "Ballenoil",
      "lat": 41.65375,
      "lng": -0.869194,
      "fuels": {
        "gazole": 1.319,
        "sp95": 1.332
      }
    },
    {
      "id": "16494",
      "cp": "50021",
      "ville": "Zaragoza",
      "adresse": "Paseo Gran canal, 11",
      "brand": "Gasexpress Puerto Venecia",
      "lat": 41.610694,
      "lng": -0.886083,
      "fuels": {
        "gazole": 1.419,
        "sp95": 1.419
      }
    },
    {
      "id": "1523",
      "cp": "50006",
      "ville": "Zaragoza",
      "adresse": "Plaza San francisco, 5",
      "brand": "Repsol",
      "lat": 41.640833,
      "lng": -0.893778,
      "fuels": {
        "gazole": 1.615,
        "sp95": 1.635
      }
    },
    {
      "id": "1492",
      "cp": "50016",
      "ville": "Zaragoza",
      "adresse": "Poligono Industrial Malpica Calle a, 3",
      "brand": "Cepsa",
      "lat": 41.656861,
      "lng": -0.782333,
      "fuels": {
        "gazole": 1.695,
        "sp95": 1.675
      }
    },
    {
      "id": "1487",
      "cp": "50014",
      "ville": "Zaragoza",
      "adresse": "Poligono Industrial Mercazaragoza-Ctra Cogullada S/N (a-2 Km 351), 1",
      "brand": "Moeve",
      "lat": 41.682333,
      "lng": -0.853361,
      "fuels": {
        "gazole": 1.595,
        "sp95": 1.596
      }
    },
    {
      "id": "12472",
      "cp": "50197",
      "ville": "Zaragoza",
      "adresse": "Ronda Feria De muestras, De la, 20",
      "brand": "Ids",
      "lat": 41.637944,
      "lng": -0.986389,
      "fuels": {
        "gazole": 1.656
      }
    },
    {
      "id": "1984",
      "cp": "50012",
      "ville": "Zaragoza",
      "adresse": "Ronda oliver, S/N",
      "brand": "Repsol",
      "lat": 41.647278,
      "lng": -0.935167,
      "fuels": {
        "gazole": 1.578,
        "sp95": 1.618,
        "sp98": 1.758
      }
    },
    {
      "id": "9085",
      "cp": "50800",
      "ville": "Zuera",
      "adresse": "Calle austria, 11,17",
      "brand": "An Energeticos - Zuera",
      "lat": 41.883583,
      "lng": -0.782833,
      "fuels": {
        "gazole": 1.455,
        "sp95": 1.491
      }
    },
    {
      "id": "1452",
      "cp": "50800",
      "ville": "Zuera",
      "adresse": "Carretera N-330a km. 24,000",
      "brand": "Repsol",
      "lat": 41.857,
      "lng": -0.794,
      "fuels": {
        "gazole": 1.619,
        "sp95": 1.655,
        "sp98": 1.825
      }
    }
  ]
}