{
  "code": "AT",
  "name": "Asti",
  "regionCode": "PIE",
  "regionName": "Piemonte",
  "asOf": "2026-07-23T17:51:53.054Z",
  "source": "https://www.mimit.gov.it/it/open-data/elenco-dataset/2032336-dataset-prezzi-carburanti",
  "stationCount": 113,
  "fuels": {
    "gazole": {
      "count": 113,
      "mean": 2.1058,
      "median": 2.129,
      "min": 1.754,
      "max": 2.204
    },
    "sp95": {
      "count": 113,
      "mean": 1.9206,
      "median": 1.927,
      "min": 1.699,
      "max": 2.069
    },
    "e85": {
      "count": 6,
      "mean": 1.6563,
      "median": 1.599,
      "min": 1.552,
      "max": 1.999
    },
    "gplc": {
      "count": 25,
      "mean": 0.7143,
      "median": 0.699,
      "min": 0.629,
      "max": 0.882
    }
  },
  "stations": [
    {
      "id": "53623",
      "cp": "",
      "ville": "Agliano Terme",
      "adresse": "prov. Asti Mare km18,100  14041",
      "brand": "Beyfin",
      "lat": 44.8038038,
      "lng": 8.2541933,
      "fuels": {
        "sp95": 1.924,
        "gazole": 2.134,
        "gplc": 0.789
      }
    },
    {
      "id": "6403",
      "cp": "",
      "ville": "Agliano Terme",
      "adresse": "Via Asti Mare 14 14041",
      "brand": "q8",
      "lat": 44.7894444211859,
      "lng": 8.261148650926202,
      "fuels": {
        "sp95": 1.899,
        "gazole": 2.099
      }
    },
    {
      "id": "48179",
      "cp": "",
      "ville": "Asti",
      "adresse": "1 Maggio 28 14100",
      "brand": "Agip Eni",
      "lat": 44.90308000242693,
      "lng": 8.214526162149584,
      "fuels": {
        "sp95": 1.839,
        "gazole": 2.019
      }
    },
    {
      "id": "11473",
      "cp": "",
      "ville": "Asti",
      "adresse": "c.so Xxv Aprile 217 14100",
      "brand": "q8",
      "lat": 44.90652105019706,
      "lng": 8.186593877315545,
      "fuels": {
        "sp95": 1.949,
        "gazole": 2.129
      }
    },
    {
      "id": "51606",
      "cp": "",
      "ville": "Asti",
      "adresse": "Casale 322 14100",
      "brand": "Tamoil",
      "lat": 44.91579679939346,
      "lng": 8.22214695558197,
      "fuels": {
        "sp95": 1.899,
        "gazole": 2.129,
        "gplc": 0.629
      }
    },
    {
      "id": "57190",
      "cp": "",
      "ville": "Asti",
      "adresse": "Casale 48/A 14100",
      "brand": "Costantin",
      "lat": 44.90567695093331,
      "lng": 8.218721652692803,
      "fuels": {
        "sp95": 1.879,
        "gazole": 2.049
      }
    },
    {
      "id": "43611",
      "cp": "",
      "ville": "Asti",
      "adresse": "Conte Verde 71 14100",
      "brand": "b+",
      "lat": 44.90735587096216,
      "lng": 8.198370337486267,
      "fuels": {
        "sp95": 1.909,
        "gazole": 2.099
      }
    },
    {
      "id": "50220",
      "cp": "",
      "ville": "Asti",
      "adresse": "Corso Alba  100 14100",
      "brand": "Pompe Bianche",
      "lat": 44.88868642181567,
      "lng": 8.194479150513272,
      "fuels": {
        "sp95": 1.869,
        "gazole": 2.089
      }
    },
    {
      "id": "11474",
      "cp": "",
      "ville": "Asti",
      "adresse": "Corso Alba 19 14100",
      "brand": "q8",
      "lat": 44.891550826243936,
      "lng": 8.195586238098144,
      "fuels": {
        "sp95": 1.949,
        "gazole": 2.129
      }
    },
    {
      "id": "6401",
      "cp": "",
      "ville": "Asti",
      "adresse": "Corso Alessandria - s.s.10 397 14100",
      "brand": "q8",
      "lat": 44.905684581625096,
      "lng": 8.233573549073753,
      "fuels": {
        "sp95": 1.929,
        "gazole": 2.139
      }
    },
    {
      "id": "34092",
      "cp": "",
      "ville": "Asti",
      "adresse": "Corso Alessandria 269 14100",
      "brand": "Pompe Bianche",
      "lat": 44.90547570903032,
      "lng": 8.225921760431675,
      "fuels": {
        "sp95": 1.888,
        "gazole": 2.089
      }
    },
    {
      "id": "37623",
      "cp": "",
      "ville": "Asti",
      "adresse": "Corso Alessandria 285 14100",
      "brand": "Esso",
      "lat": 44.90570793098382,
      "lng": 8.228194987219236,
      "fuels": {
        "sp95": 1.949,
        "gazole": 2.139
      }
    },
    {
      "id": "41792",
      "cp": "",
      "ville": "Asti",
      "adresse": "Corso Alessandria 379 14100",
      "brand": "Europam",
      "lat": 44.90559929730781,
      "lng": 8.232023814715149,
      "fuels": {
        "sp95": 1.927,
        "gazole": 2.087
      }
    },
    {
      "id": "11469",
      "cp": "",
      "ville": "Asti",
      "adresse": "Corso Alessandria 380 14100",
      "brand": "q8",
      "lat": 44.90602553804386,
      "lng": 8.235853055572534,
      "fuels": {
        "sp95": 1.959,
        "gazole": 2.139
      }
    },
    {
      "id": "63351",
      "cp": "",
      "ville": "Asti",
      "adresse": "Corso Alessandria 494  14100",
      "brand": "Agip Eni",
      "lat": 44.9065602,
      "lng": 8.2513582,
      "fuels": {
        "sp95": 1.844,
        "gazole": 2.004,
        "gplc": 0.699
      }
    },
    {
      "id": "59790",
      "cp": "",
      "ville": "Asti",
      "adresse": "Corso Alessandria 562 14100",
      "brand": "Pompe Bianche",
      "lat": 44.906858577535196,
      "lng": 8.261507497485635,
      "fuels": {
        "sp95": 1.879,
        "gazole": 2.099
      }
    },
    {
      "id": "10079",
      "cp": "",
      "ville": "Asti",
      "adresse": "Corso Alessandro Volta  14100",
      "brand": "Api-Ip",
      "lat": 44.90774321285039,
      "lng": 8.21744754910469,
      "fuels": {
        "sp95": 1.889,
        "gazole": 2.079
      }
    },
    {
      "id": "14338",
      "cp": "",
      "ville": "Asti",
      "adresse": "Corso Casale  237 14100",
      "brand": "Agip Eni",
      "lat": 44.91183783566107,
      "lng": 8.21991883068847,
      "fuels": {
        "sp95": 1.859,
        "gazole": 2.029
      }
    },
    {
      "id": "33176",
      "cp": "",
      "ville": "Asti",
      "adresse": "Corso Don Minzoni 89 14100",
      "brand": "q8",
      "lat": 44.89638014984264,
      "lng": 8.19422829080736,
      "fuels": {
        "sp95": 1.949,
        "gazole": 2.119
      }
    },
    {
      "id": "32272",
      "cp": "",
      "ville": "Asti",
      "adresse": "Corso Savona 126 14100",
      "brand": "Pompe Bianche",
      "lat": 44.891546143318045,
      "lng": 8.210770189762115,
      "fuels": {
        "sp95": 1.888,
        "gazole": 2.089
      }
    },
    {
      "id": "11472",
      "cp": "",
      "ville": "Asti",
      "adresse": "Corso Savona 156 14100",
      "brand": "q8",
      "lat": 44.889971496304256,
      "lng": 8.211141749668059,
      "fuels": {
        "sp95": 1.959,
        "gazole": 2.159
      }
    },
    {
      "id": "61983",
      "cp": "",
      "ville": "Asti",
      "adresse": "Corso Savona 527 14100",
      "brand": "Agip Eni",
      "lat": 44.87729070537886,
      "lng": 8.214701850980388,
      "fuels": {
        "sp95": 1.839,
        "gazole": 2.019
      }
    },
    {
      "id": "50216",
      "cp": "",
      "ville": "Asti",
      "adresse": "Corso Torino  143 14100",
      "brand": "Coil",
      "lat": 44.90289156251378,
      "lng": 8.190444017344351,
      "fuels": {
        "sp95": 1.898,
        "gazole": 2.118
      }
    },
    {
      "id": "7860",
      "cp": "",
      "ville": "Asti",
      "adresse": "Corso Torino 442 14100",
      "brand": "Esso",
      "lat": 44.90175650374798,
      "lng": 8.166682720184326,
      "fuels": {
        "sp95": 1.929,
        "gazole": 1.789,
        "e85": 1.599,
        "gplc": 0.679
      }
    },
    {
      "id": "51724",
      "cp": "",
      "ville": "Asti",
      "adresse": "Corso torino, 475  14100",
      "brand": "Agip Eni",
      "lat": 44.90473548863739,
      "lng": 8.177908306904142,
      "fuels": {
        "sp95": 1.859,
        "gazole": 2.029,
        "e85": 1.552
      }
    },
    {
      "id": "6546",
      "cp": "",
      "ville": "Asti",
      "adresse": "Corso Volta/Strada Valmanera Snc 14100",
      "brand": "q8",
      "lat": 44.90538018592765,
      "lng": 8.21228235833587,
      "fuels": {
        "sp95": 1.889,
        "gazole": 2.099
      }
    },
    {
      "id": "46481",
      "cp": "",
      "ville": "Asti",
      "adresse": "Don Minzoni 142 14100",
      "brand": "Tamoil",
      "lat": 44.898344674589715,
      "lng": 8.193208463080055,
      "fuels": {
        "sp95": 1.899,
        "gazole": 2.129
      }
    },
    {
      "id": "48180",
      "cp": "",
      "ville": "Asti",
      "adresse": "Don Minzoni 54 14100",
      "brand": "Agip Eni",
      "lat": 44.89547549651987,
      "lng": 8.195135885913851,
      "fuels": {
        "sp95": 1.839,
        "gazole": 2.019
      }
    },
    {
      "id": "6402",
      "cp": "",
      "ville": "Asti",
      "adresse": "fraz.s.marzanotto Sp 59 Km 5 Snc 14050",
      "brand": "q8",
      "lat": 44.85211923799133,
      "lng": 8.197297301852359,
      "fuels": {
        "sp95": 1.899,
        "gazole": 2.099
      }
    },
    {
      "id": "63451",
      "cp": "",
      "ville": "Asti",
      "adresse": "Piazza Leonardo Da Vinci Snc 14100",
      "brand": "Pompe Bianche",
      "lat": 44.89744397123585,
      "lng": 8.21125468350875,
      "fuels": {
        "sp95": 1.869,
        "gazole": 2.059
      }
    },
    {
      "id": "41748",
      "cp": "",
      "ville": "Asti",
      "adresse": "s.s. 10 km. 55+707 Sn 14100",
      "brand": "Tamoil",
      "lat": 44.905021598248425,
      "lng": 8.181272747791013,
      "fuels": {
        "sp95": 1.899,
        "gazole": 2.129
      }
    },
    {
      "id": "33695",
      "cp": "",
      "ville": "Asti",
      "adresse": "s.s. 10 Quarto inf.  14100",
      "brand": "Europam",
      "lat": 44.90739158488497,
      "lng": 8.281057476997375,
      "fuels": {
        "sp95": 1.929,
        "gazole": 2.089
      }
    },
    {
      "id": "51732",
      "cp": "",
      "ville": "Asti",
      "adresse": "Sessant 277/A 14100",
      "brand": "b+",
      "lat": 44.93195136442301,
      "lng": 8.162483721971512,
      "fuels": {
        "sp95": 1.939,
        "gazole": 2.139
      }
    },
    {
      "id": "22870",
      "cp": "",
      "ville": "Asti",
      "adresse": "Ss 10 km.55+500  14100",
      "brand": "q8",
      "lat": 44.90494660696766,
      "lng": 8.179809180425991,
      "fuels": {
        "sp95": 1.929,
        "gazole": 2.099
      }
    },
    {
      "id": "36693",
      "cp": "",
      "ville": "Asti",
      "adresse": "Strada stat. 231 Dir km6 + 112 112 14100, Asti (at) Km 6+112 14100",
      "brand": "Dis-Car",
      "lat": 44.86521481926581,
      "lng": 8.205069154500961,
      "fuels": {
        "sp95": 1.949,
        "gazole": 2.149,
        "gplc": 0.725
      }
    },
    {
      "id": "39883",
      "cp": "",
      "ville": "Asti",
      "adresse": "Strada Statale 231 km.6+0,80  14100",
      "brand": "Api-Ip",
      "lat": 44.865220712606366,
      "lng": 8.206015974283218,
      "fuels": {
        "sp95": 1.929,
        "gazole": 2.089
      }
    },
    {
      "id": "59611",
      "cp": "",
      "ville": "Asti",
      "adresse": "Via Monti 2a 14100",
      "brand": "Enercoop",
      "lat": 44.90563245651508,
      "lng": 8.222057695770268,
      "fuels": {
        "sp95": 1.879,
        "gazole": 2.099,
        "e85": 1.59,
        "gplc": 0.679
      }
    },
    {
      "id": "11475",
      "cp": "",
      "ville": "Asti",
      "adresse": "Via p. Micca 2 14100",
      "brand": "q8",
      "lat": 44.90318808151229,
      "lng": 8.208883148479458,
      "fuels": {
        "sp95": 1.949,
        "gazole": 2.159
      }
    },
    {
      "id": "42927",
      "cp": "",
      "ville": "Asti",
      "adresse": "Via Portacomaro Stazione s.s.457 km.33+217 217 14100, Asti (at) s.s.457 14100",
      "brand": "b+",
      "lat": 44.95273374153334,
      "lng": 8.223065844808616,
      "fuels": {
        "sp95": 1.929,
        "gazole": 2.099,
        "gplc": 0.629
      }
    },
    {
      "id": "11476",
      "cp": "",
      "ville": "Asti",
      "adresse": "Via Ugo Foscolo 3 14100",
      "brand": "q8",
      "lat": 44.91176838299761,
      "lng": 8.204469737434351,
      "fuels": {
        "sp95": 1.919,
        "gazole": 2.139
      }
    },
    {
      "id": "39058",
      "cp": "",
      "ville": "Asti",
      "adresse": "Viale Partigiani 13 14100",
      "brand": "Tamoil",
      "lat": 44.905140764499876,
      "lng": 8.200716799891666,
      "fuels": {
        "sp95": 1.919,
        "gazole": 2.119
      }
    },
    {
      "id": "47796",
      "cp": "",
      "ville": "Asti",
      "adresse": "Volta Sn 14100",
      "brand": "Tamoil",
      "lat": 44.90665870274345,
      "lng": 8.215005743372958,
      "fuels": {
        "sp95": 1.889,
        "gazole": 2.119
      }
    },
    {
      "id": "43262",
      "cp": "",
      "ville": "Baldichieri D'Asti",
      "adresse": "10 Padana inferiore, km. 48.405, Ovest - 14011",
      "brand": "Api-Ip",
      "lat": 44.90383020042228,
      "lng": 8.093326279762323,
      "fuels": {
        "sp95": 1.949,
        "gazole": 2.179,
        "gplc": 0.699
      }
    },
    {
      "id": "39651",
      "cp": "",
      "ville": "Bubbio",
      "adresse": "s.p.25 Valle Bormida km15",
      "brand": "Api-Ip",
      "lat": 44.6609876602154,
      "lng": 8.302375674247742,
      "fuels": {
        "sp95": 1.949,
        "gazole": 2.139
      }
    },
    {
      "id": "50324",
      "cp": "",
      "ville": "Buttigliera D'Asti",
      "adresse": "Via Riva 32 14021",
      "brand": "Sia Fuel",
      "lat": 45.01487616029893,
      "lng": 7.935738880807804,
      "fuels": {
        "sp95": 1.929,
        "gazole": 2.139
      }
    },
    {
      "id": "17884",
      "cp": "",
      "ville": "Calamandrana",
      "adresse": "Statale 592 Di canelli, km. 3+860, dir. Ovest  14042",
      "brand": "Tamoil",
      "lat": 44.7415057572251,
      "lng": 8.342961519956589,
      "fuels": {
        "sp95": 1.949,
        "gazole": 2.169,
        "gplc": 0.749
      }
    },
    {
      "id": "50441",
      "cp": "",
      "ville": "Calliano Monferrato",
      "adresse": "s.p. 457 Per Moncalvo - loc. Pirenta  14033",
      "brand": "Agip Eni",
      "lat": 44.9929678984625,
      "lng": 8.229863415417435,
      "fuels": {
        "sp95": 1.854,
        "gazole": 2.014,
        "e85": 1.599
      }
    },
    {
      "id": "56098",
      "cp": "",
      "ville": "Canelli",
      "adresse": "Corsi Asti 2 14053",
      "brand": "Tamoil",
      "lat": 44.7212547095409,
      "lng": 8.29210046333317,
      "fuels": {
        "sp95": 1.939,
        "gazole": 2.139
      }
    },
    {
      "id": "45249",
      "cp": "",
      "ville": "Canelli",
      "adresse": "Italia 257 14053",
      "brand": "Tamoil",
      "lat": 44.731961830890356,
      "lng": 8.29526110779102,
      "fuels": {
        "sp95": 1.929,
        "gazole": 2.089
      }
    },
    {
      "id": "57286",
      "cp": "",
      "ville": "Canelli",
      "adresse": "Via Ottavio Riccadonna 126",
      "brand": "b+",
      "lat": 44.7176518,
      "lng": 8.2959852,
      "fuels": {
        "sp95": 1.969,
        "gazole": 2.199
      }
    },
    {
      "id": "11477",
      "cp": "",
      "ville": "Canelli",
      "adresse": "Viale Italia 12 14053",
      "brand": "q8",
      "lat": 44.72042769142002,
      "lng": 8.295245597553276,
      "fuels": {
        "sp95": 1.919,
        "gazole": 2.109
      }
    },
    {
      "id": "47837",
      "cp": "",
      "ville": "Canelli",
      "adresse": "Viale Italia 36 14053",
      "brand": "Esso",
      "lat": 44.72112454960217,
      "lng": 8.29671293497085,
      "fuels": {
        "sp95": 1.949,
        "gazole": 2.159
      }
    },
    {
      "id": "26056",
      "cp": "",
      "ville": "Canelli",
      "adresse": "Viale Italia 40 14053",
      "brand": "Api-Ip",
      "lat": 44.721096142138784,
      "lng": 8.296737670898438,
      "fuels": {
        "sp95": 1.959,
        "gazole": 2.169
      }
    },
    {
      "id": "27245",
      "cp": "",
      "ville": "Canelli",
      "adresse": "Viale Italia 8 14053",
      "brand": "Tamoil",
      "lat": 44.72005326912477,
      "lng": 8.294662982225418,
      "fuels": {
        "sp95": 1.939,
        "gazole": 2.139
      }
    },
    {
      "id": "57689",
      "cp": "",
      "ville": "Castagnole Delle Lanze",
      "adresse": "f.lli Vicari 197 14054",
      "brand": "Tamoil",
      "lat": 44.7446178023325,
      "lng": 8.145816379925952,
      "fuels": {
        "sp95": 1.929,
        "gazole": 2.099
      }
    },
    {
      "id": "11478",
      "cp": "",
      "ville": "Castagnole Delle Lanze",
      "adresse": "fz. s. Bartolomeo S/N 14054",
      "brand": "q8",
      "lat": 44.75076859477566,
      "lng": 8.15187893807888,
      "fuels": {
        "sp95": 1.989,
        "gazole": 2.129
      }
    },
    {
      "id": "54026",
      "cp": "",
      "ville": "Castel Boglione",
      "adresse": "s.s. 456 Frazione Gianola Sn 14040",
      "brand": "Retitalia",
      "lat": 44.742918,
      "lng": 8.386726,
      "fuels": {
        "sp95": 1.939,
        "gazole": 2.139
      }
    },
    {
      "id": "50589",
      "cp": "",
      "ville": "Castell'Alfero",
      "adresse": "s.p.457 Per Moncalvo  14033",
      "brand": "Agip Eni",
      "lat": 44.97554918884501,
      "lng": 8.228183842051088,
      "fuels": {
        "sp95": 1.854,
        "gazole": 2.014,
        "gplc": 0.679
      }
    },
    {
      "id": "59172",
      "cp": "",
      "ville": "Castell'Alfero",
      "adresse": "Via Lasca 25  14033",
      "brand": "b+",
      "lat": 44.965167,
      "lng": 8.192056,
      "fuels": {
        "sp95": 1.969,
        "gazole": 2.199
      }
    },
    {
      "id": "38874",
      "cp": "",
      "ville": "Castello Di Annone",
      "adresse": "Autostrada a21 Torino-piacenza, km. 48, dir. Torino - 14034",
      "brand": "q8",
      "lat": 44.90478783633836,
      "lng": 8.363438844680786,
      "fuels": {
        "sp95": 2.069,
        "gazole": 2.199
      }
    },
    {
      "id": "44834",
      "cp": "",
      "ville": "Castello Di Annone",
      "adresse": "s.s.n. 10 Km 69+155 Sn 14034",
      "brand": "Tamoil",
      "lat": 44.877909092260516,
      "lng": 8.321720428835988,
      "fuels": {
        "sp95": 1.899,
        "gazole": 2.089,
        "e85": 1.599,
        "gplc": 0.679
      }
    },
    {
      "id": "41965",
      "cp": "",
      "ville": "Castelnuovo Calcea",
      "adresse": "s.s. 456 Regione Opessina s.n. 14040",
      "brand": "Tamoil",
      "lat": 44.77707711986588,
      "lng": 8.280539124418056,
      "fuels": {
        "sp95": 1.929,
        "gazole": 2.099
      }
    },
    {
      "id": "43325",
      "cp": "",
      "ville": "Castelnuovo Don Bosco",
      "adresse": "Strada Provinciale 16 Km 15+018  14022",
      "brand": "Pompe Bianche",
      "lat": 45.0279705827288,
      "lng": 7.966313588954904,
      "fuels": {
        "sp95": 1.889,
        "gazole": 2.089,
        "gplc": 0.709
      }
    },
    {
      "id": "62161",
      "cp": "",
      "ville": "Castelnuovo Don Bosco",
      "adresse": "Via San Giovanni null, 14022 16 14022",
      "brand": "Agip Eni",
      "lat": 45.0351211,
      "lng": 7.9741699,
      "fuels": {
        "sp95": 1.854,
        "gazole": 1.994
      }
    },
    {
      "id": "59110",
      "cp": "",
      "ville": "Cerreto D'Asti",
      "adresse": "v. Torino  30172",
      "brand": "Tamoil",
      "lat": 45.039576,
      "lng": 8.031861,
      "fuels": {
        "sp95": 1.899,
        "gazole": 2.089,
        "gplc": 0.699
      }
    },
    {
      "id": "14776",
      "cp": "",
      "ville": "Cessole",
      "adresse": "Localita' Case Nuove  14050",
      "brand": "Keropetrol",
      "lat": 44.64459988809262,
      "lng": 8.245810099988603,
      "fuels": {
        "sp95": 1.989,
        "gazole": 2.189
      }
    },
    {
      "id": "38695",
      "cp": "",
      "ville": "Cortazzone",
      "adresse": "Via Casale 1 C/O  Distributore b+ 1 14010",
      "brand": "b+",
      "lat": 44.980214326318155,
      "lng": 8.056557472391887,
      "fuels": {
        "sp95": 1.989,
        "gazole": 2.099,
        "gplc": 0.629
      }
    },
    {
      "id": "11479",
      "cp": "",
      "ville": "Costigliole D'Asti",
      "adresse": "s.p.59 Km 13+542 Via Asti 11/B 14055",
      "brand": "q8",
      "lat": 44.787595181387005,
      "lng": 8.186667813491795,
      "fuels": {
        "sp95": 1.989,
        "gazole": 2.129
      }
    },
    {
      "id": "48963",
      "cp": "",
      "ville": "Costigliole D'Asti",
      "adresse": "Strada Canelli 83 14055",
      "brand": "Esso",
      "lat": 44.75982378679984,
      "lng": 8.20351881363087,
      "fuels": {
        "sp95": 1.959,
        "gazole": 2.129
      }
    },
    {
      "id": "38663",
      "cp": "",
      "ville": "Costigliole D'Asti",
      "adresse": "Via scotti, fraz. Motta 111 14055",
      "brand": "Api-Ip",
      "lat": 44.80869810939859,
      "lng": 8.146182596683502,
      "fuels": {
        "sp95": 1.949,
        "gazole": 2.129
      }
    },
    {
      "id": "36096",
      "cp": "",
      "ville": "Dusino San Michele",
      "adresse": "Statale 10 Padana inferiore, km. 37+340, dir. Torino  14010",
      "brand": "Api-Ip",
      "lat": 44.9247272456753,
      "lng": 7.970871624328652,
      "fuels": {
        "sp95": 1.919,
        "gazole": 2.139
      }
    },
    {
      "id": "10623",
      "cp": "",
      "ville": "Ferrere",
      "adresse": "s.p. Villanova - Govone Km 10+350  14012",
      "brand": "q8",
      "lat": 44.87610612847085,
      "lng": 8.009324222803116,
      "fuels": {
        "sp95": 1.929,
        "gazole": 2.169
      }
    },
    {
      "id": "61426",
      "cp": "",
      "ville": "Ferrere",
      "adresse": "Via Torino 103  14012",
      "brand": "Economy",
      "lat": 44.883709891099556,
      "lng": 7.99022362408122,
      "fuels": {
        "sp95": 1.929,
        "gazole": 2.149
      }
    },
    {
      "id": "63450",
      "cp": "",
      "ville": "Frinco",
      "adresse": "s.p. 22 Km 3+900 Snc 14030",
      "brand": "Pompe Bianche",
      "lat": 45.00870833850962,
      "lng": 8.18321782584162,
      "fuels": {
        "sp95": 1.899,
        "gazole": 1.999
      }
    },
    {
      "id": "63291",
      "cp": "",
      "ville": "Incisa Scapaccino",
      "adresse": "Regione Prata 23  14045",
      "brand": "Keropetrol",
      "lat": 44.7993239,
      "lng": 8.3767053,
      "fuels": {
        "sp95": 1.899,
        "gazole": 2.099
      }
    },
    {
      "id": "54937",
      "cp": "",
      "ville": "Isola D'Asti",
      "adresse": "s.s. n.231 Km 3+810 Fraz Chiappa Snc",
      "brand": "Pompe Bianche",
      "lat": 44.83053,
      "lng": 8.17852,
      "fuels": {
        "sp95": 1.784,
        "gazole": 1.754
      }
    },
    {
      "id": "37933",
      "cp": "",
      "ville": "Isola D'Asti",
      "adresse": "ss456 Valtiglione-sp.3 km9+995 s.n. 14057",
      "brand": "Api-Ip",
      "lat": 44.82742465234149,
      "lng": 8.190544898733492,
      "fuels": {
        "sp95": 1.929,
        "gazole": 2.139
      }
    },
    {
      "id": "21022",
      "cp": "",
      "ville": "Moasca",
      "adresse": "Regione Molino 8 14050",
      "brand": "Pompe Bianche",
      "lat": 44.76845804344314,
      "lng": 8.269067332148552,
      "fuels": {
        "sp95": 1.909,
        "gazole": 2.049,
        "gplc": 0.699
      }
    },
    {
      "id": "34019",
      "cp": "",
      "ville": "Mombaruzzo",
      "adresse": "Via Piazza Del popolo, 5 5 14046, Mombaruzzo (at) 5 14046",
      "brand": "Ratti",
      "lat": 44.77334,
      "lng": 8.44889,
      "fuels": {
        "sp95": 1.919,
        "gazole": 2.129
      }
    },
    {
      "id": "62336",
      "cp": "",
      "ville": "Mombercelli",
      "adresse": "Corso Asti 18  14047",
      "brand": "Restiani",
      "lat": 44.8230363,
      "lng": 8.293427699999999,
      "fuels": {
        "sp95": 1.925,
        "gazole": 2.099
      }
    },
    {
      "id": "57957",
      "cp": "",
      "ville": "Mombercelli",
      "adresse": "Corso Asti 700  14047",
      "brand": "b+",
      "lat": 44.8229097,
      "lng": 8.2849124,
      "fuels": {
        "sp95": 1.969,
        "gazole": 2.199
      }
    },
    {
      "id": "60486",
      "cp": "",
      "ville": "Monastero Bormida",
      "adresse": "Via Roma 98  14058",
      "brand": "Kerotris",
      "lat": 44.6481031039618,
      "lng": 8.32715943841274,
      "fuels": {
        "sp95": 1.999,
        "gazole": 2.149
      }
    },
    {
      "id": "36342",
      "cp": "",
      "ville": "Moncalvo",
      "adresse": "Corso Xxv Aprile 134 14036",
      "brand": "Agip Eni",
      "lat": 45.04540829020908,
      "lng": 8.268720103041005,
      "fuels": {
        "sp95": 1.839,
        "gazole": 2.029
      }
    },
    {
      "id": "11470",
      "cp": "",
      "ville": "Moncalvo",
      "adresse": "loc. Quadrivio Regione s. Giovanni S/N 14036",
      "brand": "q8",
      "lat": 45.059001632049686,
      "lng": 8.277583345770836,
      "fuels": {
        "sp95": 1.949,
        "gazole": 2.149
      }
    },
    {
      "id": "53306",
      "cp": "",
      "ville": "Moncalvo",
      "adresse": "Statale 457 Km 20 396 Snc 14036",
      "brand": "q8",
      "lat": 45.0604858262363,
      "lng": 8.278450852382662,
      "fuels": {
        "sp95": 1.919,
        "gazole": 2.139
      }
    },
    {
      "id": "45777",
      "cp": "",
      "ville": "Moncalvo",
      "adresse": "str. Per Casale 45 14036",
      "brand": "Tamoil",
      "lat": 45.06109004307515,
      "lng": 8.278842858160829,
      "fuels": {
        "sp95": 1.899,
        "gazole": 2.099
      }
    },
    {
      "id": "8958",
      "cp": "",
      "ville": "Montechiaro D'Asti",
      "adresse": "Stazione 28 14025",
      "brand": "b+",
      "lat": 44.996045813763374,
      "lng": 8.113885283622722,
      "fuels": {
        "sp95": 1.999,
        "gazole": 2.149
      }
    },
    {
      "id": "37621",
      "cp": "",
      "ville": "Montegrosso D'Asti",
      "adresse": "Nizza 2 14048",
      "brand": "Tamoil",
      "lat": 44.81613806710762,
      "lng": 8.241086527705193,
      "fuels": {
        "sp95": 1.939,
        "gazole": 2.099
      }
    },
    {
      "id": "11123",
      "cp": "",
      "ville": "Nizza Monferrato",
      "adresse": "Corso Asti 100 14049",
      "brand": "Api-Ip",
      "lat": 44.7728424658874,
      "lng": 8.349747802238431,
      "fuels": {
        "sp95": 1.936,
        "gazole": 2.166
      }
    },
    {
      "id": "58485",
      "cp": "",
      "ville": "Nizza Monferrato",
      "adresse": "s.p.27 Km 15+165 Sn",
      "brand": "Tamoil",
      "lat": 44.77888024516427,
      "lng": 8.367612361907959,
      "fuels": {
        "sp95": 1.929,
        "gazole": 2.169
      }
    },
    {
      "id": "56099",
      "cp": "",
      "ville": "Nizza Monferrato",
      "adresse": "s.p.nizza-Monferrato Km 25+896 Sn 14049",
      "brand": "Shell",
      "lat": 44.7713054445533,
      "lng": 8.37024940207686,
      "fuels": {
        "sp95": 1.899,
        "gazole": 2.119,
        "gplc": 0.769
      }
    },
    {
      "id": "62652",
      "cp": "",
      "ville": "Nizza Monferrato",
      "adresse": "Strada Canelli 12/A 14049",
      "brand": "Api-Ip",
      "lat": 44.7655848,
      "lng": 8.3525874,
      "fuels": {
        "sp95": 1.906,
        "gazole": 2.136,
        "gplc": 0.746
      }
    },
    {
      "id": "36683",
      "cp": "",
      "ville": "Nizza Monferrato",
      "adresse": "Via Asti 156 14049",
      "brand": "Agip Eni",
      "lat": 44.77203654905228,
      "lng": 8.346093679098544,
      "fuels": {
        "sp95": 1.849,
        "gazole": 2.029
      }
    },
    {
      "id": "25342",
      "cp": "",
      "ville": "Nizza Monferrato",
      "adresse": "Via Cirio  14049",
      "brand": "Api-Ip",
      "lat": 44.775386671800256,
      "lng": 8.360626822090126,
      "fuels": {
        "sp95": 1.899,
        "gazole": 2.129
      }
    },
    {
      "id": "54857",
      "cp": "",
      "ville": "Nizza Monferrato",
      "adresse": "Via Strada Canelli 31 14049, Nizza Monferrato (at) 33/4 14049",
      "brand": "Api-Ip",
      "lat": 44.761442520825746,
      "lng": 8.352353474865737,
      "fuels": {
        "sp95": 1.919,
        "gazole": 2.129
      }
    },
    {
      "id": "63449",
      "cp": "",
      "ville": "Piovà Massaia",
      "adresse": "Via Asti  13 14026",
      "brand": "Pompe Bianche",
      "lat": 45.043154872161935,
      "lng": 8.04240904518076,
      "fuels": {
        "sp95": 1.699,
        "gazole": 1.999
      }
    },
    {
      "id": "43082",
      "cp": "",
      "ville": "Rocca D'Arazzo",
      "adresse": "Via Garibaldi 35 14030",
      "brand": "b+",
      "lat": 44.872392979345406,
      "lng": 8.28487796502975,
      "fuels": {
        "sp95": 1.929,
        "gazole": 2.099
      }
    },
    {
      "id": "58978",
      "cp": "",
      "ville": "Rocchetta Tanaro",
      "adresse": "Strada Provinciale 27",
      "brand": "b+",
      "lat": 44.85966902496725,
      "lng": 8.346686804893476,
      "fuels": {
        "sp95": 1.969,
        "gazole": 2.199
      }
    },
    {
      "id": "41367",
      "cp": "",
      "ville": "San Damiano D'Asti",
      "adresse": "45 Villanova/San Damiano s.n. 14015",
      "brand": "Tamoil",
      "lat": 44.84444799824974,
      "lng": 8.070452436745882,
      "fuels": {
        "sp95": 1.989,
        "gazole": 2.139,
        "gplc": 0.679
      }
    },
    {
      "id": "33058",
      "cp": "",
      "ville": "San Damiano D'Asti",
      "adresse": "Regione San Vincenzo 3 14015",
      "brand": "Retitalia",
      "lat": 44.823891765664854,
      "lng": 8.055342882871628,
      "fuels": {
        "sp95": 1.999,
        "gazole": 2.159
      }
    },
    {
      "id": "52262",
      "cp": "",
      "ville": "San Damiano D'Asti",
      "adresse": "Via Asti 7 14015",
      "brand": "Retitalia",
      "lat": 44.83680914752431,
      "lng": 8.067821711770994,
      "fuels": {
        "sp95": 1.999,
        "gazole": 2.159
      }
    },
    {
      "id": "35697",
      "cp": "",
      "ville": "San Marzano Oliveto",
      "adresse": "Regione Leiso 46 14050",
      "brand": "Api-Ip",
      "lat": 44.756927567688095,
      "lng": 8.281711265444756,
      "fuels": {
        "sp95": 1.959,
        "gazole": 2.139
      }
    },
    {
      "id": "45087",
      "cp": "",
      "ville": "San Paolo Solbrito",
      "adresse": "Via Del Piano 21 14010",
      "brand": "b+",
      "lat": 44.95072878347645,
      "lng": 7.96920850872993,
      "fuels": {
        "sp95": 1.875,
        "gazole": 1.985
      }
    },
    {
      "id": "62163",
      "cp": "",
      "ville": "Valfenera",
      "adresse": "Via Villanova 55  14017",
      "brand": "Europam",
      "lat": 44.9088807,
      "lng": 7.9632408,
      "fuels": {
        "sp95": 1.917,
        "gazole": 2.097
      }
    },
    {
      "id": "39607",
      "cp": "",
      "ville": "Vigliano D'Asti",
      "adresse": "s.p. 456 Via Asti Mare  14040",
      "brand": "Dalle Petroli",
      "lat": 44.82663179842431,
      "lng": 8.211780874205033,
      "fuels": {
        "sp95": 1.924,
        "gazole": 2.094,
        "gplc": 0.694
      }
    },
    {
      "id": "42977",
      "cp": "",
      "ville": "Villafranca D'Asti",
      "adresse": "10 Padana inferiore, km. 43, Torino - 14018",
      "brand": "Api-Ip",
      "lat": 44.91286893018711,
      "lng": 8.038207512897543,
      "fuels": {
        "sp95": 1.999,
        "gazole": 2.149
      }
    },
    {
      "id": "42671",
      "cp": "",
      "ville": "Villafranca D'Asti",
      "adresse": "Pieve 47 14018",
      "brand": "Agip Eni",
      "lat": 44.91175954810604,
      "lng": 8.040437228277028,
      "fuels": {
        "sp95": 1.854,
        "gazole": 2.024,
        "gplc": 0.705
      }
    },
    {
      "id": "3843",
      "cp": "",
      "ville": "Villanova D'Asti",
      "adresse": "Autostrada a21 Torino-piacenza,  km. 13.052, dir. Est 14019",
      "brand": "Agip Eni",
      "lat": 44.9496,
      "lng": 7.95183,
      "fuels": {
        "sp95": 2.029,
        "gazole": 2.189,
        "gplc": 0.882
      }
    },
    {
      "id": "53736",
      "cp": "",
      "ville": "Villanova D'Asti",
      "adresse": "Autostrada a21 Torino-piacenza, dir. Torino 14019",
      "brand": "Api-Ip",
      "lat": 44.950642822945696,
      "lng": 7.951682622473157,
      "fuels": {
        "sp95": 2.054,
        "gazole": 2.204,
        "gplc": 0.869
      }
    },
    {
      "id": "62892",
      "cp": "",
      "ville": "Villanova D'Asti",
      "adresse": "Provinciale 2 Per Buttigliera Snc 14019",
      "brand": "Tamoil",
      "lat": 44.95888140227513,
      "lng": 7.947216838937004,
      "fuels": {
        "sp95": 1.899,
        "gazole": 2.129,
        "gplc": 0.729
      }
    },
    {
      "id": "29647",
      "cp": "",
      "ville": "Villanova D'Asti",
      "adresse": "s.p. Per Poirino 44 14019",
      "brand": "Tamoil",
      "lat": 44.941073899594166,
      "lng": 7.921306863427162,
      "fuels": {
        "sp95": 1.915,
        "gazole": 2.129,
        "gplc": 0.729
      }
    },
    {
      "id": "63424",
      "cp": "",
      "ville": "Villanova D'Asti",
      "adresse": "s.s. 1o 26 14100",
      "brand": "Agip Eni",
      "lat": 44.94863826966286,
      "lng": 7.924852552172852,
      "fuels": {
        "sp95": 1.839,
        "gazole": 2.019
      }
    },
    {
      "id": "52823",
      "cp": "",
      "ville": "Villanova D'Asti",
      "adresse": "Strada Ex s.s. n. 10 Padana Inferiore km. 35+100 s.n. 14019, Villanova D'Asti (at) +100 14019",
      "brand": "Dis-Car",
      "lat": 44.936763559936885,
      "lng": 7.948329683447253,
      "fuels": {
        "sp95": 1.949,
        "gazole": 2.139,
        "e85": 1.999,
        "gplc": 0.685
      }
    }
  ]
}