{
  "code": "BI",
  "name": "Biella",
  "regionCode": "PIE",
  "regionName": "Piemonte",
  "asOf": "2026-06-13T08:17:19.160Z",
  "source": "https://www.mimit.gov.it/it/open-data/elenco-dataset/2032336-dataset-prezzi-carburanti",
  "stationCount": 75,
  "fuels": {
    "gazole": {
      "count": 74,
      "mean": 1.9687,
      "median": 1.959,
      "min": 1.865,
      "max": 2.129
    },
    "sp95": {
      "count": 75,
      "mean": 1.8789,
      "median": 1.869,
      "min": 1.799,
      "max": 2.15
    },
    "e85": {
      "count": 3,
      "mean": 1.5093,
      "median": 1.419,
      "min": 1.419,
      "max": 1.69
    },
    "gplc": {
      "count": 9,
      "mean": 0.7768,
      "median": 0.759,
      "min": 0.759,
      "max": 0.829
    }
  },
  "stations": [
    {
      "id": "45917",
      "cp": "",
      "ville": "Andorno Micca",
      "adresse": "g. Cantono 3 13811",
      "brand": "Tamoil",
      "lat": 45.6067823943347,
      "lng": 8.056009387672134,
      "fuels": {
        "sp95": 1.869,
        "gazole": 2.029
      }
    },
    {
      "id": "27337",
      "cp": "",
      "ville": "Andorno Micca",
      "adresse": "Via Cantono 22 13811",
      "brand": "Agip Eni",
      "lat": 45.605051320149045,
      "lng": 8.05558830499649,
      "fuels": {
        "sp95": 1.879,
        "gazole": 2.029
      }
    },
    {
      "id": "53495",
      "cp": "",
      "ville": "Andorno Micca",
      "adresse": "Via Via cav. v. Veneto 23 13811, Andorno Micca (bi) 23 13811",
      "brand": "Retitalia",
      "lat": 45.558527085451665,
      "lng": 8.042498609332394,
      "fuels": {
        "sp95": 1.898,
        "gazole": 2.049
      }
    },
    {
      "id": "11501",
      "cp": "",
      "ville": "Biella",
      "adresse": "c.so Europa 6 13900",
      "brand": "q8",
      "lat": 45.55344783064023,
      "lng": 8.068803548812866,
      "fuels": {
        "sp95": 1.849,
        "gazole": 1.929
      }
    },
    {
      "id": "45204",
      "cp": "",
      "ville": "Biella",
      "adresse": "Corso Blotto Baldo Bruno s.n. 13900",
      "brand": "Pompe Bianche",
      "lat": 45.54587878169485,
      "lng": 8.036469691733146,
      "fuels": {
        "sp95": 1.879,
        "gazole": 1.989
      }
    },
    {
      "id": "17501",
      "cp": "",
      "ville": "Biella",
      "adresse": "Corso Europa   13900",
      "brand": "Agip Eni",
      "lat": 45.549199557968784,
      "lng": 8.07222604751587,
      "fuels": {
        "sp95": 1.879,
        "gazole": 2.029
      }
    },
    {
      "id": "60574",
      "cp": "",
      "ville": "Biella",
      "adresse": "Milano 40 13900",
      "brand": "Agip Eni",
      "lat": 45.56979952043452,
      "lng": 8.069994478874595,
      "fuels": {
        "sp95": 1.869,
        "gazole": 2.019
      }
    },
    {
      "id": "48586",
      "cp": "",
      "ville": "Biella",
      "adresse": "Pollone 76 13900",
      "brand": "Tamoil",
      "lat": 45.561599012478794,
      "lng": 8.024809360504145,
      "fuels": {
        "sp95": 1.879,
        "gazole": 1.989
      }
    },
    {
      "id": "54215",
      "cp": "",
      "ville": "Biella",
      "adresse": "Trossi Snc 13900",
      "brand": "Esso",
      "lat": 45.55004232610444,
      "lng": 8.07215285156425,
      "fuels": {
        "sp95": 1.879,
        "gazole": 2.009,
        "gplc": 0.759
      }
    },
    {
      "id": "17824",
      "cp": "",
      "ville": "Biella",
      "adresse": "Via Candelo 50 13900",
      "brand": "Tamoil",
      "lat": 45.5538730504302,
      "lng": 8.070062635669615,
      "fuels": {
        "sp95": 1.859,
        "gazole": 1.909
      }
    },
    {
      "id": "11503",
      "cp": "",
      "ville": "Biella",
      "adresse": "Via Candelo S/N 13900",
      "brand": "q8",
      "lat": 45.55089004003186,
      "lng": 8.085340037941933,
      "fuels": {
        "sp95": 1.849,
        "gazole": 1.929
      }
    },
    {
      "id": "46683",
      "cp": "",
      "ville": "Biella",
      "adresse": "Via Galimberti 36/A 13900",
      "brand": "Pompe Bianche",
      "lat": 45.55432081106892,
      "lng": 8.055451512336731,
      "fuels": {
        "sp95": 1.829,
        "gazole": 1.909
      }
    },
    {
      "id": "11352",
      "cp": "",
      "ville": "Biella",
      "adresse": "Via Ivrea 12 13900",
      "brand": "Esso",
      "lat": 45.5598248951114,
      "lng": 8.045518841139256,
      "fuels": {
        "sp95": 1.869,
        "gazole": 1.939
      }
    },
    {
      "id": "11499",
      "cp": "",
      "ville": "Biella",
      "adresse": "Via Macalle' 20 13051",
      "brand": "q8",
      "lat": 45.55443614236867,
      "lng": 8.058625305557257,
      "fuels": {
        "sp95": 1.859,
        "gazole": 1.939
      }
    },
    {
      "id": "9955",
      "cp": "",
      "ville": "Biella",
      "adresse": "Via Milano loc.chiavazza 32 13900",
      "brand": "q8",
      "lat": 45.570056129366016,
      "lng": 8.067931927018321,
      "fuels": {
        "sp95": 1.849,
        "gazole": 1.929
      }
    },
    {
      "id": "46684",
      "cp": "",
      "ville": "Biella",
      "adresse": "Via Per Tollegno 11 13900",
      "brand": "Pompe Bianche",
      "lat": 45.579049114462514,
      "lng": 8.050989715405649,
      "fuels": {
        "sp95": 1.899,
        "gazole": 1.949
      }
    },
    {
      "id": "6415",
      "cp": "",
      "ville": "Biella",
      "adresse": "Via Pollone Snc 13051",
      "brand": "q8",
      "lat": 45.550980948965126,
      "lng": 8.031966090202332,
      "fuels": {
        "sp95": 1.849,
        "gazole": 1.929
      }
    },
    {
      "id": "62623",
      "cp": "",
      "ville": "Biella",
      "adresse": "Via s. Giuseppe Cottolengo 43 13900",
      "brand": "Retitalia",
      "lat": 45.5520502,
      "lng": 8.0651599,
      "fuels": {
        "sp95": 1.879,
        "gazole": 2
      }
    },
    {
      "id": "22106",
      "cp": "",
      "ville": "Biella",
      "adresse": "Via Torino 70 13900",
      "brand": "Api-Ip",
      "lat": 45.556291484214924,
      "lng": 8.062221944705243,
      "fuels": {
        "sp95": 1.859,
        "gazole": 1.899
      }
    },
    {
      "id": "60308",
      "cp": "",
      "ville": "Biella",
      "adresse": "Via Tripoli 5  13900",
      "brand": "Pompe Bianche",
      "lat": 45.5599969,
      "lng": 8.0581806,
      "fuels": {
        "sp95": 1.894,
        "gazole": 1.865
      }
    },
    {
      "id": "10098",
      "cp": "",
      "ville": "Biella",
      "adresse": "Via Trossi   13900",
      "brand": "Api-Ip",
      "lat": 45.555327313698605,
      "lng": 8.06793987751007,
      "fuels": {
        "sp95": 1.859,
        "gazole": 1.899
      }
    },
    {
      "id": "11500",
      "cp": "",
      "ville": "Biella",
      "adresse": "Via Trossi S/N 13051",
      "brand": "q8",
      "lat": 45.555753986013876,
      "lng": 8.067472419643423,
      "fuels": {
        "sp95": 1.859,
        "gazole": 1.939
      }
    },
    {
      "id": "52170",
      "cp": "",
      "ville": "Biella",
      "adresse": "Via Via Ivrea 15 13900, Biella (bi) 15 13900",
      "brand": "Api-Ip",
      "lat": 45.558616784796314,
      "lng": 8.042715787887568,
      "fuels": {
        "sp95": 1.869,
        "gazole": 1.909
      }
    },
    {
      "id": "20209",
      "cp": "",
      "ville": "Biella",
      "adresse": "Viale Claudio Villa 2 13900",
      "brand": "Enercoop",
      "lat": 45.5493291633965,
      "lng": 8.075541257858276,
      "fuels": {
        "sp95": 1.835,
        "gazole": 1.919,
        "e85": 1.69,
        "gplc": 0.759
      }
    },
    {
      "id": "29692",
      "cp": "",
      "ville": "Biella",
      "adresse": "Viale Macalle' 50, 13900",
      "brand": "Esso",
      "lat": 45.553006076305905,
      "lng": 8.054051399230957,
      "fuels": {
        "sp95": 1.869,
        "gazole": 1.939
      }
    },
    {
      "id": "21273",
      "cp": "",
      "ville": "Brusnengo",
      "adresse": "Torino 12 13862",
      "brand": "Pompe Bianche",
      "lat": 45.57933059708864,
      "lng": 8.259285986423492,
      "fuels": {
        "sp95": 1.899,
        "gazole": 1.999,
        "gplc": 0.799
      }
    },
    {
      "id": "61555",
      "cp": "",
      "ville": "Brusnengo",
      "adresse": "Via c. Verzone 2 13862",
      "brand": "Tamoil",
      "lat": 45.594319000815545,
      "lng": 8.24978206102669,
      "fuels": {
        "sp95": 1.899,
        "gazole": 1.999
      }
    },
    {
      "id": "11502",
      "cp": "",
      "ville": "Camburzano",
      "adresse": "Ss 338 Km 4+778 S/N 13866",
      "brand": "q8",
      "lat": 45.54378103231462,
      "lng": 8.013263046741486,
      "fuels": {
        "sp95": 1.859,
        "gazole": 1.939
      }
    },
    {
      "id": "12166",
      "cp": "",
      "ville": "Candelo",
      "adresse": "Via Iv Novembre 6 13878",
      "brand": "Pompe Bianche",
      "lat": 45.5413757202959,
      "lng": 8.111219331622124,
      "fuels": {
        "sp95": 1.879,
        "gazole": 1.989
      }
    },
    {
      "id": "28656",
      "cp": "",
      "ville": "Castelletto Cervo",
      "adresse": "Via Per Buronzo 15 13851",
      "brand": "Api-Ip",
      "lat": 45.50505886574665,
      "lng": 8.243596404790878,
      "fuels": {
        "sp95": 1.889,
        "gazole": 1.999
      }
    },
    {
      "id": "9572",
      "cp": "",
      "ville": "Cavaglià",
      "adresse": "Statale 593 Di Borgo D'ale, km. 1, dir. Torino",
      "brand": "Europam",
      "lat": 45.401193607328736,
      "lng": 8.09191346168518,
      "fuels": {
        "sp95": 1.899,
        "gazole": 1.999
      }
    },
    {
      "id": "62378",
      "cp": "",
      "ville": "Cavaglià",
      "adresse": "Via Avvocato Ferdinando Rondolino 121  13881",
      "brand": "Itala Petroli",
      "lat": 45.415691,
      "lng": 8.0976468,
      "fuels": {
        "sp95": 1.899,
        "gazole": 2.019
      }
    },
    {
      "id": "60375",
      "cp": "",
      "ville": "Cerrione",
      "adresse": "s.p. 143 Km 20+580 Snc 13882",
      "brand": "Beyfin",
      "lat": 45.464571241253374,
      "lng": 8.101259922230573,
      "fuels": {
        "sp95": 1.849,
        "gazole": 1.939,
        "gplc": 0.759
      }
    },
    {
      "id": "33710",
      "cp": "",
      "ville": "Cerrione",
      "adresse": "Statale 143 vercellese, km. 21, dir. Biella - 13882",
      "brand": "Esso",
      "lat": 45.47369978304362,
      "lng": 8.094959110021591,
      "fuels": {
        "sp95": 1.869,
        "gazole": 1.959
      }
    },
    {
      "id": "59624",
      "cp": "",
      "ville": "Cossato",
      "adresse": "s.s.232 km6+700 s.n. 13836",
      "brand": "Pompe Bianche",
      "lat": 45.523869330655884,
      "lng": 8.196352358707427,
      "fuels": {
        "sp95": 1.855,
        "gazole": 1.945
      }
    },
    {
      "id": "38852",
      "cp": "",
      "ville": "Cossato",
      "adresse": "Via Mazzini 3 13855",
      "brand": "Esso",
      "lat": 45.566759020426716,
      "lng": 8.174497288954854,
      "fuels": {
        "sp95": 1.869,
        "gazole": 1.98
      }
    },
    {
      "id": "5437",
      "cp": "",
      "ville": "Cossato",
      "adresse": "Via Mazzini Snc 13836",
      "brand": "Agip Eni",
      "lat": 45.56576971163891,
      "lng": 8.17255344047544,
      "fuels": {
        "sp95": 1.869,
        "gazole": 2.019
      }
    },
    {
      "id": "58507",
      "cp": "",
      "ville": "Cossato",
      "adresse": "Xxv Aprile 56 13836",
      "brand": "Api-Ip",
      "lat": 45.4885376,
      "lng": 12.20608,
      "fuels": {
        "sp95": 1.869,
        "gazole": 1.909
      }
    },
    {
      "id": "14810",
      "cp": "",
      "ville": "Crevacuore",
      "adresse": "Via Valsesia 5 13864",
      "brand": "Api-Ip",
      "lat": 45.68188941495221,
      "lng": 8.249985426664352,
      "fuels": {
        "sp95": 1.919,
        "gazole": 2.019
      }
    },
    {
      "id": "52635",
      "cp": "",
      "ville": "Dorzano",
      "adresse": "Regione Sello 33 13881",
      "brand": "Mc Petroli",
      "lat": 45.42598394387151,
      "lng": 8.106204324400425,
      "fuels": {
        "sp95": 1.839,
        "gazole": 1.969
      }
    },
    {
      "id": "5553",
      "cp": "",
      "ville": "Gaglianico",
      "adresse": "Via Gramsci 133 13894",
      "brand": "Api-Ip",
      "lat": 45.54383738383883,
      "lng": 8.070123131282799,
      "fuels": {
        "sp95": 1.859,
        "gazole": 1.899
      }
    },
    {
      "id": "11498",
      "cp": "",
      "ville": "Masserano",
      "adresse": "loc.rollino Via 2 Giugno S/N 13866",
      "brand": "q8",
      "lat": 45.56353004581195,
      "lng": 8.240808804893504,
      "fuels": {
        "sp95": 1.799,
        "gazole": 2.119
      }
    },
    {
      "id": "62641",
      "cp": "",
      "ville": "Masserano",
      "adresse": "v. Ii Giugno 18 13866",
      "brand": "Retitalia",
      "lat": 45.5704536,
      "lng": 8.2491276,
      "fuels": {
        "sp95": 1.929,
        "gazole": 1.969
      }
    },
    {
      "id": "4134",
      "cp": "",
      "ville": "Masserano",
      "adresse": "Via 4 Novembre 24 13866",
      "brand": "Pompe Bianche",
      "lat": 45.55915929898186,
      "lng": 8.240990793640094,
      "fuels": {
        "sp95": 1.859,
        "gazole": 1.989,
        "gplc": 0.799
      }
    },
    {
      "id": "26238",
      "cp": "",
      "ville": "Mongrando",
      "adresse": "s.p.338 km.6+785 fraz.curanova Sn 13888",
      "brand": "Agip Eni",
      "lat": 45.52565788144383,
      "lng": 8.010552674531937,
      "fuels": {
        "sp95": 1.849,
        "gazole": 1.954
      }
    },
    {
      "id": "60309",
      "cp": "",
      "ville": "Mongrando",
      "adresse": "Via Roma 31  13888",
      "brand": "Pompe Bianche",
      "lat": 45.5197254,
      "lng": 8.0076293,
      "fuels": {
        "sp95": 1.894,
        "gazole": 1.865
      }
    },
    {
      "id": "58426",
      "cp": "",
      "ville": "Occhieppo Inferiore",
      "adresse": "Via Martiri Libertà 18  13897",
      "brand": "Tamoil",
      "lat": 45.55589715783594,
      "lng": 8.026337859783931,
      "fuels": {
        "sp95": 1.899,
        "gazole": 1.959
      }
    },
    {
      "id": "60067",
      "cp": "",
      "ville": "Occhieppo Superiore",
      "adresse": "Via Provinciale 71  13898",
      "brand": "Esso",
      "lat": 45.56118199999999,
      "lng": 8.011229999999998,
      "fuels": {
        "sp95": 1.879,
        "gazole": 1.979
      }
    },
    {
      "id": "54322",
      "cp": "",
      "ville": "Ponderano",
      "adresse": "s.p. 400/A Km 2+950 s.n. 13875",
      "brand": "Tamoil",
      "lat": 45.531541,
      "lng": 8.0414,
      "fuels": {
        "sp95": 1.859,
        "gazole": 1.949,
        "e85": 1.419,
        "gplc": 0.759
      }
    },
    {
      "id": "59185",
      "cp": "",
      "ville": "Ponderano",
      "adresse": "Statale 143 Snc 13875",
      "brand": "Esso",
      "lat": 45.545894934055184,
      "lng": 8.06954435105319,
      "fuels": {
        "sp95": 1.859,
        "gazole": 1.909
      }
    },
    {
      "id": "48386",
      "cp": "",
      "ville": "Pray",
      "adresse": "Via b. Sella 19 13867",
      "brand": "Esso",
      "lat": 45.6753145384902,
      "lng": 8.213896670552256,
      "fuels": {
        "sp95": 1.899,
        "gazole": 2.039
      }
    },
    {
      "id": "42405",
      "cp": "",
      "ville": "Pray",
      "adresse": "Via Biella fraz. Pianceri 2 13867",
      "brand": "Pompe Bianche",
      "lat": 45.67221530683118,
      "lng": 8.21981929242611,
      "fuels": {
        "sp95": 1.919,
        "gazole": 2.059
      }
    },
    {
      "id": "28618",
      "cp": "",
      "ville": "Quaregna Cerreto",
      "adresse": "Cerreto Castello - s.p.biella/Cossato km. 8,420  13060",
      "brand": "Api-Ip",
      "lat": 45.56401925266314,
      "lng": 8.153385830688421,
      "fuels": {
        "sp95": 1.859,
        "gazole": 1.899
      }
    },
    {
      "id": "58451",
      "cp": "",
      "ville": "Quaregna Cerreto",
      "adresse": "Via Martiri Della Libertà 11  13854",
      "brand": "Tamoil",
      "lat": 45.564766727524564,
      "lng": 8.16452133939514,
      "fuels": {
        "sp95": 1.869,
        "gazole": 1.959
      }
    },
    {
      "id": "17300",
      "cp": "",
      "ville": "Ronco Biellese",
      "adresse": "Via Roma  13845",
      "brand": "Tamoil",
      "lat": 45.57913141154521,
      "lng": 8.094035759568214,
      "fuels": {
        "sp95": 1.899,
        "gazole": 1.999
      }
    },
    {
      "id": "6414",
      "cp": "",
      "ville": "Salussola",
      "adresse": "Ss 143 Km 19 435 Snc 13885",
      "brand": "q8",
      "lat": 45.45548766709072,
      "lng": 8.108793490212975,
      "fuels": {
        "sp95": 1.849,
        "gazole": 1.939
      }
    },
    {
      "id": "46629",
      "cp": "",
      "ville": "Sandigliano",
      "adresse": "s.s. 143 Km 24+447 Sn 13876",
      "brand": "Tamoil",
      "lat": 45.49776539881739,
      "lng": 8.085867411045115,
      "fuels": {
        "sp95": 1.849,
        "gazole": 1.959,
        "e85": 1.419,
        "gplc": 0.769
      }
    },
    {
      "id": "26237",
      "cp": "",
      "ville": "Sandigliano",
      "adresse": "Via Gramsci 10 13876",
      "brand": "Agip Eni",
      "lat": 45.527260379224856,
      "lng": 8.074696362018585,
      "fuels": {
        "sp95": 1.849,
        "gazole": 1.954
      }
    },
    {
      "id": "48688",
      "cp": "",
      "ville": "Sandigliano",
      "adresse": "Via Gramsci 49 13876",
      "brand": "Europam",
      "lat": 45.52202688269508,
      "lng": 8.075759150591532,
      "fuels": {
        "sp95": 1.899,
        "gazole": 1.989
      }
    },
    {
      "id": "22209",
      "cp": "",
      "ville": "Valdengo",
      "adresse": "q. Sella 63 13855",
      "brand": "Esso",
      "lat": 45.56296643086004,
      "lng": 8.134371531352144,
      "fuels": {
        "sp95": 1.869,
        "gazole": 1.969
      }
    },
    {
      "id": "61368",
      "cp": "",
      "ville": "Valdengo",
      "adresse": "Strada Statale 142 Km 8+255 Snc 13855",
      "brand": "Retitalia",
      "lat": 45.553502126588,
      "lng": 8.1502640987834,
      "fuels": {
        "sp95": 1.879,
        "gazole": 1.979,
        "gplc": 0.759
      }
    },
    {
      "id": "43495",
      "cp": "",
      "ville": "Valdengo",
      "adresse": "Via Roma  51 13060",
      "brand": "Api-Ip",
      "lat": 45.56635738884196,
      "lng": 8.131582752149598,
      "fuels": {
        "sp95": 2.019,
        "gazole": 2.129,
        "gplc": 0.829
      }
    },
    {
      "id": "17482",
      "cp": "",
      "ville": "Valdilana",
      "adresse": "Statale 232 Panoramica zegna, km. 24, dir. Panoramica Zegna - 13835",
      "brand": "q8",
      "lat": 45.64039904289027,
      "lng": 8.154146252873943,
      "fuels": {
        "sp95": 1.899,
        "gazole": 1.999
      }
    },
    {
      "id": "61553",
      "cp": "",
      "ville": "Valdilana",
      "adresse": "Via Falcero 16 13825",
      "brand": "Tamoil",
      "lat": 45.627806356205575,
      "lng": 8.1499747883579,
      "fuels": {
        "sp95": 1.899,
        "gazole": 2.029
      }
    },
    {
      "id": "60738",
      "cp": "",
      "ville": "Valdilana",
      "adresse": "Via Provinciale 174 13835",
      "brand": "Api-Ip",
      "lat": 45.65,
      "lng": 8.18,
      "fuels": {
        "sp95": 1.919,
        "gazole": 2.019
      }
    },
    {
      "id": "48874",
      "cp": "",
      "ville": "Valdilana",
      "adresse": "Via Quintino Sella  2 13835",
      "brand": "Europam",
      "lat": 45.648706369273064,
      "lng": 8.138658182243702,
      "fuels": {
        "sp95": 1.899,
        "gazole": 2.039
      }
    },
    {
      "id": "30056",
      "cp": "",
      "ville": "Verrone",
      "adresse": "Statale 230 Di massazza, km. 230, dir. Masazza  13871",
      "brand": "Pompe Bianche",
      "lat": 45.50683845963288,
      "lng": 8.118454590439796,
      "fuels": {
        "sp95": 1.899,
        "gazole": 1.949
      }
    },
    {
      "id": "34224",
      "cp": "",
      "ville": "Vigliano Biellese",
      "adresse": "Milano 7 13856",
      "brand": "Tamoil",
      "lat": 45.56546084543841,
      "lng": 8.093970715999603,
      "fuels": {
        "sp95": 1.859,
        "gazole": 1.929
      }
    },
    {
      "id": "32151",
      "cp": "",
      "ville": "Vigliano Biellese",
      "adresse": "s.s. 142 km. 6,625  13069",
      "brand": "Api-Ip",
      "lat": 45.55545634400619,
      "lng": 8.131575101852377,
      "fuels": {
        "sp95": 1.879,
        "gazole": 1.919
      }
    },
    {
      "id": "27843",
      "cp": "",
      "ville": "Vigliano Biellese",
      "adresse": "Strada Della Tollegna Sn 13856",
      "brand": "Agip Eni",
      "lat": 45.55467691103092,
      "lng": 8.129040598869324,
      "fuels": {
        "sp95": 1.849,
        "gazole": 1.954
      }
    },
    {
      "id": "10110",
      "cp": "",
      "ville": "Vigliano Biellese",
      "adresse": "Via Milano 2 13856",
      "brand": "q8",
      "lat": 45.5660773116182,
      "lng": 8.088916871827678,
      "fuels": {
        "sp95": 1.849,
        "gazole": 1.929
      }
    },
    {
      "id": "36664",
      "cp": "",
      "ville": "Vigliano Biellese",
      "adresse": "Via Milano 447 13856",
      "brand": "Agip Eni",
      "lat": 45.56293869921625,
      "lng": 8.127684742212296,
      "fuels": {
        "sp95": 1.849,
        "gazole": 1.954
      }
    },
    {
      "id": "11497",
      "cp": "",
      "ville": "Villanova Biellese",
      "adresse": "Localita' Donna S/N 13030",
      "brand": "q8",
      "lat": 45.469613166997966,
      "lng": 8.211475860118867,
      "fuels": {
        "sp95": 1.869,
        "gazole": 1.949
      }
    },
    {
      "id": "52737",
      "cp": "",
      "ville": "Viverone",
      "adresse": "Comuna 2 13886",
      "brand": "Pompe Bianche",
      "lat": 45.40917753205206,
      "lng": 8.053656811301835,
      "fuels": {
        "sp95": 2.15
      }
    },
    {
      "id": "46700",
      "cp": "",
      "ville": "Viverone",
      "adresse": "Provinciale 65 13886",
      "brand": "Tamoil",
      "lat": 45.42344896507911,
      "lng": 8.050920585700851,
      "fuels": {
        "sp95": 1.929,
        "gazole": 1.999
      }
    }
  ]
}