{
  "code": "BL",
  "name": "Belluno",
  "regionCode": "VEN",
  "regionName": "Veneto",
  "asOf": "2026-06-21T18:19:33.838Z",
  "source": "https://www.mimit.gov.it/it/open-data/elenco-dataset/2032336-dataset-prezzi-carburanti",
  "stationCount": 99,
  "fuels": {
    "gazole": {
      "count": 98,
      "mean": 1.9272,
      "median": 1.919,
      "min": 1.862,
      "max": 2.039
    },
    "sp95": {
      "count": 98,
      "mean": 1.8473,
      "median": 1.839,
      "min": 1.787,
      "max": 1.979
    },
    "sp98": {
      "count": 1,
      "mean": 2.119,
      "median": 2.119,
      "min": 2.119,
      "max": 2.119
    },
    "e85": {
      "count": 5,
      "mean": 1.5776,
      "median": 1.597,
      "min": 1.499,
      "max": 1.599
    },
    "gplc": {
      "count": 15,
      "mean": 0.7916,
      "median": 0.789,
      "min": 0.689,
      "max": 0.879
    }
  },
  "stations": [
    {
      "id": "32592",
      "cp": "",
      "ville": "Agordo",
      "adresse": "Via 4 Novembre 24 32100",
      "brand": "Europam",
      "lat": 46.28639711420593,
      "lng": 12.033049659524522,
      "fuels": {
        "sp95": 1.837,
        "gazole": 1.937
      }
    },
    {
      "id": "31991",
      "cp": "",
      "ville": "Agordo",
      "adresse": "Via Iv Novembre 1918 8 32021",
      "brand": "Agip Eni",
      "lat": 46.28521421951697,
      "lng": 12.0339501971672,
      "fuels": {
        "sp95": 1.824,
        "gazole": 1.914
      }
    },
    {
      "id": "56170",
      "cp": "",
      "ville": "Agordo",
      "adresse": "Via Rova Snc 32021",
      "brand": "Agip Eni",
      "lat": 46.27976,
      "lng": 12.038386,
      "fuels": {
        "sp95": 1.829,
        "gazole": 1.919
      }
    },
    {
      "id": "27721",
      "cp": "",
      "ville": "Alano Di Piave",
      "adresse": "Via Della Vittoria 17/A 32031",
      "brand": "Esso",
      "lat": 45.90404151247259,
      "lng": 11.941783279180527,
      "fuels": {
        "sp95": 1.899,
        "gazole": 1.999
      }
    },
    {
      "id": "48043",
      "cp": "",
      "ville": "Alleghe",
      "adresse": "Nazionale 16/A 32022",
      "brand": "Beyfin",
      "lat": 46.4267328815166,
      "lng": 12.005509223986808,
      "fuels": {
        "sp95": 1.879,
        "gazole": 1.959,
        "gplc": 0.879
      }
    },
    {
      "id": "51294",
      "cp": "",
      "ville": "Alpago",
      "adresse": "Via Via Roma 102 32016, Alpago (bl) 102 32016",
      "brand": "Gdpi",
      "lat": 46.13864561671502,
      "lng": 12.353602592630274,
      "fuels": {
        "sp95": 1.808,
        "gazole": 1.888
      }
    },
    {
      "id": "20358",
      "cp": "",
      "ville": "Arsiè",
      "adresse": "Via Dante Alighieri 10 32030",
      "brand": "Carsie",
      "lat": 45.983434,
      "lng": 11.756808,
      "fuels": {
        "sp95": 1.853,
        "gazole": 1.873
      }
    },
    {
      "id": "39703",
      "cp": "",
      "ville": "Auronzo Di Cadore",
      "adresse": "Via Cella   32041",
      "brand": "Tamoil",
      "lat": 46.543701456142614,
      "lng": 12.459371864279206,
      "fuels": {
        "sp95": 1.849,
        "gazole": 1.919
      }
    },
    {
      "id": "21612",
      "cp": "",
      "ville": "Auronzo Di Cadore",
      "adresse": "Via Unione 1/B 32041",
      "brand": "Esso",
      "lat": 46.54893826766001,
      "lng": 12.448958644844083,
      "fuels": {
        "sp95": 1.899,
        "gazole": 1.939
      }
    },
    {
      "id": "53528",
      "cp": "",
      "ville": "Belluno",
      "adresse": "Del Boscon - loc. Salce 254 32100",
      "brand": "Tamoil",
      "lat": 46.119017,
      "lng": 12.16925,
      "fuels": {
        "sp95": 1.849,
        "gazole": 1.939
      }
    },
    {
      "id": "57350",
      "cp": "",
      "ville": "Belluno",
      "adresse": "e. De Amicis 269 32100",
      "brand": "Api-Ip",
      "lat": 46.1267770765233,
      "lng": 12.2331647270015,
      "fuels": {
        "sp95": 1.809,
        "gazole": 1.909
      }
    },
    {
      "id": "54914",
      "cp": "",
      "ville": "Belluno",
      "adresse": "Fratelli Rosselli Snc 32100",
      "brand": "Agip Eni",
      "lat": 46.1422919474547,
      "lng": 12.198378145694733,
      "fuels": {
        "sp95": 1.789,
        "gazole": 1.864
      }
    },
    {
      "id": "39416",
      "cp": "",
      "ville": "Belluno",
      "adresse": "Marisiga Snc 32100",
      "brand": "Agip Eni",
      "lat": 46.12656150749139,
      "lng": 12.182113230228424,
      "fuels": {
        "sp95": 1.959,
        "gazole": 2.029
      }
    },
    {
      "id": "59072",
      "cp": "",
      "ville": "Belluno",
      "adresse": "s. Fermo - s.s. 50 km. 13+294  32100",
      "brand": "Api-Ip",
      "lat": 46.115000986314264,
      "lng": 12.156142454817202,
      "fuels": {
        "sp95": 1.809,
        "gazole": 1.909
      }
    },
    {
      "id": "43224",
      "cp": "",
      "ville": "Belluno",
      "adresse": "s.p. Sinistra Piave Sn 32100",
      "brand": "Api-Ip",
      "lat": 46.11953748953464,
      "lng": 12.204285889549283,
      "fuels": {
        "sp95": 1.789,
        "gazole": 1.899,
        "gplc": 0.779
      }
    },
    {
      "id": "55363",
      "cp": "",
      "ville": "Belluno",
      "adresse": "Via Agordo 255  32100",
      "brand": "Oil Italia",
      "lat": 46.13981275727595,
      "lng": 12.17957854270935,
      "fuels": {
        "e85": 1.597
      }
    },
    {
      "id": "48685",
      "cp": "",
      "ville": "Belluno",
      "adresse": "Via Agordo 255 32100",
      "brand": "Oil Italia",
      "lat": 46.14030394598526,
      "lng": 12.181131428293192,
      "fuels": {
        "sp95": 1.819,
        "gazole": 1.919,
        "e85": 1.597,
        "gplc": 0.799
      }
    },
    {
      "id": "39151",
      "cp": "",
      "ville": "Belluno",
      "adresse": "Via Col Di Lana Snc 32100",
      "brand": "Esso",
      "lat": 46.14541010467358,
      "lng": 12.211451232433319,
      "fuels": {
        "sp95": 1.899,
        "gazole": 1.949
      }
    },
    {
      "id": "51738",
      "cp": "",
      "ville": "Belluno",
      "adresse": "Via Feltre  242 32100",
      "brand": "Azzalini Energie",
      "lat": 46.13610485302201,
      "lng": 12.201738961939155,
      "fuels": {
        "sp95": 1.813,
        "gazole": 1.915
      }
    },
    {
      "id": "11509",
      "cp": "",
      "ville": "Belluno",
      "adresse": "Via Feltre 79 32100",
      "brand": "q8",
      "lat": 46.13688225420928,
      "lng": 12.204133524582858,
      "fuels": {
        "sp95": 1.815,
        "gazole": 1.917
      }
    },
    {
      "id": "61908",
      "cp": "",
      "ville": "Belluno",
      "adresse": "Via Marisiga 50/52  32100",
      "brand": "Agip Eni",
      "lat": 46.12656328980721,
      "lng": 12.182129717854968,
      "fuels": {
        "sp95": 1.859,
        "gazole": 1.919
      }
    },
    {
      "id": "54347",
      "cp": "",
      "ville": "Belluno",
      "adresse": "Via Meassa Smc 32100",
      "brand": "Agip Eni",
      "lat": 46.150917,
      "lng": 12.257722,
      "fuels": {
        "sp95": 1.829,
        "gazole": 1.919
      }
    },
    {
      "id": "62243",
      "cp": "",
      "ville": "Belluno",
      "adresse": "Via Tiziano Vecellio 54  32100",
      "brand": "Agip Eni",
      "lat": 46.1594151,
      "lng": 12.2382489,
      "fuels": {
        "sp95": 1.879,
        "gazole": 1.979
      }
    },
    {
      "id": "51347",
      "cp": "",
      "ville": "Belluno",
      "adresse": "Via Vittorio Veneto  162 32100",
      "brand": "Agip Eni",
      "lat": 46.14831169386265,
      "lng": 12.22618036441804,
      "fuels": {
        "sp95": 1.849,
        "gazole": 1.949
      }
    },
    {
      "id": "17647",
      "cp": "",
      "ville": "Belluno",
      "adresse": "Via Vittorio Veneto 58 32100",
      "brand": "Api-Ip",
      "lat": 46.14482795304991,
      "lng": 12.222498836639943,
      "fuels": {
        "sp95": 1.799,
        "gazole": 1.899
      }
    },
    {
      "id": "47878",
      "cp": "",
      "ville": "Belluno",
      "adresse": "Viale Europa 70 32100",
      "brand": "Cucagas",
      "lat": 46.13080157642843,
      "lng": 12.189659635581952,
      "fuels": {
        "sp95": 1.819,
        "gazole": 1.919,
        "gplc": 0.789
      }
    },
    {
      "id": "51873",
      "cp": "",
      "ville": "Borca Di Cadore",
      "adresse": "Via roma, 17",
      "brand": "Agip Eni",
      "lat": 46.43567237941992,
      "lng": 12.223358982691154,
      "fuels": {
        "sp95": 1.829,
        "gazole": 1.919
      }
    },
    {
      "id": "60122",
      "cp": "",
      "ville": "Borgo Valbelluna",
      "adresse": "Gus 77 32026",
      "brand": "Pompe Bianche",
      "lat": 46.05340959626617,
      "lng": 12.072087150610358,
      "fuels": {
        "sp95": 1.8,
        "gazole": 1.88
      }
    },
    {
      "id": "43294",
      "cp": "",
      "ville": "Borgo Valbelluna",
      "adresse": "Tempietto 116 32026",
      "brand": "Agip Eni",
      "lat": 46.06505536690423,
      "lng": 12.094941437244415,
      "fuels": {
        "sp95": 1.829,
        "gazole": 1.919
      }
    },
    {
      "id": "41820",
      "cp": "",
      "ville": "Borgo Valbelluna",
      "adresse": "Via a. Palman 16 32028",
      "brand": "Energyca",
      "lat": 46.073405538378175,
      "lng": 12.13087497662184,
      "fuels": {
        "sp95": 1.818,
        "gazole": 1.918
      }
    },
    {
      "id": "55866",
      "cp": "",
      "ville": "Borgo Valbelluna",
      "adresse": "Via Cavassico Inferiore",
      "brand": "Tamoil",
      "lat": 46.0851759,
      "lng": 12.1253427,
      "fuels": {
        "sp95": 1.859,
        "gazole": 1.949,
        "e85": 1.499,
        "gplc": 0.779
      }
    },
    {
      "id": "57976",
      "cp": "",
      "ville": "Borgo Valbelluna",
      "adresse": "Via Cavassico Superiore 31 32026",
      "brand": "Agip Eni",
      "lat": 46.07859,
      "lng": 12.13854,
      "fuels": {
        "sp95": 1.789,
        "gazole": 1.864
      }
    },
    {
      "id": "38043",
      "cp": "",
      "ville": "Borgo Valbelluna",
      "adresse": "Viale Belluno 47 32026",
      "brand": "Agip Eni",
      "lat": 46.04074765667041,
      "lng": 12.00549213587692,
      "fuels": {
        "sp95": 1.789,
        "gazole": 1.864
      }
    },
    {
      "id": "42027",
      "cp": "",
      "ville": "Calalzo Di Cadore",
      "adresse": "Via Nazionale s.n. 32042",
      "brand": "Tamoil",
      "lat": 46.448295401278685,
      "lng": 12.393382787704468,
      "fuels": {
        "sp95": 1.849,
        "gazole": 1.879
      }
    },
    {
      "id": "60211",
      "cp": "",
      "ville": "Cencenighe Agordino",
      "adresse": "Morbiach Snc 32020",
      "brand": "Pompe Bianche",
      "lat": 46.33726,
      "lng": 11.98243,
      "fuels": {
        "sp95": 1.838,
        "gazole": 1.938
      }
    },
    {
      "id": "42004",
      "cp": "",
      "ville": "Comelico Superiore",
      "adresse": "52 carnica, km. 94+800, - 32040",
      "brand": "Tamoil",
      "lat": 46.601428736654526,
      "lng": 12.523786425590515,
      "fuels": {
        "sp95": 1.849,
        "gazole": 1.899
      }
    },
    {
      "id": "57857",
      "cp": "",
      "ville": "Cortina D'Ampezzo",
      "adresse": "Corso Italia  199 70",
      "brand": "Agip Eni",
      "lat": 46.540806,
      "lng": 12.135149,
      "fuels": {
        "sp95": 1.849,
        "gazole": 1.954
      }
    },
    {
      "id": "61000",
      "cp": "",
      "ville": "Cortina D'Ampezzo",
      "adresse": "Località Zuel Di Sopra 99  32043",
      "brand": "Esso",
      "lat": 46.51469322366687,
      "lng": 12.146189646327516,
      "fuels": {
        "sp95": 1.839,
        "gazole": 1.939
      }
    },
    {
      "id": "30245",
      "cp": "",
      "ville": "Cortina D'Ampezzo",
      "adresse": "Ss 51 - Localita Cademai  32043",
      "brand": "Api-Ip",
      "lat": 46.55170184455448,
      "lng": 12.130137550926179,
      "fuels": {
        "sp95": 1.839,
        "gazole": 1.929
      }
    },
    {
      "id": "35568",
      "cp": "",
      "ville": "Cortina D'Ampezzo",
      "adresse": "Via fiames, 15 - s.s. 51 Di alemagna, km. 107.900 dir. Nord 15 32043",
      "brand": "Pompe Bianche",
      "lat": 46.57584047729798,
      "lng": 12.116360712197093,
      "fuels": {
        "sp95": 1.847,
        "gazole": 1.904
      }
    },
    {
      "id": "28892",
      "cp": "",
      "ville": "Cortina D'Ampezzo",
      "adresse": "Via Roma 110 32043",
      "brand": "Api-Ip",
      "lat": 46.53213376693475,
      "lng": 12.140089786508156,
      "fuels": {
        "sp95": 1.919,
        "gazole": 1.989
      }
    },
    {
      "id": "46531",
      "cp": "",
      "ville": "Cortina D'Ampezzo",
      "adresse": "Via Via Dello Stadio 7 32043, Cortina D'Ampezzo (bl) 7 32043",
      "brand": "Costantin",
      "lat": 46.54138243351324,
      "lng": 12.132331285274063,
      "fuels": {
        "sp95": 1.859,
        "gazole": 1.949
      }
    },
    {
      "id": "61199",
      "cp": "",
      "ville": "Domegge Di Cadore",
      "adresse": "Via Risorgimento 42  32040",
      "brand": "Esso",
      "lat": 46.4584208317055,
      "lng": 12.410795870539397,
      "fuels": {
        "sp95": 1.829,
        "gazole": 1.879
      }
    },
    {
      "id": "55211",
      "cp": "",
      "ville": "Domegge Di Cadore",
      "adresse": "Via Treviso  6 32040",
      "brand": "Esso",
      "lat": 46.462632102526364,
      "lng": 12.420907616615295,
      "fuels": {
        "sp95": 1.829,
        "gazole": 1.879
      }
    },
    {
      "id": "11508",
      "cp": "",
      "ville": "Falcade",
      "adresse": "fr.caviola Via Pineta ss.346 S/N 32020",
      "brand": "q8",
      "lat": 46.36276598277655,
      "lng": 11.893151003674234,
      "fuels": {
        "sp95": 1.837,
        "gazole": 1.937
      }
    },
    {
      "id": "51736",
      "cp": "",
      "ville": "Falcade",
      "adresse": "Via Roma 121 32020",
      "brand": "Oil Italia",
      "lat": 46.35899326936217,
      "lng": 11.881268024444575,
      "fuels": {
        "sp95": 1.832,
        "gazole": 1.932
      }
    },
    {
      "id": "55741",
      "cp": "",
      "ville": "Farra D'Alpago",
      "adresse": "Via Matteotti",
      "brand": "Tamoil",
      "lat": 46.1266938,
      "lng": 12.3516458,
      "fuels": {
        "sp95": 1.799,
        "gazole": 1.879
      }
    },
    {
      "id": "19809",
      "cp": "",
      "ville": "Feltre",
      "adresse": "50 Del Grappa E Del Passo rolle, km. 39, Feltre  32032",
      "brand": "Cucagas",
      "lat": 46.031101845851204,
      "lng": 11.954888552427292,
      "fuels": {
        "sp95": 1.799,
        "gazole": 1.899,
        "gplc": 0.689
      }
    },
    {
      "id": "53527",
      "cp": "",
      "ville": "Feltre",
      "adresse": "Culiada 106 32032",
      "brand": "Tamoil",
      "lat": 46.014333,
      "lng": 11.874371,
      "fuels": {
        "sp95": 1.829,
        "gazole": 1.919
      }
    },
    {
      "id": "46530",
      "cp": "",
      "ville": "Feltre",
      "adresse": "Piave 5 32032",
      "brand": "Tamoil",
      "lat": 46.01441776737191,
      "lng": 11.910704553380924,
      "fuels": {
        "sp95": 1.829,
        "gazole": 1.919
      }
    },
    {
      "id": "62992",
      "cp": "",
      "ville": "Feltre",
      "adresse": "Sant Anna 35 32032",
      "brand": "Api-Ip",
      "lat": 46.03329,
      "lng": 11.911998,
      "fuels": {
        "sp95": 1.899,
        "gazole": 1.999
      }
    },
    {
      "id": "40844",
      "cp": "",
      "ville": "Feltre",
      "adresse": "Via Bagnolas Sur Ceze 2 32032",
      "brand": "Esso",
      "lat": 46.021437262946016,
      "lng": 11.905965059995651,
      "fuels": {
        "sp95": 1.829,
        "gazole": 1.929
      }
    },
    {
      "id": "31016",
      "cp": "",
      "ville": "Feltre",
      "adresse": "Via Belluno 40 32032",
      "brand": "Agip Eni",
      "lat": 46.023457852016776,
      "lng": 11.923167931213356,
      "fuels": {
        "sp95": 1.819,
        "gazole": 1.904
      }
    },
    {
      "id": "11507",
      "cp": "",
      "ville": "Feltre",
      "adresse": "Via Belluno 52 32032",
      "brand": "q8",
      "lat": 46.02441862396799,
      "lng": 11.924890029430344,
      "fuels": {
        "sp95": 1.809,
        "gazole": 1.894
      }
    },
    {
      "id": "11504",
      "cp": "",
      "ville": "Feltre",
      "adresse": "Via d.alighieri 25 32032",
      "brand": "q8",
      "lat": 46.018708733222496,
      "lng": 11.889843673610699,
      "fuels": {
        "sp95": 1.849,
        "gazole": 1.944
      }
    },
    {
      "id": "8473",
      "cp": "",
      "ville": "Feltre",
      "adresse": "Via Vigne Basse 3 32032",
      "brand": "Costantin",
      "lat": 46.0117282,
      "lng": 11.9273143,
      "fuels": {
        "sp95": 1.869,
        "gazole": 1.959,
        "gplc": 0.789
      }
    },
    {
      "id": "27757",
      "cp": "",
      "ville": "Feltre",
      "adresse": "Via Xiv Agosto 2 32032",
      "brand": "Api-Ip",
      "lat": 46.01830039382752,
      "lng": 11.899888222000982,
      "fuels": {
        "sp95": 1.879,
        "gazole": 1.939
      }
    },
    {
      "id": "50945",
      "cp": "",
      "ville": "Fonzaso",
      "adresse": "Primiero 46 32030",
      "brand": "Api-Ip",
      "lat": 46.02039884792398,
      "lng": 11.786419078124636,
      "fuels": {
        "sp95": 1.879,
        "gazole": 1.939
      }
    },
    {
      "id": "60080",
      "cp": "",
      "ville": "Fonzaso",
      "adresse": "Via Angelo Zucco 35 32030",
      "brand": "Pompe Bianche",
      "lat": 46.00988437412643,
      "lng": 11.796980469620545,
      "fuels": {
        "sp95": 1.829,
        "gazole": 1.874,
        "gplc": 0.759
      }
    },
    {
      "id": "59267",
      "cp": "",
      "ville": "Fonzaso",
      "adresse": "Via Fenadora 2  32030",
      "brand": "Beyfin",
      "lat": 46.00260033778431,
      "lng": 11.826321320443547,
      "fuels": {
        "sp95": 1.859,
        "gazole": 1.879,
        "e85": 1.599,
        "gplc": 0.769
      }
    },
    {
      "id": "60210",
      "cp": "",
      "ville": "La Valle Agordina",
      "adresse": "Le Campe 8 32020",
      "brand": "Pompe Bianche",
      "lat": 46.262204,
      "lng": 12.040507,
      "fuels": {
        "sp95": 1.838,
        "gazole": 1.938,
        "gplc": 0.878
      }
    },
    {
      "id": "18346",
      "cp": "",
      "ville": "Lamon",
      "adresse": "Via Pian Del Vesco 92 32033",
      "brand": "Azzalini Energie",
      "lat": 46.03151133582518,
      "lng": 11.757185608148575,
      "fuels": {
        "sp95": 1.899,
        "gazole": 1.939
      }
    },
    {
      "id": "31202",
      "cp": "",
      "ville": "Limana",
      "adresse": "Via La Cal 136 32020",
      "brand": "Energyca",
      "lat": 46.10707103358503,
      "lng": 12.196138501167297,
      "fuels": {
        "sp95": 1.898,
        "gazole": 2.008
      }
    },
    {
      "id": "49216",
      "cp": "",
      "ville": "Livinallongo Del Col Di Lana",
      "adresse": "Via Brenta  81 32020",
      "brand": "Oil Italia",
      "lat": 46.484591695572036,
      "lng": 11.94825142621994,
      "fuels": {
        "sp95": 1.877,
        "gazole": 1.957
      }
    },
    {
      "id": "56051",
      "cp": "",
      "ville": "Longarone",
      "adresse": "s.s. 51 Di Alemagna Km 46+950",
      "brand": "Tamoil",
      "lat": 46.244917,
      "lng": 12.297366,
      "fuels": {
        "sp95": 1.789,
        "gazole": 1.869
      }
    },
    {
      "id": "51933",
      "cp": "",
      "ville": "Longarone",
      "adresse": "ss51 Alemagna Km 44+700 - loc. Fortogna  32016",
      "brand": "Azzalini Energie",
      "lat": 46.227427218438365,
      "lng": 12.288680076599121,
      "fuels": {
        "sp95": 1.787,
        "gazole": 1.867,
        "e85": 1.596
      }
    },
    {
      "id": "50314",
      "cp": "",
      "ville": "Longarone",
      "adresse": "Statale 51 22 32013",
      "brand": "Agip Eni",
      "lat": 46.24797651363143,
      "lng": 12.29841365357902,
      "fuels": {
        "sp95": 1.849,
        "gazole": 1.949
      }
    },
    {
      "id": "24967",
      "cp": "",
      "ville": "Longarone",
      "adresse": "Statale 51 Di alemagna, km. km. 48,260, dir. Longarone - 32013",
      "brand": "Api-Ip",
      "lat": 46.25591483666221,
      "lng": 12.298532186508169,
      "fuels": {
        "sp95": 1.809,
        "gazole": 1.879
      }
    },
    {
      "id": "59839",
      "cp": "",
      "ville": "Lozzo Di Cadore",
      "adresse": "Via Roma 142 32040",
      "brand": "Azzalini Energie",
      "lat": 46.48476927449911,
      "lng": 12.445749878958123,
      "fuels": {
        "sp95": 1.847,
        "gazole": 1.897
      }
    },
    {
      "id": "40845",
      "cp": "",
      "ville": "Pedavena",
      "adresse": "Viale Vittorio Veneto 80 32034",
      "brand": "Esso",
      "lat": 46.03655494553412,
      "lng": 11.882462203502655,
      "fuels": {
        "sp95": 1.829,
        "gazole": 1.929
      }
    },
    {
      "id": "56871",
      "cp": "",
      "ville": "Perarolo Di Cadore",
      "adresse": "Ss 51 Alemagna Km 64+663 Snc 32010",
      "brand": "Beyfin",
      "lat": 46.3777205227373,
      "lng": 12.359358295798302,
      "fuels": {
        "sp95": 1.869,
        "gazole": 1.939,
        "gplc": 0.809
      }
    },
    {
      "id": "55492",
      "cp": "",
      "ville": "Pieve D'Alpago",
      "adresse": "Via Catisana 34  32010",
      "brand": "Sia Fuel",
      "lat": 46.16776,
      "lng": 12.35314,
      "fuels": {
        "sp95": 1.898,
        "gazole": 1.988
      }
    },
    {
      "id": "20218",
      "cp": "",
      "ville": "Pieve Di Cadore",
      "adresse": "Via Ferdinando Coletti 8 32044",
      "brand": "Api-Ip",
      "lat": 46.4232584187406,
      "lng": 12.359530748801149,
      "fuels": {
        "sp95": 1.819,
        "gazole": 1.919
      }
    },
    {
      "id": "3599",
      "cp": "",
      "ville": "Ponte Nelle Alpi",
      "adresse": "Autostrada a27 Mestre-belluno, km. 81+500, dir. Sud - 32014",
      "brand": "Api-Ip",
      "lat": 46.201264858668736,
      "lng": 12.28869615211488,
      "fuels": {
        "sp95": 1.919,
        "gazole": 1.865,
        "sp98": 2.119
      }
    },
    {
      "id": "55194",
      "cp": "",
      "ville": "Ponte Nelle Alpi",
      "adresse": "ss. 51 \"di alemagna\" km. 37+780 Lato Dx",
      "brand": "Tamoil",
      "lat": 46.172815,
      "lng": 12.289342,
      "fuels": {
        "sp95": 1.799,
        "gazole": 1.879
      }
    },
    {
      "id": "20474",
      "cp": "",
      "ville": "Ponte Nelle Alpi",
      "adresse": "Via Roma  32014",
      "brand": "Agip Eni",
      "lat": 46.177999223222294,
      "lng": 12.28352889418602,
      "fuels": {
        "sp95": 1.859,
        "gazole": 1.969
      }
    },
    {
      "id": "11505",
      "cp": "",
      "ville": "Ponte Nelle Alpi",
      "adresse": "Viale Cadore 24 32014",
      "brand": "q8",
      "lat": 46.18134085628156,
      "lng": 12.28384099140169,
      "fuels": {
        "sp95": 1.859,
        "gazole": 1.935
      }
    },
    {
      "id": "61712",
      "cp": "",
      "ville": "Ponte Nelle Alpi",
      "adresse": "Viale Cadore 55  32014",
      "brand": "San Marco Petroli",
      "lat": 46.18546806674114,
      "lng": 12.285505682229996,
      "fuels": {
        "sp95": 1.839,
        "gazole": 1.895,
        "gplc": 0.799
      }
    },
    {
      "id": "14959",
      "cp": "",
      "ville": "Puos D'Alpago",
      "adresse": "Viale Alpago 290 32015",
      "brand": "Agip Eni",
      "lat": 46.13265901492175,
      "lng": 12.323200942327844,
      "fuels": {
        "sp95": 1.879,
        "gazole": 1.979
      }
    },
    {
      "id": "32220",
      "cp": "",
      "ville": "Quero Vas",
      "adresse": "Statale 348 feltrina, km. 46, dir. Feltre - 32038",
      "brand": "Agip Eni",
      "lat": 45.91611471987569,
      "lng": 11.941926635490631,
      "fuels": {
        "sp95": 1.859,
        "gazole": 1.919
      }
    },
    {
      "id": "32315",
      "cp": "",
      "ville": "Quero Vas",
      "adresse": "Strada Provinciale 1/bis, km. 12, dir. Treviso  32038",
      "brand": "Pompe Bianche",
      "lat": 45.96169620356825,
      "lng": 11.93881889274428,
      "fuels": {
        "sp95": 1.979,
        "gazole": 1.939
      }
    },
    {
      "id": "23193",
      "cp": "",
      "ville": "Quero Vas",
      "adresse": "Via Madonna Del Piave 1/Bis 32030",
      "brand": "Pompe Bianche",
      "lat": 45.936152665546125,
      "lng": 11.930712461471558,
      "fuels": {
        "sp95": 1.899,
        "gazole": 1.979,
        "gplc": 0.799
      }
    },
    {
      "id": "11506",
      "cp": "",
      "ville": "San Vito Di Cadore",
      "adresse": "Via Nazionale 88 32046",
      "brand": "q8",
      "lat": 46.46599796777453,
      "lng": 12.204178542327895,
      "fuels": {
        "sp95": 1.849,
        "gazole": 1.949
      }
    },
    {
      "id": "54588",
      "cp": "",
      "ville": "Santa Giustina",
      "adresse": "Dei Tigli 28 32035",
      "brand": "Tamoil",
      "lat": 46.0886107,
      "lng": 12.0524049,
      "fuels": {
        "sp95": 1.859,
        "gazole": 1.949,
        "gplc": 0.769
      }
    },
    {
      "id": "56578",
      "cp": "",
      "ville": "Santa Giustina",
      "adresse": "s.s. 50 Km 28 + 181 - loc. Piovena",
      "brand": "Esso",
      "lat": 46.059330865466116,
      "lng": 12.003887048548911,
      "fuels": {
        "sp95": 1.829,
        "gazole": 1.929
      }
    },
    {
      "id": "39300",
      "cp": "",
      "ville": "Santa Giustina",
      "adresse": "Via Feltre 48 32035",
      "brand": "Agip Eni",
      "lat": 46.080956668642536,
      "lng": 12.035936191678047,
      "fuels": {
        "sp95": 1.789,
        "gazole": 1.864
      }
    },
    {
      "id": "40112",
      "cp": "",
      "ville": "Santo Stefano Di Cadore",
      "adresse": "Ex Ss 355 Km 46+175 Snc 32045",
      "brand": "Tamoil",
      "lat": 46.56717801386911,
      "lng": 12.586840800239884,
      "fuels": {
        "sp95": 1.849,
        "gazole": 1.919
      }
    },
    {
      "id": "54599",
      "cp": "",
      "ville": "Santo Stefano Di Cadore",
      "adresse": "Ss 52 km.88+530 Sx - Via venezia, 52  52 32045",
      "brand": "Esso",
      "lat": 46.55297171613573,
      "lng": 12.548986980114746,
      "fuels": {
        "sp95": 1.909,
        "gazole": 1.979
      }
    },
    {
      "id": "51737",
      "cp": "",
      "ville": "Santo Stefano Di Cadore",
      "adresse": "Via San Candido 47 32045",
      "brand": "Oil Italia",
      "lat": 46.56052194886806,
      "lng": 12.547791432988848,
      "fuels": {
        "sp95": 1.839,
        "gazole": 1.909
      }
    },
    {
      "id": "43090",
      "cp": "",
      "ville": "Sedico",
      "adresse": "Feltre 107 32036",
      "brand": "Agip Eni",
      "lat": 46.10115715625394,
      "lng": 12.09071159362793,
      "fuels": {
        "sp95": 1.899,
        "gazole": 1.989
      }
    },
    {
      "id": "33402",
      "cp": "",
      "ville": "Sedico",
      "adresse": "Statale 50 Del Grappa E Del Passo rolle, km. 100, dir. Belluno - 32036",
      "brand": "Beyfin",
      "lat": 46.110202528047736,
      "lng": 12.102030515670776,
      "fuels": {
        "sp95": 1.839,
        "gazole": 1.909,
        "gplc": 0.789
      }
    },
    {
      "id": "61996",
      "cp": "",
      "ville": "Sedico",
      "adresse": "Via Peron 54  32036",
      "brand": "Agip Eni",
      "lat": 46.16245148422157,
      "lng": 12.127059752093503,
      "fuels": {
        "sp95": 1.827,
        "gazole": 1.897
      }
    },
    {
      "id": "56233",
      "cp": "",
      "ville": "Sedico",
      "adresse": "Via s. Ubaldo 67/A 32036",
      "brand": "Azzalini Energie",
      "lat": 46.094543276659316,
      "lng": 12.107046246528625,
      "fuels": {
        "sp95": 1.787,
        "gazole": 1.862
      }
    },
    {
      "id": "61722",
      "cp": "",
      "ville": "Selva Di Cadore",
      "adresse": "Via Bacalin 2  32020",
      "brand": "San Marco Petroli",
      "lat": 46.453970885404885,
      "lng": 12.033306956291199,
      "fuels": {
        "sp95": 1.879,
        "gazole": 1.959
      }
    },
    {
      "id": "21281",
      "cp": "",
      "ville": "Tambre",
      "adresse": "Via Fullin 16 32010",
      "brand": "Agip Eni",
      "lat": 46.126179301724314,
      "lng": 12.420748096161219,
      "fuels": {
        "sp95": 1.899,
        "gazole": 2.003
      }
    },
    {
      "id": "21805",
      "cp": "",
      "ville": "Val Di Zoldo",
      "adresse": "251 Della Val Di Zoldo E Val cellina, km. 1, Nord 251 32010",
      "brand": "Energyca",
      "lat": 46.38427445483939,
      "lng": 12.117241322994232,
      "fuels": {
        "sp95": 1.868,
        "gazole": 1.988
      }
    },
    {
      "id": "53267",
      "cp": "",
      "ville": "Val Di Zoldo",
      "adresse": "Extra Urbano v. Canale Ai Pez loc.ciom s.n. 32012, Forno Di Zoldo (bl) 3 32012",
      "brand": "Agip Eni",
      "lat": 46.34578,
      "lng": 12.19569,
      "fuels": {
        "sp95": 1.879,
        "gazole": 1.989
      }
    },
    {
      "id": "41732",
      "cp": "",
      "ville": "Valle Di Cadore",
      "adresse": "Via Xx Settembre 63 32040",
      "brand": "Azzalini Energie",
      "lat": 46.4172446294103,
      "lng": 12.33139743253048,
      "fuels": {
        "sp95": 1.817,
        "gazole": 1.917
      }
    },
    {
      "id": "61147",
      "cp": "",
      "ville": "Vigo Di Cadore",
      "adresse": "Tre Ponti loc. Campopiano 7 32040",
      "brand": "Agip Eni",
      "lat": 46.50198,
      "lng": 12.45683,
      "fuels": {
        "sp95": 1.959,
        "gazole": 2.039
      }
    }
  ]
}