{
  "code": "BO",
  "name": "Bologna",
  "regionCode": "EMR",
  "regionName": "Emilia-Romagna",
  "asOf": "2026-06-11T18:41:06.675Z",
  "source": "https://www.mimit.gov.it/it/open-data/elenco-dataset/2032336-dataset-prezzi-carburanti",
  "stationCount": 336,
  "fuels": {
    "gazole": {
      "count": 326,
      "mean": 2.0142,
      "median": 2.009,
      "min": 1.785,
      "max": 2.191
    },
    "sp95": {
      "count": 325,
      "mean": 1.9086,
      "median": 1.899,
      "min": 1.786,
      "max": 2.199
    },
    "sp98": {
      "count": 2,
      "mean": 2.079,
      "median": 2.079,
      "min": 2.029,
      "max": 2.129
    },
    "e85": {
      "count": 45,
      "mean": 1.5177,
      "median": 1.509,
      "min": 1.248,
      "max": 1.799
    },
    "gplc": {
      "count": 78,
      "mean": 0.7855,
      "median": 0.779,
      "min": 0.712,
      "max": 0.909
    }
  },
  "stations": [
    {
      "id": "30254",
      "cp": "",
      "ville": "Alto Reno Terme",
      "adresse": "I Maggio 40 40046",
      "brand": "Pompe Bianche",
      "lat": 44.16872456464094,
      "lng": 10.975545916671763,
      "fuels": {
        "sp95": 1.899,
        "gazole": 1.989,
        "e85": 1.799,
        "gplc": 0.799
      }
    },
    {
      "id": "38892",
      "cp": "",
      "ville": "Alto Reno Terme",
      "adresse": "Via Mazzini 168 40046",
      "brand": "Pompe Bianche",
      "lat": 44.159424314548275,
      "lng": 10.974707874205023,
      "fuels": {
        "sp95": 1.899,
        "gazole": 1.999
      }
    },
    {
      "id": "62147",
      "cp": "",
      "ville": "Alto Reno Terme",
      "adresse": "Via Provinciale  70 40046",
      "brand": "Api-Ip",
      "lat": 44.13213,
      "lng": 10.99096,
      "fuels": {
        "sp95": 1.899,
        "gazole": 1.999
      }
    },
    {
      "id": "11516",
      "cp": "",
      "ville": "Anzola Dell'Emilia",
      "adresse": "loc.palazzina Via Emilia 245 40011",
      "brand": "q8",
      "lat": 44.55358184115785,
      "lng": 11.172055006027222,
      "fuels": {
        "sp95": 1.869,
        "gazole": 1.999
      }
    },
    {
      "id": "57812",
      "cp": "",
      "ville": "Anzola Dell'Emilia",
      "adresse": "Via Emilia 82  40011",
      "brand": "Gep Carburanti",
      "lat": 44.54153,
      "lng": 11.20509,
      "fuels": {
        "sp95": 1.859,
        "gazole": 1.989,
        "gplc": 0.769
      }
    },
    {
      "id": "50742",
      "cp": "",
      "ville": "Argelato",
      "adresse": "Centese 234/235 40050",
      "brand": "Tamoil",
      "lat": 44.65773296564076,
      "lng": 11.318837453372973,
      "fuels": {
        "sp95": 1.869,
        "gazole": 1.999
      }
    },
    {
      "id": "12970",
      "cp": "",
      "ville": "Argelato",
      "adresse": "Via Centese 121 40050",
      "brand": "Pompe Bianche",
      "lat": 44.64282511462406,
      "lng": 11.347180728836065,
      "fuels": {
        "sp95": 1.867,
        "gazole": 1.977
      }
    },
    {
      "id": "43833",
      "cp": "",
      "ville": "Argelato",
      "adresse": "Via Galliera 39 40050, Argelato (bo) 39 40050",
      "brand": "Api-Ip",
      "lat": 44.58891136726195,
      "lng": 11.367896497077822,
      "fuels": {
        "sp95": 1.909,
        "gazole": 2.029
      }
    },
    {
      "id": "59345",
      "cp": "",
      "ville": "Baricella",
      "adresse": "Savena Vecchia 314/1 40052",
      "brand": "Pompe Bianche",
      "lat": 44.66951598889439,
      "lng": 11.603200475903312,
      "fuels": {
        "sp95": 1.955,
        "gazole": 2.01
      }
    },
    {
      "id": "40384",
      "cp": "",
      "ville": "Bentivoglio",
      "adresse": "Autostrada a13 Bologna-padova,  km. 13, dir. Nord - 40010",
      "brand": "Api-Ip",
      "lat": 44.62172355082552,
      "lng": 11.420147269964218,
      "fuels": {
        "sp95": 2.029,
        "gazole": 2.119,
        "gplc": 0.878,
        "sp98": 2.029
      }
    },
    {
      "id": "3544",
      "cp": "",
      "ville": "Bentivoglio",
      "adresse": "Autostrada a13 Bologna-padova, km. 11+700, dir. Sud - 40010",
      "brand": "Esso",
      "lat": 44.62160909108895,
      "lng": 11.419019941139254,
      "fuels": {
        "sp95": 2.005,
        "gazole": 2.096,
        "gplc": 0.905
      }
    },
    {
      "id": "57663",
      "cp": "",
      "ville": "Bentivoglio",
      "adresse": "Di Pianura 1/3 40010",
      "brand": "Agip Eni",
      "lat": 44.5930868,
      "lng": 11.3842684,
      "fuels": {
        "sp95": 1.849,
        "gazole": 1.964
      }
    },
    {
      "id": "51885",
      "cp": "",
      "ville": "Bentivoglio",
      "adresse": "Località Interporto  40010",
      "brand": "Agip Eni",
      "lat": 44.61996600341542,
      "lng": 11.375848816106862,
      "fuels": {
        "sp95": 1.869,
        "gazole": 1.985,
        "e85": 1.431
      }
    },
    {
      "id": "17190",
      "cp": "",
      "ville": "Bentivoglio",
      "adresse": "Via Provinciale Galleria 19/A 40010",
      "brand": "Carburantivecchietti",
      "lat": 44.61467085417792,
      "lng": 11.369521245360374,
      "fuels": {
        "sp95": 1.858,
        "gazole": 1.979,
        "e85": 1.499,
        "gplc": 0.779
      }
    },
    {
      "id": "47645",
      "cp": "",
      "ville": "Bentivoglio",
      "adresse": "Via Saliceto 11/2a 40010",
      "brand": "Agip Eni",
      "lat": 44.626628566362285,
      "lng": 11.416508257389063,
      "fuels": {
        "sp95": 1.869,
        "gazole": 1.985
      }
    },
    {
      "id": "42073",
      "cp": "",
      "ville": "Bentivoglio",
      "adresse": "Via Traversale Di Pianura 2/A 40010",
      "brand": "Agip Eni",
      "lat": 44.593415889980946,
      "lng": 11.384450499999957,
      "fuels": {
        "sp95": 1.909,
        "gazole": 2.029
      }
    },
    {
      "id": "42146",
      "cp": "",
      "ville": "Bologna",
      "adresse": "64 porrettana, km. 88, Bologna 85/G 40135",
      "brand": "Esso",
      "lat": 44.49127009864321,
      "lng": 11.30643267184496,
      "fuels": {
        "sp95": 1.906,
        "gazole": 2.04
      }
    },
    {
      "id": "11005",
      "cp": "",
      "ville": "Bologna",
      "adresse": "9 Via emilia, km. 120, Modena - 40132",
      "brand": "Api-Ip",
      "lat": 44.531841397246524,
      "lng": 11.238970756530762,
      "fuels": {
        "sp95": 1.879,
        "gazole": 2.019
      }
    },
    {
      "id": "17250",
      "cp": "",
      "ville": "Bologna",
      "adresse": "Achille Grandi 1/2 40133",
      "brand": "Agip Eni",
      "lat": 44.49387041050701,
      "lng": 11.287111043930054,
      "fuels": {
        "sp95": 1.899,
        "gazole": 2.03
      }
    },
    {
      "id": "59694",
      "cp": "",
      "ville": "Bologna",
      "adresse": "Alcide De Gasperi 11 40132",
      "brand": "Esso",
      "lat": 44.51846068330466,
      "lng": 11.264079808934003,
      "fuels": {
        "sp95": 1.859,
        "gazole": 1.959
      }
    },
    {
      "id": "58069",
      "cp": "",
      "ville": "Bologna",
      "adresse": "Alcide De Gasperi Snc 40132",
      "brand": "Shell",
      "lat": 44.51565715784338,
      "lng": 11.265395879745483,
      "fuels": {
        "sp95": 1.899,
        "gazole": 2.03,
        "gplc": 0.759
      }
    },
    {
      "id": "61295",
      "cp": "",
      "ville": "Bologna",
      "adresse": "Augusto Murri 1 40137",
      "brand": "Esso",
      "lat": 44.48419943835058,
      "lng": 11.35657906284333,
      "fuels": {
        "sp95": 1.889,
        "gazole": 1.959
      }
    },
    {
      "id": "57557",
      "cp": "",
      "ville": "Bologna",
      "adresse": "Augusto Murri 77/2 40137",
      "brand": "q8",
      "lat": 44.48069249087144,
      "lng": 11.362330913543701,
      "fuels": {
        "sp95": 1.939,
        "gazole": 1.999
      }
    },
    {
      "id": "58127",
      "cp": "",
      "ville": "Bologna",
      "adresse": "Berti Pichat 20 40127",
      "brand": "Agip Eni",
      "lat": 44.499093835197,
      "lng": 11.356821656227112,
      "fuels": {
        "sp95": 1.869,
        "gazole": 1.985
      }
    },
    {
      "id": "47428",
      "cp": "",
      "ville": "Bologna",
      "adresse": "Calabria 37 40139",
      "brand": "q8",
      "lat": 44.47523103212781,
      "lng": 11.383990305049835,
      "fuels": {
        "sp95": 1.899,
        "gazole": 1.999
      }
    },
    {
      "id": "45114",
      "cp": "",
      "ville": "Bologna",
      "adresse": "De Carracci 4 40129",
      "brand": "Agip Eni",
      "lat": 44.508460000123,
      "lng": 11.333764000123,
      "fuels": {
        "sp95": 1.899,
        "gazole": 2.029
      }
    },
    {
      "id": "55270",
      "cp": "",
      "ville": "Bologna",
      "adresse": "Del Lavoro 21 40127",
      "brand": "Af Petroli",
      "lat": 44.505997350968386,
      "lng": 11.35892434631348,
      "fuels": {
        "sp95": 1.899,
        "gazole": 1.999
      }
    },
    {
      "id": "44934",
      "cp": "",
      "ville": "Bologna",
      "adresse": "Don Luigi Sturzo 20 40135",
      "brand": "Api-Ip",
      "lat": 44.489284000123,
      "lng": 11.299498000123,
      "fuels": {
        "sp95": 1.889,
        "gazole": 2.019
      }
    },
    {
      "id": "34521",
      "cp": "",
      "ville": "Bologna",
      "adresse": "Emilia Levante 137 40139",
      "brand": "Esso",
      "lat": 44.47895396073762,
      "lng": 11.38595399563144,
      "fuels": {
        "sp95": 1.899,
        "gazole": 1.939
      }
    },
    {
      "id": "53227",
      "cp": "",
      "ville": "Bologna",
      "adresse": "Emilia Levante 194 40139",
      "brand": "Ego",
      "lat": 44.477995238089754,
      "lng": 11.389366399336263,
      "fuels": {
        "sp95": 1.869,
        "gazole": 1.969
      }
    },
    {
      "id": "12291",
      "cp": "",
      "ville": "Bologna",
      "adresse": "Emilia Ponente 183/5 40133",
      "brand": "Agip Eni",
      "lat": 44.50786404944585,
      "lng": 11.302496194839478,
      "fuels": {
        "sp95": 1.899,
        "gazole": 2.03
      }
    },
    {
      "id": "42023",
      "cp": "",
      "ville": "Bologna",
      "adresse": "Ercolani 5/B 40127",
      "brand": "q8",
      "lat": 44.49253238665975,
      "lng": 11.35705291289753,
      "fuels": {
        "sp95": 1.899,
        "gazole": 1.999
      }
    },
    {
      "id": "36279",
      "cp": "",
      "ville": "Bologna",
      "adresse": "Ferrarese 166 40128",
      "brand": "Agip Eni",
      "lat": 44.537169440241016,
      "lng": 11.369289234280586,
      "fuels": {
        "sp95": 1.899,
        "gazole": 2.03
      }
    },
    {
      "id": "58484",
      "cp": "",
      "ville": "Bologna",
      "adresse": "Lenin 21 40139",
      "brand": "Api-Ip",
      "lat": 44.4882343,
      "lng": 11.3859797,
      "fuels": {
        "sp95": 1.899,
        "gazole": 1.999
      }
    },
    {
      "id": "60107",
      "cp": "",
      "ville": "Bologna",
      "adresse": "Marescotti 61 40138",
      "brand": "Pompe Bianche",
      "lat": 44.4899944688828,
      "lng": 11.418237084655768,
      "fuels": {
        "sp95": 1.869,
        "gazole": 1.969
      }
    },
    {
      "id": "58539",
      "cp": "",
      "ville": "Bologna",
      "adresse": "Mazzini 0087",
      "brand": "Agip Eni",
      "lat": 44.486008,
      "lng": 11.368198,
      "fuels": {
        "sp95": 1.844,
        "gazole": 1.949
      }
    },
    {
      "id": "52236",
      "cp": "",
      "ville": "Bologna",
      "adresse": "Nuova Bazzanese - Ss 569 Snc 40132",
      "brand": "Ap",
      "lat": 44.4922561892628,
      "lng": 11.262711213123866,
      "fuels": {
        "sp95": 1.899,
        "gazole": 1.989,
        "e85": 1.526
      }
    },
    {
      "id": "57244",
      "cp": "",
      "ville": "Bologna",
      "adresse": "Persicetana Vecchia 25 40132",
      "brand": "Beyfin",
      "lat": 44.52918979592056,
      "lng": 11.271357319114994,
      "fuels": {
        "sp95": 1.859,
        "gazole": 1.989,
        "gplc": 0.779
      }
    },
    {
      "id": "59065",
      "cp": "",
      "ville": "Bologna",
      "adresse": "Piazza Di Porta s. Mamolo 1 40136",
      "brand": "q8",
      "lat": 44.48672805214305,
      "lng": 11.339253187179565,
      "fuels": {
        "sp95": 1.929,
        "gazole": 2.049
      }
    },
    {
      "id": "62939",
      "cp": "",
      "ville": "Bologna",
      "adresse": "Piazza Manfredi Azzarita 9/A 40122",
      "brand": "Agip Eni",
      "lat": 44.4993638,
      "lng": 11.3327659,
      "fuels": {
        "sp95": 1.869,
        "gazole": 1.985
      }
    },
    {
      "id": "42054",
      "cp": "",
      "ville": "Bologna",
      "adresse": "Stalingrado 43 40127",
      "brand": "Esso",
      "lat": 44.513115301253166,
      "lng": 11.35848927116399,
      "fuels": {
        "sp95": 1.879,
        "gazole": 2.039
      }
    },
    {
      "id": "13554",
      "cp": "",
      "ville": "Bologna",
      "adresse": "Statale 253 San vitale, km. 5, dir. Ravenna - 40138",
      "brand": "Pompe Bianche",
      "lat": 44.49466432620588,
      "lng": 11.400544817161972,
      "fuels": {
        "e85": 1.518
      }
    },
    {
      "id": "60963",
      "cp": "",
      "ville": "Bologna",
      "adresse": "Tito Carnacini 10 40127",
      "brand": "Api-Ip",
      "lat": 44.51603574011864,
      "lng": 11.397161050262449,
      "fuels": {
        "sp95": 1.899,
        "gazole": 2.019
      }
    },
    {
      "id": "11086",
      "cp": "",
      "ville": "Bologna",
      "adresse": "Toscana 154/D 40141",
      "brand": "Esso",
      "lat": 44.45606454327392,
      "lng": 11.36918606369295,
      "fuels": {
        "sp95": 1.889,
        "gazole": 1.939
      }
    },
    {
      "id": "62067",
      "cp": "",
      "ville": "Bologna",
      "adresse": "v. Stalingrado 59  40128",
      "brand": "Agip Eni",
      "lat": 44.51673,
      "lng": 11.360347,
      "fuels": {
        "sp95": 1.889,
        "gazole": 2.019
      }
    },
    {
      "id": "24882",
      "cp": "",
      "ville": "Bologna",
      "adresse": "v.le Pietramellara 4 40131",
      "brand": "q8",
      "lat": 44.503174694061315,
      "lng": 11.334042501223394,
      "fuels": {
        "sp95": 1.899,
        "gazole": 1.999
      }
    },
    {
      "id": "59289",
      "cp": "",
      "ville": "Bologna",
      "adresse": "Via a. Gazzoni 4/2 40138",
      "brand": "Conad",
      "lat": 44.49813659230538,
      "lng": 11.392694242140186,
      "fuels": {
        "sp95": 1.864,
        "gazole": 1.964,
        "e85": 1.445
      }
    },
    {
      "id": "6544",
      "cp": "",
      "ville": "Bologna",
      "adresse": "Via Altura Snc 40068",
      "brand": "q8",
      "lat": 44.46298211309698,
      "lng": 11.401895749737605,
      "fuels": {
        "sp95": 1.919,
        "gazole": 1.999
      }
    },
    {
      "id": "61933",
      "cp": "",
      "ville": "Bologna",
      "adresse": "Via Andrea Costa 183  40134",
      "brand": "Agip Eni",
      "lat": 44.493305,
      "lng": 11.305636,
      "fuels": {
        "sp95": 1.889,
        "gazole": 2.019
      }
    },
    {
      "id": "57300",
      "cp": "",
      "ville": "Bologna",
      "adresse": "Via Battindarno 360 40100",
      "brand": "q8",
      "lat": 44.49737398311594,
      "lng": 11.295346476046348,
      "fuels": {
        "sp95": 2.009,
        "gazole": 2.129
      }
    },
    {
      "id": "11517",
      "cp": "",
      "ville": "Bologna",
      "adresse": "Via Caduti Di Casteldebole 132 40131",
      "brand": "q8",
      "lat": 44.49110433114619,
      "lng": 11.27658198280335,
      "fuels": {
        "sp95": 1.919,
        "gazole": 2.019
      }
    },
    {
      "id": "27662",
      "cp": "",
      "ville": "Bologna",
      "adresse": "Via Carracci 57 40129",
      "brand": "Api-Ip",
      "lat": 44.5077172155045,
      "lng": 11.3409624490738,
      "fuels": {
        "sp95": 1.929,
        "gazole": 2.039
      }
    },
    {
      "id": "41627",
      "cp": "",
      "ville": "Bologna",
      "adresse": "Via Cristoforo Colombo 201 40128, Bologna (bo) 201 40128",
      "brand": "Api-Ip",
      "lat": 44.54947033755877,
      "lng": 11.34821110304109,
      "fuels": {
        "sp95": 1.919,
        "gazole": 2.059
      }
    },
    {
      "id": "24472",
      "cp": "",
      "ville": "Bologna",
      "adresse": "Via Cristoforo Colombo 36 40131",
      "brand": "Agip Eni",
      "lat": 44.53590642010254,
      "lng": 11.34163648095091,
      "fuels": {
        "sp95": 1.899,
        "gazole": 2.03
      }
    },
    {
      "id": "11304",
      "cp": "",
      "ville": "Bologna",
      "adresse": "Via Degli Alberelli 1 40132",
      "brand": "Agip Eni",
      "lat": 44.52532097016065,
      "lng": 11.25524640083313,
      "fuels": {
        "e85": 1.499
      }
    },
    {
      "id": "31092",
      "cp": "",
      "ville": "Bologna",
      "adresse": "Via Dell'Industria  40138",
      "brand": "Api-Ip",
      "lat": 44.50675929884473,
      "lng": 11.419021457672102,
      "fuels": {
        "sp95": 1.939,
        "gazole": 2.069
      }
    },
    {
      "id": "17654",
      "cp": "",
      "ville": "Bologna",
      "adresse": "Via Della Barca 11/5 40133",
      "brand": "Api-Ip",
      "lat": 44.4935520029351,
      "lng": 11.298760000000016,
      "fuels": {
        "sp95": 1.889,
        "gazole": 2.039
      }
    },
    {
      "id": "32117",
      "cp": "",
      "ville": "Bologna",
      "adresse": "Via Di Corticella 129 40129",
      "brand": "Esso",
      "lat": 44.523391089649685,
      "lng": 11.348968148231506,
      "fuels": {
        "sp95": 1.919,
        "gazole": 2.071
      }
    },
    {
      "id": "11518",
      "cp": "",
      "ville": "Bologna",
      "adresse": "Via Di Corticella 180 2b 40128",
      "brand": "q8",
      "lat": 44.52636884000998,
      "lng": 11.349669737434397,
      "fuels": {
        "sp95": 1.829,
        "gazole": 1.969
      }
    },
    {
      "id": "17649",
      "cp": "",
      "ville": "Bologna",
      "adresse": "Via Di Corticella 207/A 40100",
      "brand": "Api-Ip",
      "lat": 44.536767498049436,
      "lng": 11.355973177909846,
      "fuels": {
        "sp95": 1.849,
        "gazole": 1.989
      }
    },
    {
      "id": "62373",
      "cp": "",
      "ville": "Bologna",
      "adresse": "Via Don Luigi Sturzo 11  40135",
      "brand": "Retitalia",
      "lat": 44.48991115367166,
      "lng": 11.29971742883606,
      "fuels": {
        "sp95": 1.899,
        "gazole": 1.999
      }
    },
    {
      "id": "29723",
      "cp": "",
      "ville": "Bologna",
      "adresse": "Via Don Luigi Sturzo 41 40135",
      "brand": "q8",
      "lat": 44.4884146653343,
      "lng": 11.296240917721548,
      "fuels": {
        "sp95": 1.889,
        "gazole": 1.999
      }
    },
    {
      "id": "57081",
      "cp": "",
      "ville": "Bologna",
      "adresse": "Via Dozza 33 40139",
      "brand": "Agip Eni",
      "lat": 44.473396,
      "lng": 11.400402,
      "fuels": {
        "sp95": 1.889,
        "gazole": 2.019
      }
    },
    {
      "id": "39240",
      "cp": "",
      "ville": "Bologna",
      "adresse": "Via Dozza 4 40139",
      "brand": "Agip Eni",
      "lat": 44.47685860924658,
      "lng": 11.392531581223011,
      "fuels": {
        "sp95": 1.945,
        "gazole": 1.959
      }
    },
    {
      "id": "59805",
      "cp": "",
      "ville": "Bologna",
      "adresse": "Via Due Madonne 6  40139",
      "brand": "Api-Ip",
      "lat": 44.482743,
      "lng": 11.393903,
      "fuels": {
        "sp95": 1.889,
        "gazole": 1.989
      }
    },
    {
      "id": "11522",
      "cp": "",
      "ville": "Bologna",
      "adresse": "Via e. Lepido 203/14 40132",
      "brand": "q8",
      "lat": 44.52397266744638,
      "lng": 11.257157084655773,
      "fuels": {
        "sp95": 1.859,
        "gazole": 1.959
      }
    },
    {
      "id": "6540",
      "cp": "",
      "ville": "Bologna",
      "adresse": "Via e. Mattei - loc. Roveri 51 40139",
      "brand": "q8",
      "lat": 44.49724152636909,
      "lng": 11.415611654520035,
      "fuels": {
        "sp95": 1.869,
        "gazole": 1.969
      }
    },
    {
      "id": "19686",
      "cp": "",
      "ville": "Bologna",
      "adresse": "Via e. Mattei 25 40138",
      "brand": "Esso",
      "lat": 44.494574496232,
      "lng": 11.400041431188583,
      "fuels": {
        "sp95": 1.919,
        "gazole": 2.009
      }
    },
    {
      "id": "34853",
      "cp": "",
      "ville": "Bologna",
      "adresse": "Via Emilia Levante 21 40139",
      "brand": "q8",
      "lat": 44.48286720196964,
      "lng": 11.375959888100624,
      "fuels": {
        "sp95": 1.879,
        "gazole": 1.979
      }
    },
    {
      "id": "31109",
      "cp": "",
      "ville": "Bologna",
      "adresse": "Via Enrico Mattei 45/A 40138",
      "brand": "Api-Ip",
      "lat": 44.49681339234091,
      "lng": 11.413045597553264,
      "fuels": {
        "sp95": 1.869,
        "gazole": 1.979
      }
    },
    {
      "id": "10691",
      "cp": "",
      "ville": "Bologna",
      "adresse": "Via Enrico Mattei 9 40138",
      "brand": "Bc",
      "lat": 44.494020700762576,
      "lng": 11.395117123487125,
      "fuels": {
        "sp95": 1.867,
        "gazole": 1.967
      }
    },
    {
      "id": "26876",
      "cp": "",
      "ville": "Bologna",
      "adresse": "Via Ferrarese 162/2 40128",
      "brand": "Api-Ip",
      "lat": 44.531811472257296,
      "lng": 11.36712413988107,
      "fuels": {
        "sp95": 1.839,
        "gazole": 1.979
      }
    },
    {
      "id": "54698",
      "cp": "",
      "ville": "Bologna",
      "adresse": "Via Genuzio Bentini 2  40128",
      "brand": "q8",
      "lat": 44.5426305,
      "lng": 11.3558184,
      "fuels": {
        "sp95": 1.889,
        "gazole": 1.999
      }
    },
    {
      "id": "5520",
      "cp": "",
      "ville": "Bologna",
      "adresse": "Via Giuseppe Massarenti 221/2 40138",
      "brand": "Api-Ip",
      "lat": 44.493045346740644,
      "lng": 11.387519999999995,
      "fuels": {
        "sp95": 1.889,
        "gazole": 1.989
      }
    },
    {
      "id": "11515",
      "cp": "",
      "ville": "Bologna",
      "adresse": "Via m.lepido 201/2 40132",
      "brand": "q8",
      "lat": 44.52200493913542,
      "lng": 11.262693526458747,
      "fuels": {
        "sp95": 1.869,
        "gazole": 1.969
      }
    },
    {
      "id": "23359",
      "cp": "",
      "ville": "Bologna",
      "adresse": "Via Marco Emilio Lepido 203/20 40132",
      "brand": "q8",
      "lat": 44.525292859970726,
      "lng": 11.253325939178467,
      "fuels": {
        "sp95": 1.929,
        "gazole": 2.109,
        "gplc": 0.769
      }
    },
    {
      "id": "58345",
      "cp": "",
      "ville": "Bologna",
      "adresse": "Via Marco Emilio Lepido 206  40132",
      "brand": "Agip Eni",
      "lat": 44.528774,
      "lng": 11.241732,
      "fuels": {
        "sp95": 1.879,
        "gazole": 2.009,
        "e85": 1.49
      }
    },
    {
      "id": "48889",
      "cp": "",
      "ville": "Bologna",
      "adresse": "Via Marco Emilio Lepido 231 40131",
      "brand": "Coil",
      "lat": 44.52845221347777,
      "lng": 11.24366577686927,
      "fuels": {
        "sp95": 1.855,
        "gazole": 1.955
      }
    },
    {
      "id": "29146",
      "cp": "",
      "ville": "Bologna",
      "adresse": "Via Marco Emilio Lepido 37 40132",
      "brand": "Bc",
      "lat": 44.517035888872144,
      "lng": 11.276816779167916,
      "fuels": {
        "sp95": 1.868,
        "gazole": 2.018
      }
    },
    {
      "id": "52133",
      "cp": "",
      "ville": "Bologna",
      "adresse": "Via Marco Polo 87/D 40131",
      "brand": "Api-Ip",
      "lat": 44.52505095899716,
      "lng": 11.330809593200684,
      "fuels": {
        "sp95": 1.949,
        "gazole": 2.059
      }
    },
    {
      "id": "6536",
      "cp": "",
      "ville": "Bologna",
      "adresse": "Via Massarenti 197 40121",
      "brand": "q8",
      "lat": 44.493160109580344,
      "lng": 11.384884962600381,
      "fuels": {
        "sp95": 1.889,
        "gazole": 1.989
      }
    },
    {
      "id": "47995",
      "cp": "",
      "ville": "Bologna",
      "adresse": "Via Massarenti 217 40128",
      "brand": "Esso",
      "lat": 44.493045218274,
      "lng": 11.386631988343229,
      "fuels": {
        "sp95": 1.879,
        "gazole": 1.989
      }
    },
    {
      "id": "17653",
      "cp": "",
      "ville": "Bologna",
      "adresse": "Via Massarenti 262 40100",
      "brand": "Api-Ip",
      "lat": 44.49334834078721,
      "lng": 11.37602950429914,
      "fuels": {
        "sp95": 1.889,
        "gazole": 1.989
      }
    },
    {
      "id": "51524",
      "cp": "",
      "ville": "Bologna",
      "adresse": "Via massarenti, 221/3  40138",
      "brand": "Agip Eni",
      "lat": 44.49310289628579,
      "lng": 11.38829754326366,
      "fuels": {
        "sp95": 1.869,
        "gazole": 2.019
      }
    },
    {
      "id": "8863",
      "cp": "",
      "ville": "Bologna",
      "adresse": "Via Mattei 11-13 40138",
      "brand": "q8",
      "lat": 44.49418265311113,
      "lng": 11.396123257147224,
      "fuels": {
        "sp95": 1.889,
        "gazole": 2.049,
        "gplc": 0.769
      }
    },
    {
      "id": "51740",
      "cp": "",
      "ville": "Bologna",
      "adresse": "Via Nuova bazzanese, 8  40132",
      "brand": "Agip Eni",
      "lat": 44.49210664532276,
      "lng": 11.260747298219021,
      "fuels": {
        "sp95": 1.889,
        "gazole": 2.019,
        "e85": 1.49,
        "gplc": 0.777
      }
    },
    {
      "id": "4285",
      "cp": "",
      "ville": "Bologna",
      "adresse": "Via S Donato Angolo Pirandello 4 40127",
      "brand": "q8",
      "lat": 44.5128938069201,
      "lng": 11.387149393558502,
      "fuels": {
        "sp95": 1.939,
        "gazole": 2.089,
        "gplc": 0.769
      }
    },
    {
      "id": "59327",
      "cp": "",
      "ville": "Bologna",
      "adresse": "Via s. Donato  205/8",
      "brand": "Agip Eni",
      "lat": 44.520443,
      "lng": 11.402865,
      "fuels": {
        "sp95": 1.879,
        "gazole": 2.009
      }
    },
    {
      "id": "6541",
      "cp": "",
      "ville": "Bologna",
      "adresse": "Via s. Donato 188/2 40121",
      "brand": "q8",
      "lat": 44.51794112559894,
      "lng": 11.39587903558197,
      "fuels": {
        "sp95": 1.879,
        "gazole": 2.029
      }
    },
    {
      "id": "25234",
      "cp": "",
      "ville": "Bologna",
      "adresse": "Via Saffi 61 40131",
      "brand": "q8",
      "lat": 44.50071930097283,
      "lng": 11.32349970185237,
      "fuels": {
        "sp95": 1.899,
        "gazole": 1.999
      }
    },
    {
      "id": "5674",
      "cp": "",
      "ville": "Bologna",
      "adresse": "Via San Donato 135 40100",
      "brand": "Api-Ip",
      "lat": 44.50621946537408,
      "lng": 11.37417227936794,
      "fuels": {
        "sp95": 1.939,
        "gazole": 2.029
      }
    },
    {
      "id": "30231",
      "cp": "",
      "ville": "Bologna",
      "adresse": "Via San Donato 61/A 40126",
      "brand": "Esso",
      "lat": 44.50363313687028,
      "lng": 11.367811923942554,
      "fuels": {
        "sp95": 1.959,
        "gazole": 2.049
      }
    },
    {
      "id": "12395",
      "cp": "",
      "ville": "Bologna",
      "adresse": "Via Shakespeare  40128",
      "brand": "Agip Eni",
      "lat": 44.54597606782601,
      "lng": 11.362860111114514,
      "fuels": {
        "sp95": 1.879,
        "gazole": 2.014
      }
    },
    {
      "id": "10937",
      "cp": "",
      "ville": "Bologna",
      "adresse": "Via Stalingrado 71",
      "brand": "q8",
      "lat": 44.51982450318008,
      "lng": 11.362608317613216,
      "fuels": {
        "sp95": 1.909,
        "gazole": 2.039,
        "e85": 1.529,
        "gplc": 0.759
      }
    },
    {
      "id": "49634",
      "cp": "",
      "ville": "Bologna",
      "adresse": "Via Togliatti 13 40132",
      "brand": "Api-Ip",
      "lat": 44.50851124525621,
      "lng": 11.280083225554165,
      "fuels": {
        "sp95": 1.899,
        "gazole": 1.989
      }
    },
    {
      "id": "46279",
      "cp": "",
      "ville": "Bologna",
      "adresse": "Via Toscana  217 40141",
      "brand": "Agip Eni",
      "lat": 44.449984683728445,
      "lng": 11.36098450982172,
      "fuels": {
        "sp95": 1.849,
        "gazole": 1.964
      }
    },
    {
      "id": "24535",
      "cp": "",
      "ville": "Bologna",
      "adresse": "Via Toscana 123 40141",
      "brand": "Api-Ip",
      "lat": 44.45590340221985,
      "lng": 11.368638128042221,
      "fuels": {
        "sp95": 1.889,
        "gazole": 1.959
      }
    },
    {
      "id": "32715",
      "cp": "",
      "ville": "Bologna",
      "adresse": "Via Toscana 26 40141",
      "brand": "Api-Ip",
      "lat": 44.46974019568123,
      "lng": 11.37128390674593,
      "fuels": {
        "sp95": 1.899,
        "gazole": 1.969
      }
    },
    {
      "id": "38850",
      "cp": "",
      "ville": "Bologna",
      "adresse": "Via Toscana 33 40141",
      "brand": "Agip Eni",
      "lat": 44.46767874930429,
      "lng": 11.370579645368935,
      "fuels": {
        "sp95": 1.895,
        "gazole": 2.025
      }
    },
    {
      "id": "45487",
      "cp": "",
      "ville": "Bologna",
      "adresse": "Via Toscana 47 40141",
      "brand": "Pompe Bianche",
      "lat": 44.466133000123,
      "lng": 11.370585000123,
      "fuels": {
        "sp95": 1.877,
        "gazole": 1.977
      }
    },
    {
      "id": "6542",
      "cp": "",
      "ville": "Bologna",
      "adresse": "Via Toscana 5 40121",
      "brand": "q8",
      "lat": 44.47183417318767,
      "lng": 11.369919274275162,
      "fuels": {
        "sp95": 1.879,
        "gazole": 1.959
      }
    },
    {
      "id": "43393",
      "cp": "",
      "ville": "Bologna",
      "adresse": "Via Triumvirato  87/A 40132",
      "brand": "Agip Eni",
      "lat": 44.51884303481164,
      "lng": 11.29412367939949,
      "fuels": {
        "sp95": 1.899,
        "gazole": 2.03
      }
    },
    {
      "id": "40525",
      "cp": "",
      "ville": "Bologna",
      "adresse": "Via Via Dell'Industria 2 40133, Bologna (bo) 34/A-B-C 40127",
      "brand": "Api-Ip",
      "lat": 44.50505862736531,
      "lng": 11.399923413991928,
      "fuels": {
        "sp95": 1.936,
        "gazole": 2.066
      }
    },
    {
      "id": "38039",
      "cp": "",
      "ville": "Bologna",
      "adresse": "Via Via Fanin 51 40127, Bologna (bo) 51 44100",
      "brand": "Api-Ip",
      "lat": 44.5119611878519,
      "lng": 11.410600893809487,
      "fuels": {
        "sp95": 1.929,
        "gazole": 2.059
      }
    },
    {
      "id": "5521",
      "cp": "",
      "ville": "Bologna",
      "adresse": "Via William Shakespeare 7 40128",
      "brand": "Api-Ip",
      "lat": 44.54035982352418,
      "lng": 11.35969009325413,
      "fuels": {
        "sp95": 1.829,
        "gazole": 1.969
      }
    },
    {
      "id": "11512",
      "cp": "",
      "ville": "Bologna",
      "adresse": "Via Zanardi 18 40131",
      "brand": "q8",
      "lat": 44.505015303379764,
      "lng": 11.331492711639385,
      "fuels": {
        "sp95": 1.979,
        "gazole": 2.029
      }
    },
    {
      "id": "21952",
      "cp": "",
      "ville": "Bologna",
      "adresse": "Via Zanardi 35/A 40131",
      "brand": "Esso",
      "lat": 44.510103279584754,
      "lng": 11.329050969975242,
      "fuels": {
        "sp95": 1.946,
        "gazole": 1.986
      }
    },
    {
      "id": "21558",
      "cp": "",
      "ville": "Bologna",
      "adresse": "Via Zanardi 90 40131",
      "brand": "Pompe Bianche",
      "lat": 44.51742024883011,
      "lng": 11.324397258241788,
      "fuels": {
        "sp95": 1.909,
        "gazole": 1.989
      }
    },
    {
      "id": "60825",
      "cp": "",
      "ville": "Bologna",
      "adresse": "Viale Aldini  186",
      "brand": "Agip Eni",
      "lat": 44.488335,
      "lng": 11.333932,
      "fuels": {
        "sp95": 1.879,
        "gazole": 2.009
      }
    },
    {
      "id": "54417",
      "cp": "",
      "ville": "Bologna",
      "adresse": "Viale Angelo Masini 1/3 40126",
      "brand": "Agip Eni",
      "lat": 44.5035732,
      "lng": 11.3493568,
      "fuels": {
        "sp95": 1.899,
        "gazole": 2.03
      }
    },
    {
      "id": "44368",
      "cp": "",
      "ville": "Bologna",
      "adresse": "Viale Carducci 5/2 40125",
      "brand": "Api-Ip",
      "lat": 44.487150216540314,
      "lng": 11.357698142528534,
      "fuels": {
        "sp95": 1.949,
        "gazole": 2.079
      }
    },
    {
      "id": "14717",
      "cp": "",
      "ville": "Bologna",
      "adresse": "Viale De Gasperi 10 40132",
      "brand": "Agip Eni",
      "lat": 44.51196812402774,
      "lng": 11.27181281960452,
      "fuels": {
        "sp95": 1.899,
        "gazole": 2.03
      }
    },
    {
      "id": "46494",
      "cp": "",
      "ville": "Bologna",
      "adresse": "Viale Dell'Industria  44 40138",
      "brand": "Agip Eni",
      "lat": 44.50671013127554,
      "lng": 11.410927819918811,
      "fuels": {
        "sp95": 1.889,
        "gazole": 2.019
      }
    },
    {
      "id": "12761",
      "cp": "",
      "ville": "Bologna",
      "adresse": "Viale Salvemini 25 40132",
      "brand": "Esso",
      "lat": 44.50427164639191,
      "lng": 11.279992461204529,
      "fuels": {
        "sp95": 1.906,
        "gazole": 1.996
      }
    },
    {
      "id": "21264",
      "cp": "",
      "ville": "Bologna",
      "adresse": "Viale Sergio Cavina 9 40139",
      "brand": "Agip Eni",
      "lat": 44.47373761721445,
      "lng": 11.396805346012115,
      "fuels": {
        "sp95": 1.909,
        "gazole": 1.999
      }
    },
    {
      "id": "16696",
      "cp": "",
      "ville": "Bologna",
      "adresse": "Viale Silvani 8/3 40122",
      "brand": "Api-Ip",
      "lat": 44.50091971200271,
      "lng": 11.329546098147603,
      "fuels": {
        "sp95": 1.939,
        "gazole": 2.039
      }
    },
    {
      "id": "62192",
      "cp": "",
      "ville": "Borgo Tossignano",
      "adresse": "Garibaldi 40 40021",
      "brand": "Pompe Bianche",
      "lat": 44.28062,
      "lng": 11.58989,
      "fuels": {
        "sp95": 1.899,
        "gazole": 1.939
      }
    },
    {
      "id": "34318",
      "cp": "",
      "ville": "Budrio",
      "adresse": "Falcone E Borsellino 7/9 40054",
      "brand": "Eugas",
      "lat": 44.54685510760665,
      "lng": 11.536551788449287,
      "fuels": {
        "sp95": 1.89,
        "gazole": 2.035,
        "gplc": 0.759
      }
    },
    {
      "id": "44519",
      "cp": "",
      "ville": "Budrio",
      "adresse": "Via Martiri Antifascisti 105 40054",
      "brand": "q8",
      "lat": 44.536885000123,
      "lng": 11.541934000123,
      "fuels": {
        "sp95": 1.959,
        "gazole": 2.059
      }
    },
    {
      "id": "60370",
      "cp": "",
      "ville": "Budrio",
      "adresse": "Via Riccardina Mezzolara 103  40054",
      "brand": "Retitalia",
      "lat": 44.58761577397489,
      "lng": 11.5647508153421,
      "fuels": {
        "sp95": 1.864,
        "gazole": 1.964
      }
    },
    {
      "id": "49562",
      "cp": "",
      "ville": "Budrio",
      "adresse": "Via San Vitale 5 40054",
      "brand": "Api-Ip",
      "lat": 44.50014259774788,
      "lng": 11.501809672678801,
      "fuels": {
        "sp95": 1.926,
        "gazole": 2.026
      }
    },
    {
      "id": "62286",
      "cp": "",
      "ville": "Budrio",
      "adresse": "Via Zenzalino Nord 10  40054",
      "brand": "q8",
      "lat": 44.53759980047617,
      "lng": 11.545737365283486,
      "fuels": {
        "sp95": 1.939,
        "gazole": 2.019,
        "gplc": 0.759
      }
    },
    {
      "id": "40621",
      "cp": "",
      "ville": "Budrio",
      "adresse": "Via Zenzalino Nord 2 40054",
      "brand": "Pompe Bianche",
      "lat": 44.536755220299256,
      "lng": 11.5431480171967,
      "fuels": {
        "sp95": 1.877,
        "gazole": 1.977
      }
    },
    {
      "id": "21429",
      "cp": "",
      "ville": "Budrio",
      "adresse": "Via Zenzalino Sud Km 1600  40054",
      "brand": "Agip Eni",
      "lat": 44.513375031093986,
      "lng": 11.516006737947464,
      "fuels": {
        "sp95": 1.969,
        "gazole": 1.999,
        "e85": 1.449
      }
    },
    {
      "id": "43927",
      "cp": "",
      "ville": "Calderara Di Reno",
      "adresse": "Persicetana 6 40012",
      "brand": "q8",
      "lat": 44.540489026426926,
      "lng": 11.263116650926236,
      "fuels": {
        "sp95": 1.879,
        "gazole": 1.979
      }
    },
    {
      "id": "35161",
      "cp": "",
      "ville": "Calderara Di Reno",
      "adresse": "Via Aldina 65 40012",
      "brand": "Api-Ip",
      "lat": 44.5378997687567,
      "lng": 11.306045427918434,
      "fuels": {
        "sp95": 1.932,
        "gazole": 1.982
      }
    },
    {
      "id": "61649",
      "cp": "",
      "ville": "Calderara Di Reno",
      "adresse": "Via g. Garibaldi 13 40012",
      "brand": "Api-Ip",
      "lat": 44.55435547122092,
      "lng": 11.284080284655746,
      "fuels": {
        "sp95": 1.929,
        "gazole": 2.039
      }
    },
    {
      "id": "47118",
      "cp": "",
      "ville": "Calderara Di Reno",
      "adresse": "Via Longarola 28/A 40012",
      "brand": "Api-Ip",
      "lat": 44.567493406811096,
      "lng": 11.306924330128844,
      "fuels": {
        "sp95": 1.929,
        "gazole": 2.039
      }
    },
    {
      "id": "14313",
      "cp": "",
      "ville": "Calderara Di Reno",
      "adresse": "Via Persicetana 11 40012",
      "brand": "Esso",
      "lat": 44.5660085410644,
      "lng": 11.24299205839634,
      "fuels": {
        "sp95": 1.969,
        "gazole": 2.049,
        "gplc": 0.779
      }
    },
    {
      "id": "62786",
      "cp": "",
      "ville": "Calderara Di Reno",
      "adresse": "Via Prati 24/A  40012",
      "brand": "Pompe Bianche",
      "lat": 44.5922337,
      "lng": 11.2770015,
      "fuels": {
        "sp95": 2.089,
        "gazole": 2.099,
        "gplc": 0.799
      }
    },
    {
      "id": "61847",
      "cp": "",
      "ville": "Calderara Di Reno",
      "adresse": "Via Roma 75/A 40012",
      "brand": "Costantin",
      "lat": 44.56124,
      "lng": 11.27024,
      "fuels": {
        "sp95": 1.887,
        "gazole": 1.997
      }
    },
    {
      "id": "55807",
      "cp": "",
      "ville": "Camugnano",
      "adresse": "Marconi 8/B 40032",
      "brand": "Ego",
      "lat": 44.1693632137716,
      "lng": 11.086632982308972,
      "fuels": {
        "sp95": 2.129,
        "gazole": 2.099
      }
    },
    {
      "id": "3918",
      "cp": "",
      "ville": "Casalecchio Di Reno",
      "adresse": "Autostrada a1 Milano-napoli,  km. 199, dir. Napoli 40033",
      "brand": "q8",
      "lat": 44.45521709013264,
      "lng": 11.280389678573556,
      "fuels": {
        "sp95": 1.959,
        "gazole": 2.085,
        "gplc": 0.909
      }
    },
    {
      "id": "3857",
      "cp": "",
      "ville": "Casalecchio Di Reno",
      "adresse": "Autostrada a1 Milano-napoli, km. 198+900, dir. Nord - 40033",
      "brand": "Agip Eni",
      "lat": 44.45668184626475,
      "lng": 11.280748844146729,
      "fuels": {
        "sp95": 1.901,
        "gazole": 2.028,
        "gplc": 0.855
      }
    },
    {
      "id": "62028",
      "cp": "",
      "ville": "Casalecchio Di Reno",
      "adresse": "Porrettana 662 40033",
      "brand": "Api-Ip",
      "lat": 44.45306,
      "lng": 11.27101,
      "fuels": {
        "sp95": 1.919,
        "gazole": 2.039
      }
    },
    {
      "id": "49895",
      "cp": "",
      "ville": "Casalecchio Di Reno",
      "adresse": "Via Bazzanese 21/D 40033",
      "brand": "Ego",
      "lat": 44.47952929166692,
      "lng": 11.267479772981654,
      "fuels": {
        "sp95": 1.899,
        "gazole": 1.999
      }
    },
    {
      "id": "50088",
      "cp": "",
      "ville": "Casalecchio Di Reno",
      "adresse": "Via Del Lavoro 69 40033",
      "brand": "Api-Ip",
      "lat": 44.488631784313014,
      "lng": 11.257846131920815,
      "fuels": {
        "sp95": 1.899,
        "gazole": 1.989
      }
    },
    {
      "id": "51221",
      "cp": "",
      "ville": "Casalecchio Di Reno",
      "adresse": "Via Maria Margotti 2/4 40033",
      "brand": "Pompe Bianche",
      "lat": 44.49177583692846,
      "lng": 11.255071500224174,
      "fuels": {
        "sp95": 1.899,
        "gazole": 2.049,
        "e85": 1.499,
        "gplc": 0.779
      }
    },
    {
      "id": "11514",
      "cp": "",
      "ville": "Casalecchio Di Reno",
      "adresse": "Via Porrettana 371 40033",
      "brand": "q8",
      "lat": 44.47182679615975,
      "lng": 11.272326822090122,
      "fuels": {
        "sp95": 1.899,
        "gazole": 1.989
      }
    },
    {
      "id": "7863",
      "cp": "",
      "ville": "Casalecchio Di Reno",
      "adresse": "Via Porrettana 372 40033",
      "brand": "Agip Eni",
      "lat": 44.4788874420409,
      "lng": 11.27061277627945,
      "fuels": {
        "sp95": 1.909,
        "gazole": 2.04
      }
    },
    {
      "id": "4138",
      "cp": "",
      "ville": "Casalecchio Di Reno",
      "adresse": "Via Porrettana 500 40033",
      "brand": "Beyfin",
      "lat": 44.46880095297217,
      "lng": 11.269880533218384,
      "fuels": {
        "gplc": 0.819
      }
    },
    {
      "id": "52191",
      "cp": "",
      "ville": "Casalecchio Di Reno",
      "adresse": "Via porrettana, 502",
      "brand": "Agip Eni",
      "lat": 44.468502618563754,
      "lng": 11.270449389348563,
      "fuels": {
        "sp95": 1.899,
        "gazole": 2.029
      }
    },
    {
      "id": "34604",
      "cp": "",
      "ville": "Casalfiumanese",
      "adresse": "Via Sillaro 42/43 40020, Casalfiumanese (bo) 53 40020",
      "brand": "Zannoni",
      "lat": 44.261376432803054,
      "lng": 11.48313638098557,
      "fuels": {
        "sp95": 2.059,
        "gazole": 2.063
      }
    },
    {
      "id": "47049",
      "cp": "",
      "ville": "Castel D'Aiano",
      "adresse": "Via Via Val D'Aneva 3 40034, Castel D'Aiano (bo) 3 40034",
      "brand": "Ala",
      "lat": 44.28008834518202,
      "lng": 11.0047435760498,
      "fuels": {
        "sp95": 1.969,
        "gazole": 2.079
      }
    },
    {
      "id": "24834",
      "cp": "",
      "ville": "Castel Del Rio",
      "adresse": "Via Montanara 7 40022",
      "brand": "Api-Ip",
      "lat": 44.21444650119335,
      "lng": 11.504157364418006,
      "fuels": {
        "sp95": 1.998,
        "gazole": 2.191
      }
    },
    {
      "id": "38781",
      "cp": "",
      "ville": "Castel Di Casio",
      "adresse": "Don Fornasini Snc 40030",
      "brand": "Tamoil",
      "lat": 44.17181176150213,
      "lng": 10.979890823364258,
      "fuels": {
        "sp95": 1.919
      }
    },
    {
      "id": "61477",
      "cp": "",
      "ville": "Castel Maggiore",
      "adresse": "Gramsci 104 40013",
      "brand": "Itala Petroli",
      "lat": 44.57318319463256,
      "lng": 11.362022416997,
      "fuels": {
        "sp95": 1.899,
        "gazole": 1.999
      }
    },
    {
      "id": "15162",
      "cp": "",
      "ville": "Castel Maggiore",
      "adresse": "p. Fabbri 1 40013",
      "brand": "Pompe Bianche",
      "lat": 44.553043765884134,
      "lng": 11.350306087033118,
      "fuels": {
        "gplc": 0.789
      }
    },
    {
      "id": "7137",
      "cp": "",
      "ville": "Castel Maggiore",
      "adresse": "Saliceto 52 40013",
      "brand": "Agip Eni",
      "lat": 44.5783661,
      "lng": 11.3856855,
      "fuels": {
        "sp95": 1.884,
        "gazole": 2.014
      }
    },
    {
      "id": "23011",
      "cp": "",
      "ville": "Castel Maggiore",
      "adresse": "Via Galliera  40013",
      "brand": "q8",
      "lat": 44.56781566966926,
      "lng": 11.360313892364502,
      "fuels": {
        "sp95": 1.859,
        "gazole": 1.979,
        "e85": 1.499
      }
    },
    {
      "id": "49971",
      "cp": "",
      "ville": "Castel Maggiore",
      "adresse": "Via Lame 313 40013",
      "brand": "Vega",
      "lat": 44.577444139982234,
      "lng": 11.325833076721178,
      "fuels": {
        "sp95": 1.949,
        "gazole": 2.029
      }
    },
    {
      "id": "48400",
      "cp": "",
      "ville": "Castel Maggiore",
      "adresse": "Via Matteotti 185 40013",
      "brand": "Pompe Bianche",
      "lat": 44.567781445693754,
      "lng": 11.392958658895477,
      "fuels": {
        "sp95": 1.899,
        "gazole": 2.029,
        "e85": 1.509,
        "gplc": 0.799
      }
    },
    {
      "id": "48611",
      "cp": "",
      "ville": "Castel Maggiore",
      "adresse": "Via Pio La Torre 11/A 40013",
      "brand": "Enercoop",
      "lat": 44.5661772182947,
      "lng": 11.354940364418015,
      "fuels": {
        "sp95": 1.889,
        "gazole": 1.999,
        "e85": 1.499,
        "gplc": 0.779
      }
    },
    {
      "id": "40524",
      "cp": "",
      "ville": "Castel Maggiore",
      "adresse": "Via s.p.  45 Saliceto Km 7+300 40013, Castel Maggiore (bo)  40013",
      "brand": "Api-Ip",
      "lat": 44.55343822666341,
      "lng": 11.371882565641386,
      "fuels": {
        "sp95": 1.856,
        "gazole": 1.996
      }
    },
    {
      "id": "46077",
      "cp": "",
      "ville": "Castel San Pietro Terme",
      "adresse": "9 Via emilia, km. 89+780, Bologna  - 40024",
      "brand": "Agip Eni",
      "lat": 44.4036812664307,
      "lng": 11.584929662483773,
      "fuels": {
        "sp95": 1.939,
        "gazole": 2.07
      }
    },
    {
      "id": "53965",
      "cp": "",
      "ville": "Castel San Pietro Terme",
      "adresse": "Autostrada a14 Bologna-Bari-taranto,  km. 37, dir. Nord 40024",
      "brand": "Api-Ip",
      "lat": 44.429183045330674,
      "lng": 11.598966121673584,
      "fuels": {
        "sp95": 2.049,
        "gazole": 2.119,
        "e85": 1.599,
        "gplc": 0.889
      }
    },
    {
      "id": "3858",
      "cp": "",
      "ville": "Castel San Pietro Terme",
      "adresse": "Autostrada a14 Bologna-Bari-taranto, km. 37+400, dir. Sud - 40024",
      "brand": "Agip Eni",
      "lat": 44.42773497821667,
      "lng": 11.60031259059906,
      "fuels": {
        "sp95": 1.914,
        "gazole": 2.046,
        "gplc": 0.801
      }
    },
    {
      "id": "30251",
      "cp": "",
      "ville": "Castel San Pietro Terme",
      "adresse": "Emilia Levante 1040 40024",
      "brand": "Tamoil",
      "lat": 44.39483542262513,
      "lng": 11.607211232185364,
      "fuels": {
        "sp95": 1.859,
        "gazole": 1.979
      }
    },
    {
      "id": "43778",
      "cp": "",
      "ville": "Castel San Pietro Terme",
      "adresse": "Emilia Ponente 1318 40024",
      "brand": "Beyfin",
      "lat": 44.4088839089681,
      "lng": 11.571818093254024,
      "fuels": {
        "sp95": 1.898,
        "gazole": 1.998,
        "e85": 1.248,
        "gplc": 0.748
      }
    },
    {
      "id": "30250",
      "cp": "",
      "ville": "Castel San Pietro Terme",
      "adresse": "Emilia Ponente 420 40024",
      "brand": "Tamoil",
      "lat": 44.40468301143789,
      "lng": 11.581652462482452,
      "fuels": {
        "sp95": 1.879,
        "gazole": 1.999
      }
    },
    {
      "id": "61059",
      "cp": "",
      "ville": "Castel San Pietro Terme",
      "adresse": "Emilia Ponente 5340 40024",
      "brand": "Api-Ip",
      "lat": 44.425617,
      "lng": 11.527667,
      "fuels": {
        "sp95": 1.899,
        "gazole": 1.999
      }
    },
    {
      "id": "34073",
      "cp": "",
      "ville": "Castel San Pietro Terme",
      "adresse": "Provinciale 31 \"colunga Km 15,70 40024",
      "brand": "Coop",
      "lat": 44.4406478188424,
      "lng": 11.601014952076753,
      "fuels": {
        "sp95": 1.849,
        "gazole": 1.958,
        "gplc": 0.769
      }
    },
    {
      "id": "42038",
      "cp": "",
      "ville": "Castel San Pietro Terme",
      "adresse": "Via  San  Carlo  1533/B 40024",
      "brand": "Api-Ip",
      "lat": 44.42080789431454,
      "lng": 11.60013422369957,
      "fuels": {
        "sp95": 1.899,
        "gazole": 1.999,
        "gplc": 0.749
      }
    },
    {
      "id": "43643",
      "cp": "",
      "ville": "Castel San Pietro Terme",
      "adresse": "Via Malvezza 90 40024",
      "brand": "Pompe Bianche",
      "lat": 44.418916509493336,
      "lng": 11.542753726243973,
      "fuels": {
        "sp95": 1.899,
        "gazole": 1.998,
        "gplc": 0.749
      }
    },
    {
      "id": "51830",
      "cp": "",
      "ville": "Castel San Pietro Terme",
      "adresse": "Via Mazzini  147 40024",
      "brand": "Agip Eni",
      "lat": 44.40077123401489,
      "lng": 11.594403262970138,
      "fuels": {
        "sp95": 1.939,
        "gazole": 2.07
      }
    },
    {
      "id": "10405",
      "cp": "",
      "ville": "Castel San Pietro Terme",
      "adresse": "Via Mazzini 147 40024",
      "brand": "Agip Eni",
      "lat": 44.40067447633379,
      "lng": 11.594591013759782,
      "fuels": {
        "sp95": 1.939,
        "gazole": 2.07
      }
    },
    {
      "id": "57358",
      "cp": "",
      "ville": "Castello D'Argile",
      "adresse": "Statale Provinciale Sud 29 40050",
      "brand": "Api-Ip",
      "lat": 44.6783,
      "lng": 11.2965,
      "fuels": {
        "sp95": 1.969,
        "gazole": 2.019
      }
    },
    {
      "id": "46115",
      "cp": "",
      "ville": "Castello D'Argile",
      "adresse": "Via Ferrari 1 40050",
      "brand": "Carburantivecchietti",
      "lat": 44.68378708584877,
      "lng": 11.337355474137325,
      "fuels": {
        "sp95": 1.867,
        "gazole": 1.98
      }
    },
    {
      "id": "55645",
      "cp": "",
      "ville": "Castenaso",
      "adresse": "2 Agosto 1980 1 40055",
      "brand": "Agip Eni",
      "lat": 44.50894,
      "lng": 11.46899,
      "fuels": {
        "sp95": 1.919,
        "gazole": 1.989,
        "gplc": 0.779
      }
    },
    {
      "id": "31463",
      "cp": "",
      "ville": "Castenaso",
      "adresse": "Frullo 11/2 40055",
      "brand": "Api-Ip",
      "lat": 44.510781693363604,
      "lng": 11.46299935330353,
      "fuels": {
        "sp95": 1.929,
        "gazole": 1.999
      }
    },
    {
      "id": "11520",
      "cp": "",
      "ville": "Castenaso",
      "adresse": "loc. Villanova S/N 40055",
      "brand": "q8",
      "lat": 44.49205790637325,
      "lng": 11.42026437301638,
      "fuels": {
        "sp95": 1.869,
        "gazole": 1.969
      }
    },
    {
      "id": "48401",
      "cp": "",
      "ville": "Castenaso",
      "adresse": "Via Del Frullo 40 40055",
      "brand": "Pompe Bianche",
      "lat": 44.52222852585745,
      "lng": 11.426439728836057,
      "fuels": {
        "sp95": 1.899,
        "gazole": 2.029,
        "e85": 1.509,
        "gplc": 0.799
      }
    },
    {
      "id": "54915",
      "cp": "",
      "ville": "Castenaso",
      "adresse": "Via Galeazzo Marescotti  40138",
      "brand": "Enercoop",
      "lat": 44.48870276705469,
      "lng": 11.423580660823411,
      "fuels": {
        "sp95": 1.869,
        "gazole": 1.977,
        "e85": 1.449,
        "gplc": 0.779
      }
    },
    {
      "id": "55868",
      "cp": "",
      "ville": "Castenaso",
      "adresse": "Via p. c. s. Nasica 108  40055",
      "brand": "Costantin",
      "lat": 44.5011495,
      "lng": 11.4898695,
      "fuels": {
        "sp95": 1.869,
        "gazole": 1.989,
        "e85": 1.449,
        "gplc": 0.778
      }
    },
    {
      "id": "25230",
      "cp": "",
      "ville": "Castenaso",
      "adresse": "Via Villanova 4/U  40055",
      "brand": "Pompe Bianche",
      "lat": 44.495581630112675,
      "lng": 11.427877396345139,
      "fuels": {
        "sp95": 1.869,
        "gazole": 1.969
      }
    },
    {
      "id": "36723",
      "cp": "",
      "ville": "Castiglione Dei Pepoli",
      "adresse": "a1 Milano-napoli, km. 242+600, Nord - 40035",
      "brand": "Sarni Oil",
      "lat": 44.11662092933699,
      "lng": 11.231773048639297,
      "fuels": {
        "sp95": 1.999,
        "gazole": 2.078
      }
    },
    {
      "id": "62709",
      "cp": "",
      "ville": "Castiglione Dei Pepoli",
      "adresse": "a1 Milano-napoli, km. 242+600, Nord - 40035",
      "brand": "Sarni Oil",
      "lat": 44.11662092933699,
      "lng": 11.231773048639297,
      "fuels": {
        "gazole": 1.999
      }
    },
    {
      "id": "34074",
      "cp": "",
      "ville": "Castiglione Dei Pepoli",
      "adresse": "Autostrada a1 Milano-napoli, km. 235, dir. Sud - 40035",
      "brand": "Tamoil",
      "lat": 44.149958488826634,
      "lng": 11.193154719999939,
      "fuels": {
        "sp95": 1.989,
        "gazole": 2.109
      }
    },
    {
      "id": "37288",
      "cp": "",
      "ville": "Castiglione Dei Pepoli",
      "adresse": "Autostrada a1 Milano-napoli, km. 242+600, dir. Sud - 40035",
      "brand": "Sarni Oil",
      "lat": 44.11673165257133,
      "lng": 11.23118095099926,
      "fuels": {
        "sp95": 1.999,
        "gazole": 2.079
      }
    },
    {
      "id": "62708",
      "cp": "",
      "ville": "Castiglione Dei Pepoli",
      "adresse": "Autostrada a1 Milano-napoli, km. 242+600, dir. Sud - 40035",
      "brand": "Sarni Oil",
      "lat": 44.11673165257133,
      "lng": 11.23118095099926,
      "fuels": {
        "gazole": 1.979
      }
    },
    {
      "id": "16426",
      "cp": "",
      "ville": "Castiglione Dei Pepoli",
      "adresse": "Via Bolognese 13 40035",
      "brand": "Api-Ip",
      "lat": 44.14269492702494,
      "lng": 11.158515327249006,
      "fuels": {
        "sp95": 1.979,
        "gazole": 2.009
      }
    },
    {
      "id": "45813",
      "cp": "",
      "ville": "Castiglione Dei Pepoli",
      "adresse": "Via Bolognese 77 40035",
      "brand": "q8",
      "lat": 44.14319689322094,
      "lng": 11.16459821230319,
      "fuels": {
        "sp95": 1.979,
        "gazole": 2.009
      }
    },
    {
      "id": "59922",
      "cp": "",
      "ville": "Castiglione Dei Pepoli",
      "adresse": "Via Nazionale Nord 2",
      "brand": "Pompe Bianche",
      "lat": 44.1968062,
      "lng": 11.1175926,
      "fuels": {
        "sp95": 1.969,
        "gazole": 1.999,
        "gplc": 0.798
      }
    },
    {
      "id": "59414",
      "cp": "",
      "ville": "Castiglione Dei Pepoli",
      "adresse": "Via Tana 37 40035",
      "brand": "Api-Ip",
      "lat": 44.12954622441743,
      "lng": 11.196261942386586,
      "fuels": {
        "sp95": 1.959,
        "gazole": 2.019
      }
    },
    {
      "id": "42126",
      "cp": "",
      "ville": "Crevalcore",
      "adresse": "568 Di crevalcore, km. 14, San Giovanni In Persiceto  40014",
      "brand": "Agip Eni",
      "lat": 44.70285077656814,
      "lng": 11.15494653582573,
      "fuels": {
        "sp95": 1.909,
        "gazole": 2.04,
        "gplc": 0.772
      }
    },
    {
      "id": "56591",
      "cp": "",
      "ville": "Crevalcore",
      "adresse": "Di Mezzo Ponente 1965 40014",
      "brand": "Costantin",
      "lat": 44.73035,
      "lng": 11.12209,
      "fuels": {
        "sp95": 1.919,
        "gazole": 2.039,
        "e85": 1.599,
        "gplc": 0.779
      }
    },
    {
      "id": "42323",
      "cp": "",
      "ville": "Crevalcore",
      "adresse": "Strada Provinciale 84 Km 1+490  40014",
      "brand": "Kerotris",
      "lat": 44.706695514473445,
      "lng": 11.138201504945755,
      "fuels": {
        "sp95": 1.909,
        "gazole": 2.049
      }
    },
    {
      "id": "14289",
      "cp": "",
      "ville": "Crevalcore",
      "adresse": "Via Di Mezzo Levante 123 40014",
      "brand": "Pompe Bianche",
      "lat": 44.72275589518741,
      "lng": 11.152892634272575,
      "fuels": {
        "sp95": 1.869,
        "gazole": 1.985
      }
    },
    {
      "id": "48790",
      "cp": "",
      "ville": "Crevalcore",
      "adresse": "Via Di Mezzoponente 98 40014",
      "brand": "Esso",
      "lat": 44.72411048647934,
      "lng": 11.143737778521533,
      "fuels": {
        "sp95": 1.909,
        "gazole": 1.989
      }
    },
    {
      "id": "54963",
      "cp": "",
      "ville": "Crevalcore",
      "adresse": "Via Persicetana 652 40014",
      "brand": "Agip Eni",
      "lat": 44.7263565,
      "lng": 11.1396358,
      "fuels": {
        "sp95": 1.869,
        "gazole": 1.985
      }
    },
    {
      "id": "25153",
      "cp": "",
      "ville": "Dozza",
      "adresse": "Statale 9 Via emilia, km. 85+569, dir. Imola Bologna  40050",
      "brand": "Tamoil",
      "lat": 44.386180097458244,
      "lng": 11.630589365959167,
      "fuels": {
        "sp95": 1.838,
        "gazole": 1.968
      }
    },
    {
      "id": "61609",
      "cp": "",
      "ville": "Dozza",
      "adresse": "Via Emilia 111  40050",
      "brand": "Pompe Bianche",
      "lat": 44.3815049,
      "lng": 11.6412409,
      "fuels": {
        "sp95": 1.855,
        "gazole": 1.916
      }
    },
    {
      "id": "52726",
      "cp": "",
      "ville": "Fontanelice",
      "adresse": "Europa 103 40025",
      "brand": "Pompe Bianche",
      "lat": 44.25671,
      "lng": 11.55605,
      "fuels": {
        "sp95": 1.885,
        "gazole": 1.997
      }
    },
    {
      "id": "62197",
      "cp": "",
      "ville": "Gaggio Montano",
      "adresse": "Papa Giovanni Xxiii 48 40041",
      "brand": "Agip Eni",
      "lat": 44.18205304627308,
      "lng": 10.976095654897966,
      "fuels": {
        "sp95": 1.864,
        "gazole": 2.034
      }
    },
    {
      "id": "54975",
      "cp": "",
      "ville": "Gaggio Montano",
      "adresse": "Roma 92 40041",
      "brand": "Retitalia",
      "lat": 44.195665,
      "lng": 10.937068,
      "fuels": {
        "sp95": 1.939,
        "gazole": 2.04
      }
    },
    {
      "id": "46114",
      "cp": "",
      "ville": "Galliera",
      "adresse": "Via Della Pace  14/C 40015",
      "brand": "Carburantivecchietti",
      "lat": 44.73962227001787,
      "lng": 11.43692812001791,
      "fuels": {
        "sp95": 1.899,
        "gazole": 1.999
      }
    },
    {
      "id": "17188",
      "cp": "",
      "ville": "Galliera",
      "adresse": "Via Vittorio Veneto 8 40015",
      "brand": "Carburantivecchietti",
      "lat": 44.73812192920953,
      "lng": 11.440914943814278,
      "fuels": {
        "sp95": 1.899,
        "gazole": 1.999
      }
    },
    {
      "id": "53857",
      "cp": "",
      "ville": "Granarolo Dell'Emilia",
      "adresse": "San Donato 74 40057",
      "brand": "Agip Eni",
      "lat": 44.549342935108896,
      "lng": 11.445678547024727,
      "fuels": {
        "sp95": 1.909,
        "gazole": 2.039
      }
    },
    {
      "id": "11519",
      "cp": "",
      "ville": "Granarolo Dell'Emilia",
      "adresse": "sp. 3 km.18+20 S/N 40057",
      "brand": "q8",
      "lat": 44.58276179262825,
      "lng": 11.412221457672103,
      "fuels": {
        "sp95": 1.899,
        "gazole": 2.039
      }
    },
    {
      "id": "62116",
      "cp": "",
      "ville": "Granarolo Dell'Emilia",
      "adresse": "Via Giacomo Matteotti 38  40057",
      "brand": "Pompe Bianche",
      "lat": 44.5507022,
      "lng": 11.3889921,
      "fuels": {
        "sp95": 1.928,
        "gazole": 2.038
      }
    },
    {
      "id": "5626",
      "cp": "",
      "ville": "Granarolo Dell'Emilia",
      "adresse": "Via Porrettana 38/B 40057",
      "brand": "Carburantivecchietti",
      "lat": 44.58917898499064,
      "lng": 11.431392431259155,
      "fuels": {
        "sp95": 1.899,
        "gazole": 2.029,
        "e85": 1.509,
        "gplc": 0.799
      }
    },
    {
      "id": "62473",
      "cp": "",
      "ville": "Granarolo Dell'Emilia",
      "adresse": "Via s. Donato 241  40057",
      "brand": "Avia",
      "lat": 44.5561559,
      "lng": 11.4493846,
      "fuels": {
        "sp95": 1.899,
        "gazole": 2.029
      }
    },
    {
      "id": "42098",
      "cp": "",
      "ville": "Imola",
      "adresse": "Benelli Spazzate Sassatelli 1 40026",
      "brand": "Pompe Bianche",
      "lat": 44.524610754021566,
      "lng": 11.78035855293274,
      "fuels": {
        "sp95": 1.919,
        "gazole": 2.039
      }
    },
    {
      "id": "54683",
      "cp": "",
      "ville": "Imola",
      "adresse": "Emilia Levante km75+105 40026",
      "brand": "q8",
      "lat": 44.34339262463574,
      "lng": 11.741278620190418,
      "fuels": {
        "sp95": 1.949,
        "gazole": 1.999,
        "gplc": 0.759
      }
    },
    {
      "id": "53199",
      "cp": "",
      "ville": "Imola",
      "adresse": "Lasie 9/D 40026",
      "brand": "q8",
      "lat": 44.374267274889405,
      "lng": 11.735345758163675,
      "fuels": {
        "sp95": 1.939,
        "gazole": 2.039,
        "e85": 1.559,
        "gplc": 0.759
      }
    },
    {
      "id": "57901",
      "cp": "",
      "ville": "Imola",
      "adresse": "Marconi 46 40026",
      "brand": "Agip Eni",
      "lat": 44.36079492,
      "lng": 11.70425817,
      "fuels": {
        "sp95": 1.849,
        "gazole": 1.964
      }
    },
    {
      "id": "56326",
      "cp": "",
      "ville": "Imola",
      "adresse": "Montanara 49/B 40026",
      "brand": "Api-Ip",
      "lat": 44.3412610391845,
      "lng": 11.68668508529663,
      "fuels": {
        "sp95": 1.899,
        "gazole": 1.999,
        "sp98": 2.129
      }
    },
    {
      "id": "48789",
      "cp": "",
      "ville": "Imola",
      "adresse": "Via Amendola 175 40026",
      "brand": "Esso",
      "lat": 44.36343495878116,
      "lng": 11.689096163194645,
      "fuels": {
        "sp95": 1.855,
        "gazole": 1.975
      }
    },
    {
      "id": "46621",
      "cp": "",
      "ville": "Imola",
      "adresse": "Via De Amicis 2b 40026",
      "brand": "Api-Ip",
      "lat": 44.35202690695732,
      "lng": 11.7202556203232,
      "fuels": {
        "sp95": 1.949,
        "gazole": 2.059
      }
    },
    {
      "id": "48046",
      "cp": "",
      "ville": "Imola",
      "adresse": "Via Della Cooperazione  25 40026",
      "brand": "Pompe Bianche",
      "lat": 44.36997225059029,
      "lng": 11.708214990084057,
      "fuels": {
        "sp95": 1.786,
        "gazole": 1.785
      }
    },
    {
      "id": "47268",
      "cp": "",
      "ville": "Imola",
      "adresse": "Via Della Resistenza 13 40026",
      "brand": "Esso",
      "lat": 44.34992338762119,
      "lng": 11.72440767288208,
      "fuels": {
        "sp95": 1.869,
        "gazole": 1.979
      }
    },
    {
      "id": "27938",
      "cp": "",
      "ville": "Imola",
      "adresse": "Via e. Ponente 5c 40026",
      "brand": "Conad",
      "lat": 44.36705174906277,
      "lng": 11.680419040039046,
      "fuels": {
        "sp95": 1.825,
        "gazole": 1.935,
        "gplc": 0.745
      }
    },
    {
      "id": "51975",
      "cp": "",
      "ville": "Imola",
      "adresse": "Via Emilia Ponente 41b 40026",
      "brand": "Agip Eni",
      "lat": 44.37162678780073,
      "lng": 11.66727316654469,
      "fuels": {
        "sp95": 1.864,
        "gazole": 1.98
      }
    },
    {
      "id": "10869",
      "cp": "",
      "ville": "Imola",
      "adresse": "Via I Maggio  87 40026",
      "brand": "Tamoil",
      "lat": 44.37477162068473,
      "lng": 11.723806858062744,
      "fuels": {
        "sp95": 1.918,
        "gazole": 1.998,
        "e85": 1.559,
        "gplc": 0.748
      }
    },
    {
      "id": "57633",
      "cp": "",
      "ville": "Imola",
      "adresse": "Via Montanara 149/H 40026",
      "brand": "Ala",
      "lat": 44.323298467707644,
      "lng": 11.65654436369961,
      "fuels": {
        "sp95": 1.939,
        "gazole": 1.979
      }
    },
    {
      "id": "12492",
      "cp": "",
      "ville": "Imola",
      "adresse": "Via Montanara 50/C 40026",
      "brand": "Agip Eni",
      "lat": 44.34058886723922,
      "lng": 11.685762405395508,
      "fuels": {
        "e85": 1.589,
        "gplc": 0.779
      }
    },
    {
      "id": "12523",
      "cp": "",
      "ville": "Imola",
      "adresse": "Via San Vitale 154 40026",
      "brand": "Pompe Bianche",
      "lat": 44.45755730229253,
      "lng": 11.740056245315145,
      "fuels": {
        "sp95": 1.929,
        "gazole": 2.049
      }
    },
    {
      "id": "46622",
      "cp": "",
      "ville": "Imola",
      "adresse": "Via Selice 185 40026",
      "brand": "Api-Ip",
      "lat": 44.35862438758786,
      "lng": 11.722089271163895,
      "fuels": {
        "sp95": 1.939,
        "gazole": 2.039
      }
    },
    {
      "id": "6537",
      "cp": "",
      "ville": "Imola",
      "adresse": "Via Selice 213/A 40026",
      "brand": "q8",
      "lat": 44.362426808850664,
      "lng": 11.72483197011411,
      "fuels": {
        "sp95": 1.899,
        "gazole": 1.999,
        "e85": 1.559,
        "gplc": 0.749
      }
    },
    {
      "id": "11521",
      "cp": "",
      "ville": "Imola",
      "adresse": "Via Selice Km 4+265 S/N 40026",
      "brand": "q8",
      "lat": 44.38674092057356,
      "lng": 11.743373630103292,
      "fuels": {
        "sp95": 1.959,
        "gazole": 2.099
      }
    },
    {
      "id": "4313",
      "cp": "",
      "ville": "Imola",
      "adresse": "Via Selice Km 8 40026",
      "brand": "Api-Ip",
      "lat": 44.41462738300332,
      "lng": 11.764223679342658,
      "fuels": {
        "sp95": 1.939,
        "gazole": 2.039,
        "e85": 1.76,
        "gplc": 0.729
      }
    },
    {
      "id": "49570",
      "cp": "",
      "ville": "Imola",
      "adresse": "Via Selice km. 2  40026",
      "brand": "Agip Eni",
      "lat": 44.36747728420397,
      "lng": 11.728606630515579,
      "fuels": {
        "sp95": 1.899,
        "gazole": 2.029
      }
    },
    {
      "id": "20193",
      "cp": "",
      "ville": "Imola",
      "adresse": "Viale D'Agostino  171 40026",
      "brand": "Agip Eni",
      "lat": 44.34764876565501,
      "lng": 11.696469600486012,
      "fuels": {
        "sp95": 1.969,
        "gazole": 2.069,
        "gplc": 0.822
      }
    },
    {
      "id": "25195",
      "cp": "",
      "ville": "Imola",
      "adresse": "Viale Guglielmo Marconi 89 40026",
      "brand": "Tamoil",
      "lat": 44.36184956267401,
      "lng": 11.708404186508233,
      "fuels": {
        "sp95": 1.858,
        "gazole": 1.938
      }
    },
    {
      "id": "34840",
      "cp": "",
      "ville": "Lizzano In Belvedere",
      "adresse": "Via Nazionale 7 40042",
      "brand": "Pompe Bianche",
      "lat": 44.17108226474658,
      "lng": 10.883410437162752,
      "fuels": {
        "sp95": 2.089,
        "gazole": 2.099
      }
    },
    {
      "id": "21332",
      "cp": "",
      "ville": "Loiano",
      "adresse": "Via Roma 1/6 40050",
      "brand": "Af Petroli",
      "lat": 44.26600379394038,
      "lng": 11.324701685844389,
      "fuels": {
        "sp95": 1.949,
        "gazole": 1.999
      }
    },
    {
      "id": "48399",
      "cp": "",
      "ville": "Malalbergo",
      "adresse": "Asinari 24 40058",
      "brand": "Pompe Bianche",
      "lat": 44.63481884552165,
      "lng": 11.46406783399998,
      "fuels": {
        "sp95": 1.899,
        "gazole": 2.029,
        "e85": 1.509
      }
    },
    {
      "id": "7956",
      "cp": "",
      "ville": "Malalbergo",
      "adresse": "Nazionale km. 119  40051",
      "brand": "Agip Eni",
      "lat": 44.67828135795134,
      "lng": 11.494569182395935,
      "fuels": {
        "sp95": 1.909,
        "gazole": 2.04
      }
    },
    {
      "id": "62063",
      "cp": "",
      "ville": "Malalbergo",
      "adresse": "Via Del Borgo 105  40051",
      "brand": "Pompe Bianche",
      "lat": 44.66117316282196,
      "lng": 11.493568506445312,
      "fuels": {
        "sp95": 1.928,
        "gazole": 2.038
      }
    },
    {
      "id": "62707",
      "cp": "",
      "ville": "Malalbergo",
      "adresse": "Via Nazionale 414a  40051",
      "brand": "Tamoil",
      "lat": 44.7220232,
      "lng": 11.5411354,
      "fuels": {
        "sp95": 1.899,
        "gazole": 2.029,
        "gplc": 0.769
      }
    },
    {
      "id": "61873",
      "cp": "",
      "ville": "Marzabotto",
      "adresse": "Porrettana Sud 40/A 40043",
      "brand": "Esso",
      "lat": 44.33346239559249,
      "lng": 11.189237181769975,
      "fuels": {
        "sp95": 1.889,
        "gazole": 2.01
      }
    },
    {
      "id": "54236",
      "cp": "",
      "ville": "Medicina",
      "adresse": "San Vitale Est s.s. 253 960 40059",
      "brand": "Ala",
      "lat": 44.47754,
      "lng": 11.65742,
      "fuels": {
        "sp95": 1.959,
        "gazole": 2.049,
        "gplc": 0.759
      }
    },
    {
      "id": "62687",
      "cp": "",
      "ville": "Medicina",
      "adresse": "Via s. Vitale Ovest 209 40059",
      "brand": "Agip Eni",
      "lat": 44.4940153,
      "lng": 11.5882797,
      "fuels": {
        "sp95": 1.889,
        "gazole": 2.039
      }
    },
    {
      "id": "38115",
      "cp": "",
      "ville": "Medicina",
      "adresse": "Via San Vitale Ovest 1420 40059",
      "brand": "Tamoil",
      "lat": 44.48601417171537,
      "lng": 11.615435190074095,
      "fuels": {
        "sp95": 1.858,
        "gazole": 1.988,
        "gplc": 0.758
      }
    },
    {
      "id": "21241",
      "cp": "",
      "ville": "Medicina",
      "adresse": "Via San Vitale Ovest 377 40059",
      "brand": "Pompe Bianche",
      "lat": 44.481471340358254,
      "lng": 11.628094373888416,
      "fuels": {
        "sp95": 1.855,
        "gazole": 1.925,
        "e85": 1.449
      }
    },
    {
      "id": "52365",
      "cp": "",
      "ville": "Minerbio",
      "adresse": "Via Savena Superiore 15/B 40061",
      "brand": "Api-Ip",
      "lat": 44.61528765686066,
      "lng": 11.482573002576828,
      "fuels": {
        "sp95": 1.923,
        "gazole": 2.046
      }
    },
    {
      "id": "56592",
      "cp": "",
      "ville": "Molinella",
      "adresse": "Canale 5 40062",
      "brand": "Costantin",
      "lat": 44.61285,
      "lng": 11.63758,
      "fuels": {
        "sp95": 1.939,
        "gazole": 2.04,
        "e85": 1.549,
        "gplc": 0.799
      }
    },
    {
      "id": "53899",
      "cp": "",
      "ville": "Molinella",
      "adresse": "Degli Alpini 1 40062",
      "brand": "Coop",
      "lat": 44.61598234279997,
      "lng": 11.659898076057441,
      "fuels": {
        "sp95": 1.868,
        "gazole": 1.978,
        "e85": 1.499,
        "gplc": 0.779
      }
    },
    {
      "id": "61092",
      "cp": "",
      "ville": "Molinella",
      "adresse": "Provinciale Superiore 16 40062",
      "brand": "Pompe Bianche",
      "lat": 44.617586408682314,
      "lng": 11.663990914821625,
      "fuels": {
        "sp95": 1.889,
        "gazole": 2.014
      }
    },
    {
      "id": "10163",
      "cp": "",
      "ville": "Molinella",
      "adresse": "Provinciale Superiore 34 40062",
      "brand": "Agip Eni",
      "lat": 44.61720679379565,
      "lng": 11.661336809262139,
      "fuels": {
        "sp95": 1.909,
        "gazole": 2.04
      }
    },
    {
      "id": "39224",
      "cp": "",
      "ville": "Molinella",
      "adresse": "Via Provinciale Inferiore 65 40062",
      "brand": "Api-Ip",
      "lat": 44.63174330060783,
      "lng": 11.671614423394203,
      "fuels": {
        "sp95": 1.909,
        "gazole": 2.03
      }
    },
    {
      "id": "12994",
      "cp": "",
      "ville": "Molinella",
      "adresse": "Via Provinciale Inferiore n. 61 -  Sp 6 Zenzalino 61 40062",
      "brand": "Pompe Bianche",
      "lat": 44.6314275052369,
      "lng": 11.67128273558194,
      "fuels": {
        "e85": 1.493
      }
    },
    {
      "id": "33393",
      "cp": "",
      "ville": "Molinella",
      "adresse": "Via Provinciale Superiore 85 40062",
      "brand": "Esso",
      "lat": 44.61571266545912,
      "lng": 11.652347445487976,
      "fuels": {
        "sp95": 1.899,
        "gazole": 1.999,
        "gplc": 0.779
      }
    },
    {
      "id": "18915",
      "cp": "",
      "ville": "Monghidoro",
      "adresse": "Vittorio Emanuele 128 40063",
      "brand": "Esso",
      "lat": 44.21675700000002,
      "lng": 11.321589898147522,
      "fuels": {
        "sp95": 1.939,
        "gazole": 2.049
      }
    },
    {
      "id": "55319",
      "cp": "",
      "ville": "Monghidoro",
      "adresse": "Vittorio Emanuele 128 40063",
      "brand": "Esso",
      "lat": 41.8108944,
      "lng": 12.3330326,
      "fuels": {
        "sp95": 1.939,
        "gazole": 2.049
      }
    },
    {
      "id": "39373",
      "cp": "",
      "ville": "Monte San Pietro",
      "adresse": "Via Lavino 3/B 40050",
      "brand": "Af Petroli",
      "lat": 44.46429898357921,
      "lng": 11.198388934135437,
      "fuels": {
        "sp95": 1.899,
        "gazole": 2.039,
        "e85": 1.699
      }
    },
    {
      "id": "40587",
      "cp": "",
      "ville": "Monte San Pietro",
      "adresse": "Via Lavino 419 40050",
      "brand": "Pompe Bianche",
      "lat": 44.40816255722226,
      "lng": 11.128250996958968,
      "fuels": {
        "sp95": 1.929,
        "gazole": 2.019
      }
    },
    {
      "id": "27749",
      "cp": "",
      "ville": "Monterenzio",
      "adresse": "Via Idice 201 40050",
      "brand": "Repsol",
      "lat": 44.326651147319204,
      "lng": 11.404855295071798,
      "fuels": {
        "sp95": 1.999,
        "gazole": 2.099
      }
    },
    {
      "id": "62787",
      "cp": "",
      "ville": "Monterenzio",
      "adresse": "Via Idice 370  40050",
      "brand": "Pompe Bianche",
      "lat": 44.2810474,
      "lng": 11.390501,
      "fuels": {
        "sp95": 1.985,
        "gazole": 1.99
      }
    },
    {
      "id": "15500",
      "cp": "",
      "ville": "Monzuno",
      "adresse": "Via Mario Musolesi 2/A 40040",
      "brand": "Api-Ip",
      "lat": 44.31799622436229,
      "lng": 11.258012428879738,
      "fuels": {
        "sp95": 1.899,
        "gazole": 2.059
      }
    },
    {
      "id": "38875",
      "cp": "",
      "ville": "Monzuno",
      "adresse": "Via Pietro Bignardi 35 40036",
      "brand": "Pompe Bianche",
      "lat": 44.2810788771875,
      "lng": 11.272263031911848,
      "fuels": {
        "sp95": 1.998,
        "gazole": 2.048
      }
    },
    {
      "id": "47372",
      "cp": "",
      "ville": "Monzuno",
      "adresse": "Via Provinciale  15-A 40036",
      "brand": "q8",
      "lat": 44.27682839876448,
      "lng": 11.199832841139239,
      "fuels": {
        "sp95": 1.939,
        "gazole": 2.059
      }
    },
    {
      "id": "60271",
      "cp": "",
      "ville": "Mordano",
      "adresse": "b.g. Vitali 2a 40027",
      "brand": "Pompe Bianche",
      "lat": 44.39640887606003,
      "lng": 11.811238825321198,
      "fuels": {
        "sp95": 1.859,
        "gazole": 1.899
      }
    },
    {
      "id": "40974",
      "cp": "",
      "ville": "Ozzano Dell'Emilia",
      "adresse": "Via Idice 98/D 40064",
      "brand": "q8",
      "lat": 44.38879534427544,
      "lng": 11.432492136955261,
      "fuels": {
        "sp95": 1.969,
        "gazole": 2.019,
        "gplc": 0.81
      }
    },
    {
      "id": "47204",
      "cp": "",
      "ville": "Pianoro",
      "adresse": "Strada statale, km. 94+340, Bologna - 40065",
      "brand": "Agip Eni",
      "lat": 44.397024326330744,
      "lng": 11.343825060118874,
      "fuels": {
        "sp95": 1.904,
        "gazole": 2.035
      }
    },
    {
      "id": "47107",
      "cp": "",
      "ville": "Pianoro",
      "adresse": "Via Nazionale 129 40065",
      "brand": "Esso",
      "lat": 44.38711864695896,
      "lng": 11.341300062882457,
      "fuels": {
        "sp95": 1.959,
        "gazole": 2.056
      }
    },
    {
      "id": "6538",
      "cp": "",
      "ville": "Pianoro",
      "adresse": "Via Nazionale 169 40065",
      "brand": "q8",
      "lat": 44.37102426537237,
      "lng": 11.34109629814759,
      "fuels": {
        "sp95": 1.899,
        "gazole": 2.039
      }
    },
    {
      "id": "4127",
      "cp": "",
      "ville": "Pianoro",
      "adresse": "Via Via De Gasperi 1 40065, Pianoro (bo) 1 40065",
      "brand": "q8",
      "lat": 44.44034728073103,
      "lng": 11.352492570877075,
      "fuels": {
        "sp95": 1.949,
        "gazole": 2.089,
        "e85": 1.549,
        "gplc": 0.769
      }
    },
    {
      "id": "30182",
      "cp": "",
      "ville": "Pieve Di Cento",
      "adresse": "Via Ponte Nuovo 1 40066",
      "brand": "Api-Ip",
      "lat": 44.711673314209484,
      "lng": 11.30293755092623,
      "fuels": {
        "sp95": 1.879,
        "gazole": 1.989
      }
    },
    {
      "id": "56359",
      "cp": "",
      "ville": "Pieve Di Cento",
      "adresse": "Via Provinciale Centese 12 40066",
      "brand": "Agip Eni",
      "lat": 44.70826549124192,
      "lng": 11.305486828759745,
      "fuels": {
        "sp95": 1.869,
        "gazole": 1.985
      }
    },
    {
      "id": "26172",
      "cp": "",
      "ville": "Sala Bolognese",
      "adresse": "Via g.matteotti 3 40010",
      "brand": "Api-Ip",
      "lat": 44.61673527005946,
      "lng": 11.261930465698242,
      "fuels": {
        "sp95": 1.899,
        "gazole": 2.039
      }
    },
    {
      "id": "60092",
      "cp": "",
      "ville": "Sala Bolognese",
      "adresse": "Via Gramsci 86  40010",
      "brand": "Pompe Bianche",
      "lat": 44.60959,
      "lng": 11.25419,
      "fuels": {
        "sp95": 1.888,
        "gazole": 1.998
      }
    },
    {
      "id": "48612",
      "cp": "",
      "ville": "Sala Bolognese",
      "adresse": "Via Matteotti 54/A 40010",
      "brand": "Vega",
      "lat": 44.6106629054816,
      "lng": 11.300859705522539,
      "fuels": {
        "sp95": 1.899,
        "gazole": 2.029,
        "gplc": 0.799
      }
    },
    {
      "id": "51019",
      "cp": "",
      "ville": "Sala Bolognese",
      "adresse": "Via Persicetana 28a 40010",
      "brand": "Beyfin",
      "lat": 44.587806265214525,
      "lng": 11.226898104995215,
      "fuels": {
        "sp95": 1.889,
        "gazole": 2.019,
        "gplc": 0.779
      }
    },
    {
      "id": "26485",
      "cp": "",
      "ville": "Sala Bolognese",
      "adresse": "Via Via Della Pace 71 40010, Sala Bolognese (bo) 73 40010",
      "brand": "Api-Ip",
      "lat": 44.62756849947277,
      "lng": 11.274123310414438,
      "fuels": {
        "sp95": 1.929,
        "gazole": 2.039
      }
    },
    {
      "id": "49687",
      "cp": "",
      "ville": "San Benedetto Val Di Sambro",
      "adresse": "Via Autostazione 44 40048",
      "brand": "Pompe Bianche",
      "lat": 44.15750121109771,
      "lng": 11.207486568816995,
      "fuels": {
        "sp95": 1.999,
        "gazole": 2.179
      }
    },
    {
      "id": "4442",
      "cp": "",
      "ville": "San Benedetto Val Di Sambro",
      "adresse": "Via Cà Di Martino  Bivio Di Campiano 4 40048",
      "brand": "Moveo",
      "lat": 44.22928059589867,
      "lng": 11.220660568886151,
      "fuels": {
        "sp95": 1.939,
        "gazole": 1.999
      }
    },
    {
      "id": "41364",
      "cp": "",
      "ville": "San Benedetto Val Di Sambro",
      "adresse": "Via Gamberate 38 40048",
      "brand": "Moveo",
      "lat": 44.186654994702266,
      "lng": 11.22042548611762,
      "fuels": {
        "sp95": 1.939,
        "gazole": 1.999
      }
    },
    {
      "id": "51244",
      "cp": "",
      "ville": "San Benedetto Val Di Sambro",
      "adresse": "Via Risorgimento 34 40048",
      "brand": "Beyfin",
      "lat": 44.21850246181026,
      "lng": 11.238213611547247,
      "fuels": {
        "sp95": 1.939,
        "gazole": 1.999
      }
    },
    {
      "id": "40854",
      "cp": "",
      "ville": "San Giorgio Di Piano",
      "adresse": "Strada Provinciale Bologna 15/1 40016",
      "brand": "Coop",
      "lat": 44.63289,
      "lng": 11.37064,
      "fuels": {
        "sp95": 1.858,
        "gazole": 1.979,
        "e85": 1.499,
        "gplc": 0.779
      }
    },
    {
      "id": "43847",
      "cp": "",
      "ville": "San Giorgio Di Piano",
      "adresse": "Via Iv Novembre 1/3 40016, San Giorgio Di Piano (bo) 1/3 40016",
      "brand": "Api-Ip",
      "lat": 44.64061376709493,
      "lng": 11.37462481540365,
      "fuels": {
        "sp95": 1.909,
        "gazole": 2.029
      }
    },
    {
      "id": "28114",
      "cp": "",
      "ville": "San Giorgio Di Piano",
      "adresse": "Via Poggio  Renatico  19 40016",
      "brand": "Tamoil",
      "lat": 44.66999653191528,
      "lng": 11.384459137916565,
      "fuels": {
        "sp95": 1.879,
        "gazole": 1.999
      }
    },
    {
      "id": "10573",
      "cp": "",
      "ville": "San Giovanni In Persiceto",
      "adresse": "Bologna 170 40017",
      "brand": "Af Petroli",
      "lat": 44.618930868931855,
      "lng": 11.202852129936218,
      "fuels": {
        "sp95": 1.875,
        "gazole": 1.945,
        "e85": 1.499,
        "gplc": 0.775
      }
    },
    {
      "id": "58064",
      "cp": "",
      "ville": "San Giovanni In Persiceto",
      "adresse": "Crevalcore 72 40017",
      "brand": "Beyfin",
      "lat": 44.65724116761381,
      "lng": 11.178964583769226,
      "fuels": {
        "sp95": 1.859,
        "gazole": 1.989,
        "e85": 1.519,
        "gplc": 0.779
      }
    },
    {
      "id": "53546",
      "cp": "",
      "ville": "San Giovanni In Persiceto",
      "adresse": "Marefosca s.p. Variante 50 40017",
      "brand": "Tamoil",
      "lat": 44.711757,
      "lng": 11.243244,
      "fuels": {
        "sp95": 1.879,
        "gazole": 1.999
      }
    },
    {
      "id": "60841",
      "cp": "",
      "ville": "San Giovanni In Persiceto",
      "adresse": "Modena 102/F 40017",
      "brand": "Pompe Bianche",
      "lat": 44.64770043101209,
      "lng": 11.164399981498757,
      "fuels": {
        "sp95": 1.848,
        "gazole": 1.958
      }
    },
    {
      "id": "56588",
      "cp": "",
      "ville": "San Giovanni In Persiceto",
      "adresse": "Modena 112/C 40017",
      "brand": "Reno Gas Energy",
      "lat": 44.64771,
      "lng": 11.16498,
      "fuels": {
        "e85": 1.529,
        "gplc": 0.789
      }
    },
    {
      "id": "50276",
      "cp": "",
      "ville": "San Giovanni In Persiceto",
      "adresse": "s.p.255 Via Cento 68/H 40017",
      "brand": "Tamoil",
      "lat": 44.65287714031971,
      "lng": 11.199322160118847,
      "fuels": {
        "sp95": 1.879,
        "gazole": 1.999
      }
    },
    {
      "id": "60669",
      "cp": "",
      "ville": "San Giovanni In Persiceto",
      "adresse": "sp3 2  40017",
      "brand": "Pompe Bianche",
      "lat": 44.6386593,
      "lng": 11.1874019,
      "fuels": {
        "sp95": 1.855,
        "gazole": 1.896
      }
    },
    {
      "id": "47966",
      "cp": "",
      "ville": "San Giovanni In Persiceto",
      "adresse": "Strada Provinciale 3 km2+530 Snc 40017",
      "brand": "Agip Eni",
      "lat": 44.623885376655984,
      "lng": 11.22812686696243,
      "fuels": {
        "sp95": 1.889,
        "gazole": 1.999,
        "e85": 1.549,
        "gplc": 0.779
      }
    },
    {
      "id": "61158",
      "cp": "",
      "ville": "San Giovanni In Persiceto",
      "adresse": "Via Bologna  13",
      "brand": "Agip Eni",
      "lat": 44.633602,
      "lng": 11.190599,
      "fuels": {
        "sp95": 1.889,
        "gazole": 2.019
      }
    },
    {
      "id": "22895",
      "cp": "",
      "ville": "San Giovanni In Persiceto",
      "adresse": "Via Bologna 116 40017",
      "brand": "q8",
      "lat": 44.628782167217345,
      "lng": 11.194620430469513,
      "fuels": {
        "sp95": 1.879,
        "gazole": 1.949
      }
    },
    {
      "id": "12931",
      "cp": "",
      "ville": "San Giovanni In Persiceto",
      "adresse": "Via Cento 131 40017",
      "brand": "Pompe Bianche",
      "lat": 44.70463644233964,
      "lng": 11.227862583961468,
      "fuels": {
        "sp95": 2.199,
        "gazole": 2.149
      }
    },
    {
      "id": "14539",
      "cp": "",
      "ville": "San Giovanni In Persiceto",
      "adresse": "Via Cento 256 40017",
      "brand": "Api-Ip",
      "lat": 44.710751135506754,
      "lng": 11.232214127647467,
      "fuels": {
        "sp95": 1.899,
        "gazole": 1.999
      }
    },
    {
      "id": "14240",
      "cp": "",
      "ville": "San Giovanni In Persiceto",
      "adresse": "Via Circonvallazione Dante 49 40017",
      "brand": "Pompe Bianche",
      "lat": 44.64198460665781,
      "lng": 11.186766251921654,
      "fuels": {
        "sp95": 1.929,
        "gazole": 1.999
      }
    },
    {
      "id": "59277",
      "cp": "",
      "ville": "San Giovanni In Persiceto",
      "adresse": "Via Modena 9 40017",
      "brand": "Api-Ip",
      "lat": 44.64127695941201,
      "lng": 11.18332028388977,
      "fuels": {
        "sp95": 1.899,
        "gazole": 1.939
      }
    },
    {
      "id": "56738",
      "cp": "",
      "ville": "San Lazzaro Di Savena",
      "adresse": "Complanare a14  Km 4+830 Snc",
      "brand": "Agip Eni",
      "lat": 44.469078,
      "lng": 11.477296,
      "fuels": {
        "sp95": 1.899,
        "gazole": 2.029,
        "e85": 1.338,
        "gplc": 0.712
      }
    },
    {
      "id": "34560",
      "cp": "",
      "ville": "San Lazzaro Di Savena",
      "adresse": "Emilia 299 40068",
      "brand": "Esso",
      "lat": 44.46315405483293,
      "lng": 11.428966373205185,
      "fuels": {
        "sp95": 1.899,
        "gazole": 1.999
      }
    },
    {
      "id": "58195",
      "cp": "",
      "ville": "San Lazzaro Di Savena",
      "adresse": "s.s. 9 Emilia km. 101+400 518 40068",
      "brand": "Api-Ip",
      "lat": 44.4519455,
      "lng": 11.4568292,
      "fuels": {
        "sp95": 1.909,
        "gazole": 2.009,
        "gplc": 0.79
      }
    },
    {
      "id": "7875",
      "cp": "",
      "ville": "San Lazzaro Di Savena",
      "adresse": "Statale 9 Via emilia, km. 107, dir. Imola - -",
      "brand": "Api-Ip",
      "lat": 44.4581824179507,
      "lng": 11.439736783504486,
      "fuels": {
        "sp95": 1.899,
        "gazole": 1.999
      }
    },
    {
      "id": "7876",
      "cp": "",
      "ville": "San Lazzaro Di Savena",
      "adresse": "Statale 9 Via emilia, km. 107, dir. Imola - -",
      "brand": "Api-Ip",
      "lat": 44.4581824179507,
      "lng": 11.439736783504486,
      "fuels": {
        "sp95": 1.899,
        "gazole": 1.999
      }
    },
    {
      "id": "30963",
      "cp": "",
      "ville": "San Lazzaro Di Savena",
      "adresse": "Via Caselle 43/B 40068",
      "brand": "Api-Ip",
      "lat": 44.47515607078295,
      "lng": 11.41485959201782,
      "fuels": {
        "sp95": 1.969,
        "gazole": 2.069
      }
    },
    {
      "id": "11513",
      "cp": "",
      "ville": "San Lazzaro Di Savena",
      "adresse": "Via Emilia lev. fz. Idice 416 40068",
      "brand": "q8",
      "lat": 44.45689572510733,
      "lng": 11.443530262565673,
      "fuels": {
        "sp95": 1.899,
        "gazole": 1.949
      }
    },
    {
      "id": "20094",
      "cp": "",
      "ville": "San Lazzaro Di Savena",
      "adresse": "Via Emilia Levante 6",
      "brand": "Api-Ip",
      "lat": 44.472590002516526,
      "lng": 11.402908712625504,
      "fuels": {
        "sp95": 1.889,
        "gazole": 1.989
      }
    },
    {
      "id": "6535",
      "cp": "",
      "ville": "San Lazzaro Di Savena",
      "adresse": "Via Guelfa 10 s.p.colunga  40068",
      "brand": "q8",
      "lat": 44.47690396738652,
      "lng": 11.46581657230854,
      "fuels": {
        "sp95": 1.899,
        "gazole": 1.949
      }
    },
    {
      "id": "32925",
      "cp": "",
      "ville": "San Lazzaro Di Savena",
      "adresse": "Via Palazzetti 3/L 40068",
      "brand": "Pompe Bianche",
      "lat": 44.45418833829591,
      "lng": 11.424402594566345,
      "fuels": {
        "sp95": 1.877,
        "gazole": 1.977,
        "gplc": 0.757
      }
    },
    {
      "id": "12969",
      "cp": "",
      "ville": "San Lazzaro Di Savena",
      "adresse": "Via Paolo Poggi 4 40068",
      "brand": "Pompe Bianche",
      "lat": 44.47003286128007,
      "lng": 11.418759226799011,
      "fuels": {
        "sp95": 1.877,
        "gazole": 1.977,
        "e85": 1.449,
        "gplc": 0.757
      }
    },
    {
      "id": "56590",
      "cp": "",
      "ville": "San Pietro In Casale",
      "adresse": "San Benedetto 146 40018",
      "brand": "Reno Gas Energy",
      "lat": 44.68898,
      "lng": 11.39617,
      "fuels": {
        "gplc": 0.809
      }
    },
    {
      "id": "59395",
      "cp": "",
      "ville": "San Pietro In Casale",
      "adresse": "sp4  40015",
      "brand": "Agip Eni",
      "lat": 44.73242,
      "lng": 11.43685,
      "fuels": {
        "sp95": 1.899,
        "gazole": 1.999,
        "gplc": 0.769
      }
    },
    {
      "id": "47996",
      "cp": "",
      "ville": "San Pietro In Casale",
      "adresse": "Via Galliera Sud 18 40018",
      "brand": "Esso",
      "lat": 44.69744581479248,
      "lng": 11.40192442936446,
      "fuels": {
        "sp95": 1.889,
        "gazole": 2.02
      }
    },
    {
      "id": "51302",
      "cp": "",
      "ville": "San Pietro In Casale",
      "adresse": "Via San Benedetto 146 40018",
      "brand": "q8",
      "lat": 44.68909929530191,
      "lng": 11.395759388586066,
      "fuels": {
        "sp95": 1.879,
        "gazole": 2.009
      }
    },
    {
      "id": "30448",
      "cp": "",
      "ville": "San Pietro In Casale",
      "adresse": "Via Stangolini 1676 40018",
      "brand": "Pompe Bianche",
      "lat": 44.70134640188506,
      "lng": 11.426620110869408,
      "fuels": {
        "sp95": 1.899,
        "gazole": 2.029,
        "e85": 1.509,
        "gplc": 0.799
      }
    },
    {
      "id": "56646",
      "cp": "",
      "ville": "Sant'Agata Bolognese",
      "adresse": "Persiceto 35/D 40019",
      "brand": "Coop",
      "lat": 44.651693,
      "lng": 11.147481,
      "fuels": {
        "sp95": 1.849,
        "gazole": 1.958,
        "gplc": 0.779
      }
    },
    {
      "id": "54152",
      "cp": "",
      "ville": "Sasso Marconi",
      "adresse": "Kennedy 14 40037",
      "brand": "Agip Eni",
      "lat": 44.39771251741108,
      "lng": 11.248310106993351,
      "fuels": {
        "sp95": 1.904,
        "gazole": 2.035
      }
    },
    {
      "id": "47142",
      "cp": "",
      "ville": "Sasso Marconi",
      "adresse": "Kennedy 7 40037",
      "brand": "Agip Eni",
      "lat": 44.397704017037135,
      "lng": 11.24838140422411,
      "fuels": {
        "sp95": 1.904,
        "gazole": 2.035
      }
    },
    {
      "id": "7081",
      "cp": "",
      "ville": "Sasso Marconi",
      "adresse": "Via Fiaccacollo 1 40037",
      "brand": "Pompe Bianche",
      "lat": 44.38125060155499,
      "lng": 11.234067678451538,
      "fuels": {
        "sp95": 1.877,
        "gazole": 1.997,
        "e85": 1.49,
        "gplc": 0.798
      }
    },
    {
      "id": "6534",
      "cp": "",
      "ville": "Sasso Marconi",
      "adresse": "Via Kennedy 52 40037",
      "brand": "q8",
      "lat": 44.392606264681675,
      "lng": 11.246335561377009,
      "fuels": {
        "sp95": 1.899,
        "gazole": 2.019
      }
    },
    {
      "id": "15664",
      "cp": "",
      "ville": "Sasso Marconi",
      "adresse": "Via Setta 100 40037",
      "brand": "Tamoil",
      "lat": 44.3597532385386,
      "lng": 11.263353815570607,
      "fuels": {
        "sp95": 1.919,
        "gazole": 1.999
      }
    },
    {
      "id": "55288",
      "cp": "",
      "ville": "Valsamoggia",
      "adresse": "Del Samoggia 611 40053",
      "brand": "Af Petroli",
      "lat": 44.443841233420606,
      "lng": 11.099168496475222,
      "fuels": {
        "sp95": 1.925,
        "gazole": 2.015
      }
    },
    {
      "id": "53121",
      "cp": "",
      "ville": "Valsamoggia",
      "adresse": "Moretto 2 40056",
      "brand": "Pompe Bianche",
      "lat": 44.50839782730037,
      "lng": 11.104302342080045,
      "fuels": {
        "e85": 1.599
      }
    },
    {
      "id": "55999",
      "cp": "",
      "ville": "Valsamoggia",
      "adresse": "Provinciale 171 40056",
      "brand": "Esso",
      "lat": 44.51283151669163,
      "lng": 11.1388242727399,
      "fuels": {
        "sp95": 1.899,
        "gazole": 2.009
      }
    },
    {
      "id": "36287",
      "cp": "",
      "ville": "Valsamoggia",
      "adresse": "Via Bortolani 1026 40060",
      "brand": "Pompe Bianche",
      "lat": 44.3433261991665,
      "lng": 11.078212771163976,
      "fuels": {
        "sp95": 1.955,
        "gazole": 2.099
      }
    },
    {
      "id": "63013",
      "cp": "",
      "ville": "Valsamoggia",
      "adresse": "Via Bortolani 1026 41026",
      "brand": "Ego",
      "lat": 44.34335548625918,
      "lng": 11.078143450907904,
      "fuels": {
        "sp95": 2.029,
        "gazole": 2.089
      }
    },
    {
      "id": "10226",
      "cp": "",
      "ville": "Valsamoggia",
      "adresse": "Via Circonvallazione Nord 42 40053",
      "brand": "Tamoil",
      "lat": 44.50802340034285,
      "lng": 11.083147595780929,
      "fuels": {
        "sp95": 1.9,
        "gazole": 1.999
      }
    },
    {
      "id": "63011",
      "cp": "",
      "ville": "Valsamoggia",
      "adresse": "Via Dei Mulini 722",
      "brand": "Esso",
      "lat": 44.389802310716064,
      "lng": 11.071241918204565,
      "fuels": {
        "sp95": 1.969,
        "gazole": 2.059
      }
    },
    {
      "id": "11209",
      "cp": "",
      "ville": "Valsamoggia",
      "adresse": "Via Dei Mulini 722 40060",
      "brand": "Esso",
      "lat": 44.38979048349792,
      "lng": 11.071249547221441,
      "fuels": {
        "sp95": 1.939,
        "gazole": 2.099
      }
    },
    {
      "id": "45530",
      "cp": "",
      "ville": "Valsamoggia",
      "adresse": "Via Emilia 73 40053",
      "brand": "q8",
      "lat": 44.566588000123,
      "lng": 11.133631000123,
      "fuels": {
        "sp95": 1.939,
        "gazole": 1.959,
        "gplc": 0.739
      }
    },
    {
      "id": "49970",
      "cp": "",
      "ville": "Valsamoggia",
      "adresse": "Via Lunga 30 40056",
      "brand": "Vega",
      "lat": 44.53332112804234,
      "lng": 11.182342098147563,
      "fuels": {
        "sp95": 1.899,
        "gazole": 2.029,
        "e85": 1.499
      }
    },
    {
      "id": "10876",
      "cp": "",
      "ville": "Valsamoggia",
      "adresse": "Via Nuova Bazzanese 10 40056",
      "brand": "Agip Eni",
      "lat": 44.51077683230635,
      "lng": 11.173632815480232,
      "fuels": {
        "sp95": 1.919,
        "gazole": 2.059,
        "gplc": 0.819
      }
    },
    {
      "id": "23584",
      "cp": "",
      "ville": "Valsamoggia",
      "adresse": "Via prov. Est - Bazzano 20/A-B 40053",
      "brand": "q8",
      "lat": 44.506097142816415,
      "lng": 11.09857052564621,
      "fuels": {
        "sp95": 1.899,
        "gazole": 1.999,
        "gplc": 0.819
      }
    },
    {
      "id": "11205",
      "cp": "",
      "ville": "Valsamoggia",
      "adresse": "Viale Dei Martiri 1/1 40050",
      "brand": "Esso",
      "lat": 44.47103550606816,
      "lng": 11.099641823417642,
      "fuels": {
        "sp95": 1.959,
        "gazole": 2.029
      }
    },
    {
      "id": "47203",
      "cp": "",
      "ville": "Vergato",
      "adresse": "64 porrettana, km. 51, Pistoia - 40038",
      "brand": "Pompe Bianche",
      "lat": 44.288171056468755,
      "lng": 11.111870031523873,
      "fuels": {
        "sp95": 1.857,
        "gazole": 1.975
      }
    },
    {
      "id": "60015",
      "cp": "",
      "ville": "Vergato",
      "adresse": "Della Repubblica 1284 40038",
      "brand": "q8",
      "lat": 44.271253664593786,
      "lng": 11.111268717179316,
      "fuels": {
        "sp95": 1.959,
        "gazole": 2.029,
        "gplc": 0.759
      }
    },
    {
      "id": "51440",
      "cp": "",
      "ville": "Vergato",
      "adresse": "str. stat. 64 Km 58+378/58+533 Snc 40038",
      "brand": "Coop",
      "lat": 44.30189224399836,
      "lng": 11.127027780426033,
      "fuels": {
        "sp95": 1.859,
        "gazole": 1.977,
        "gplc": 0.779
      }
    },
    {
      "id": "49572",
      "cp": "",
      "ville": "Vergato",
      "adresse": "Via Della Costituzione 316 40038",
      "brand": "Agip Eni",
      "lat": 44.28490550952501,
      "lng": 11.112496067746273,
      "fuels": {
        "sp95": 1.899,
        "gazole": 2.029
      }
    },
    {
      "id": "57464",
      "cp": "",
      "ville": "Zola Predosa",
      "adresse": "Autostrada a14 Bologna-Bari-taranto,  km. 2.300, dir. Sud 40069",
      "brand": "q8",
      "lat": 44.518632247090665,
      "lng": 11.2160343975067,
      "fuels": {
        "sp95": 1.919,
        "gazole": 2.059,
        "gplc": 0.869
      }
    },
    {
      "id": "3860",
      "cp": "",
      "ville": "Zola Predosa",
      "adresse": "Autostrada a14 Bologna-Bari-taranto, km. 2+300, dir. Nord - 40069",
      "brand": "Agip Eni",
      "lat": 44.51952042741056,
      "lng": 11.213264465332031,
      "fuels": {
        "sp95": 1.906,
        "gazole": 2.035,
        "gplc": 0.801
      }
    },
    {
      "id": "57669",
      "cp": "",
      "ville": "Zola Predosa",
      "adresse": "Rigosa 48 40069",
      "brand": "Agip Eni",
      "lat": 44.5056205,
      "lng": 11.2335488,
      "fuels": {
        "sp95": 1.889,
        "gazole": 2.019
      }
    },
    {
      "id": "8650",
      "cp": "",
      "ville": "Zola Predosa",
      "adresse": "s.p. 569 Di Vignola 36+350 Snc 40069",
      "brand": "Api-Ip",
      "lat": 44.50441473465839,
      "lng": 11.201650500297546,
      "fuels": {
        "sp95": 1.899,
        "gazole": 2.029,
        "gplc": 0.819
      }
    },
    {
      "id": "27277",
      "cp": "",
      "ville": "Zola Predosa",
      "adresse": "Sp 569 Nuova Bazzanese Km 34,750  40069",
      "brand": "Api-Ip",
      "lat": 44.50908087211515,
      "lng": 11.185553236770602,
      "fuels": {
        "sp95": 1.899,
        "gazole": 2.039
      }
    },
    {
      "id": "6543",
      "cp": "",
      "ville": "Zola Predosa",
      "adresse": "Via Risorgimento  Loc Lavin 141 40069",
      "brand": "q8",
      "lat": 44.491453495130074,
      "lng": 11.217593550682068,
      "fuels": {
        "sp95": 1.899,
        "gazole": 2.029
      }
    },
    {
      "id": "63014",
      "cp": "",
      "ville": "Zola Predosa",
      "adresse": "Via Risorgimento 162",
      "brand": "Esso",
      "lat": 44.49136061629034,
      "lng": 11.218271255294816,
      "fuels": {
        "sp95": 1.899,
        "gazole": 2.029
      }
    },
    {
      "id": "42395",
      "cp": "",
      "ville": "Zola Predosa",
      "adresse": "Via Risorgimento 162 40069",
      "brand": "Esso",
      "lat": 44.48618728826234,
      "lng": 11.233689486980438,
      "fuels": {
        "sp95": 1.979,
        "gazole": 2.099
      }
    },
    {
      "id": "52028",
      "cp": "",
      "ville": "Zola Predosa",
      "adresse": "Via Risorgimento 380 40069",
      "brand": "Tamoil",
      "lat": 44.498667369098385,
      "lng": 11.198332812164267,
      "fuels": {
        "sp95": 1.899,
        "gazole": 2.049,
        "gplc": 0.779
      }
    },