{
  "code": "BR",
  "name": "Brindisi",
  "regionCode": "PUG",
  "regionName": "Puglia",
  "asOf": "2026-07-18T18:35:27.508Z",
  "source": "https://www.mimit.gov.it/it/open-data/elenco-dataset/2032336-dataset-prezzi-carburanti",
  "stationCount": 166,
  "fuels": {
    "gazole": {
      "count": 164,
      "mean": 2.0502,
      "median": 2.059,
      "min": 1.649,
      "max": 2.159
    },
    "sp95": {
      "count": 164,
      "mean": 1.9285,
      "median": 1.929,
      "min": 1.719,
      "max": 2.039
    },
    "e85": {
      "count": 10,
      "mean": 1.5861,
      "median": 1.624,
      "min": 1.24,
      "max": 1.709
    },
    "gplc": {
      "count": 32,
      "mean": 0.7141,
      "median": 0.729,
      "min": 0.649,
      "max": 0.787
    }
  },
  "stations": [
    {
      "id": "50388",
      "cp": "",
      "ville": "Brindisi",
      "adresse": "379 Egnazia E Delle Terme Di Torre canne, km. 63+390, Nord  72100",
      "brand": "Agip Eni",
      "lat": 40.65222320840804,
      "lng": 17.907161535830568,
      "fuels": {
        "sp95": 1.929,
        "gazole": 2.029
      }
    },
    {
      "id": "38716",
      "cp": "",
      "ville": "Brindisi",
      "adresse": "Appia 348 72100",
      "brand": "Agip Eni",
      "lat": 40.629047995199876,
      "lng": 17.924567228905516,
      "fuels": {
        "sp95": 1.949,
        "gazole": 2.059
      }
    },
    {
      "id": "40158",
      "cp": "",
      "ville": "Brindisi",
      "adresse": "Cicirello Snc 72100",
      "brand": "Tamoil",
      "lat": 40.64057486546984,
      "lng": 17.92724870145321,
      "fuels": {
        "sp95": 1.959,
        "gazole": 2.079
      }
    },
    {
      "id": "61801",
      "cp": "",
      "ville": "Brindisi",
      "adresse": "Circonvallazione s.s. 16 Km 913+90 Nd 72100",
      "brand": "Api-Ip",
      "lat": 40.632592930396555,
      "lng": 17.917099842280596,
      "fuels": {
        "sp95": 1.919,
        "gazole": 2.059,
        "gplc": 0.669
      }
    },
    {
      "id": "11347",
      "cp": "",
      "ville": "Brindisi",
      "adresse": "Fontanesi Snc 72100",
      "brand": "Api-Ip",
      "lat": 40.62102099648496,
      "lng": 17.926487624645233,
      "fuels": {
        "sp95": 1.939,
        "gazole": 2.099
      }
    },
    {
      "id": "15218",
      "cp": "",
      "ville": "Brindisi",
      "adresse": "Provinciale Per Lecce Snc 72100",
      "brand": "Api-Ip",
      "lat": 40.627031062279286,
      "lng": 17.94731229543686,
      "fuels": {
        "sp95": 1.959,
        "gazole": 2.119,
        "gplc": 0.669
      }
    },
    {
      "id": "56526",
      "cp": "",
      "ville": "Brindisi",
      "adresse": "s.da Per Lo Spada  72100",
      "brand": "Energas",
      "lat": 40.6181210301432,
      "lng": 17.904634105120717,
      "fuels": {
        "sp95": 1.829,
        "gazole": 1.949,
        "gplc": 0.649
      }
    },
    {
      "id": "53328",
      "cp": "",
      "ville": "Brindisi",
      "adresse": "s.s. 16 km.914 + 160 s.n.c. 72100",
      "brand": "Agip Eni",
      "lat": 40.619233,
      "lng": 17.943800666666665,
      "fuels": {
        "sp95": 1.949,
        "gazole": 2.059
      }
    },
    {
      "id": "26638",
      "cp": "",
      "ville": "Brindisi",
      "adresse": "s.s. 7 Appia Km 717  72100",
      "brand": "q8",
      "lat": 40.62111785296287,
      "lng": 17.91038267976228,
      "fuels": {
        "sp95": 1.829,
        "gazole": 1.949,
        "gplc": 0.659
      }
    },
    {
      "id": "58786",
      "cp": "",
      "ville": "Brindisi",
      "adresse": "s.s. Br-Le Km 0,500 Sn 72100",
      "brand": "Api-Ip",
      "lat": 40.6165,
      "lng": 17.9500355,
      "fuels": {
        "sp95": 1.939,
        "gazole": 2.099
      }
    },
    {
      "id": "41837",
      "cp": "",
      "ville": "Brindisi",
      "adresse": "s.s.16 Km 925+780 Snc 72100",
      "brand": "Tamoil",
      "lat": 40.55241356202668,
      "lng": 17.97542508895492,
      "fuels": {
        "sp95": 1.959,
        "gazole": 2.079,
        "gplc": 0.669
      }
    },
    {
      "id": "61816",
      "cp": "",
      "ville": "Brindisi",
      "adresse": "sp43  72100",
      "brand": "Pompe Bianche",
      "lat": 40.597550289355794,
      "lng": 17.870346265986726,
      "fuels": {
        "e85": 1.569
      }
    },
    {
      "id": "62639",
      "cp": "",
      "ville": "Brindisi",
      "adresse": "Ss 379 Km 47+700",
      "brand": "q8",
      "lat": 40.654759,
      "lng": 17.898745,
      "fuels": {
        "sp95": 1.939,
        "gazole": 2.059
      }
    },
    {
      "id": "46988",
      "cp": "",
      "ville": "Brindisi",
      "adresse": "Ss 379 km. 48+900 s.n.c. 72100",
      "brand": "Energas",
      "lat": 40.65475968842104,
      "lng": 17.8987455368042,
      "fuels": {
        "sp95": 1.929,
        "gazole": 2.029,
        "gplc": 0.669
      }
    },
    {
      "id": "61819",
      "cp": "",
      "ville": "Brindisi",
      "adresse": "Ss 613 Km 2+900 613 72100",
      "brand": "Pompe Bianche",
      "lat": 40.59935606100718,
      "lng": 17.966865764484417,
      "fuels": {
        "sp95": 1.879,
        "gazole": 2.029,
        "e85": 1.549,
        "gplc": 0.649
      }
    },
    {
      "id": "39042",
      "cp": "",
      "ville": "Brindisi",
      "adresse": "Stazione Snc 72100",
      "brand": "Tamoil",
      "lat": 40.54580102176017,
      "lng": 17.953997030854225,
      "fuels": {
        "sp95": 1.959,
        "gazole": 2.079
      }
    },
    {
      "id": "25485",
      "cp": "",
      "ville": "Brindisi",
      "adresse": "Via Appia  72100",
      "brand": "q8",
      "lat": 40.63244343304146,
      "lng": 17.930546122684518,
      "fuels": {
        "sp95": 1.919,
        "gazole": 2.019
      }
    },
    {
      "id": "16866",
      "cp": "",
      "ville": "Brindisi",
      "adresse": "Via Benedetto Brin 27 72100",
      "brand": "Agip Eni",
      "lat": 40.64719385260484,
      "lng": 17.936684742327884,
      "fuels": {
        "sp95": 1.955,
        "gazole": 2.054
      }
    },
    {
      "id": "55170",
      "cp": "",
      "ville": "Brindisi",
      "adresse": "Via Bozzano Snc 72100",
      "brand": "Agip Eni",
      "lat": 40.6269603,
      "lng": 17.9422416,
      "fuels": {
        "sp95": 1.909,
        "gazole": 2.004
      }
    },
    {
      "id": "21809",
      "cp": "",
      "ville": "Brindisi",
      "adresse": "Via Brin 5, 72024  - -",
      "brand": "Api-Ip",
      "lat": 40.645430887273704,
      "lng": 17.93396175872192,
      "fuels": {
        "sp95": 1.929,
        "gazole": 2.089
      }
    },
    {
      "id": "51210",
      "cp": "",
      "ville": "Brindisi",
      "adresse": "Via Enrico Fermi - Zona ind.le 3 72100",
      "brand": "Pompe Bianche",
      "lat": 40.63274536706296,
      "lng": 17.95499891976574,
      "fuels": {
        "sp95": 1.959,
        "gazole": 2.129
      }
    },
    {
      "id": "29591",
      "cp": "",
      "ville": "Brindisi",
      "adresse": "Via Maddalena 5 72100",
      "brand": "q8",
      "lat": 40.64901056790986,
      "lng": 17.940420359373093,
      "fuels": {
        "sp95": 1.919,
        "gazole": 2.019
      }
    },
    {
      "id": "47916",
      "cp": "",
      "ville": "Brindisi",
      "adresse": "Via Maestri Del lavoro, 72100  72100",
      "brand": "Pompe Bianche",
      "lat": 40.65861766226407,
      "lng": 17.927107214927673,
      "fuels": {
        "sp95": 1.999,
        "gazole": 2.099
      }
    },
    {
      "id": "58745",
      "cp": "",
      "ville": "Brindisi",
      "adresse": "Via Palmiro Togliatti 13 A  72100",
      "brand": "Api-Ip",
      "lat": 40.623104,
      "lng": 17.925737,
      "fuels": {
        "sp95": 2.009,
        "gazole": 2.059
      }
    },
    {
      "id": "27969",
      "cp": "",
      "ville": "Brindisi",
      "adresse": "Via Per Lecce Sn 72100",
      "brand": "Api-Ip",
      "lat": 40.62400838562497,
      "lng": 17.94828325510025,
      "fuels": {
        "sp95": 1.959,
        "gazole": 2.119
      }
    },
    {
      "id": "56830",
      "cp": "",
      "ville": "Brindisi",
      "adresse": "Via Porta Lecce Snc 72100",
      "brand": "Agip Eni",
      "lat": 40.6338447,
      "lng": 17.945422,
      "fuels": {
        "sp95": 1.924,
        "gazole": 2.024
      }
    },
    {
      "id": "46597",
      "cp": "",
      "ville": "Brindisi",
      "adresse": "Via prov.le San Vito  126/A 72100",
      "brand": "Esso",
      "lat": 40.64394152146662,
      "lng": 17.92220413684845,
      "fuels": {
        "sp95": 1.869,
        "gazole": 1.999
      }
    },
    {
      "id": "47343",
      "cp": "",
      "ville": "Brindisi",
      "adresse": "Via Provinciale Per Lecce 69 72100",
      "brand": "Pompe Bianche",
      "lat": 40.62456431860557,
      "lng": 17.948634469905848,
      "fuels": {
        "e85": 1.709
      }
    },
    {
      "id": "41281",
      "cp": "",
      "ville": "Brindisi",
      "adresse": "Via Provinciale Per San Vito  183 72100",
      "brand": "Tamoil",
      "lat": 40.63854508262492,
      "lng": 17.927366184217135,
      "fuels": {
        "sp95": 1.819,
        "gazole": 1.899
      }
    },
    {
      "id": "63386",
      "cp": "",
      "ville": "Brindisi",
      "adresse": "Via Provinciale s. Vito 183 72100",
      "brand": "Tamoil",
      "lat": 40.638557719113734,
      "lng": 17.927368811415146,
      "fuels": {
        "sp95": 1.979,
        "gazole": 2.099
      }
    },
    {
      "id": "6759",
      "cp": "",
      "ville": "Brindisi",
      "adresse": "Via San Vito Snc 72100",
      "brand": "q8",
      "lat": 40.63790565422038,
      "lng": 17.928788379098478,
      "fuels": {
        "sp95": 1.869,
        "gazole": 1.989
      }
    },
    {
      "id": "21842",
      "cp": "",
      "ville": "Brindisi",
      "adresse": "Via Sant'Angelo 4/C  72100",
      "brand": "Api-Ip",
      "lat": 40.62533324247939,
      "lng": 17.93107150000003,
      "fuels": {
        "sp95": 1.929,
        "gazole": 2.089
      }
    },
    {
      "id": "45607",
      "cp": "",
      "ville": "Brindisi",
      "adresse": "Viale Aldo Moro 43 72100",
      "brand": "Agip Eni",
      "lat": 40.628936529884136,
      "lng": 17.937283708526138,
      "fuels": {
        "sp95": 1.949,
        "gazole": 2.059
      }
    },
    {
      "id": "45483",
      "cp": "",
      "ville": "Brindisi",
      "adresse": "Viale Commenda  72100",
      "brand": "Pompe Bianche",
      "lat": 40.632419000123,
      "lng": 17.938101000123,
      "fuels": {
        "sp95": 1.999,
        "gazole": 2.099
      }
    },
    {
      "id": "41885",
      "cp": "",
      "ville": "Carovigno",
      "adresse": "379 Egnazia E Delle Terme Di Torre canne, km. 31, Brindisi - 72012",
      "brand": "Tamoil",
      "lat": 40.73602700900382,
      "lng": 17.724831774830818,
      "fuels": {
        "sp95": 1.719,
        "gazole": 1.649
      }
    },
    {
      "id": "56212",
      "cp": "",
      "ville": "Carovigno",
      "adresse": "ss. 16 Km 887 Snc 72012",
      "brand": "Menga Petroli",
      "lat": 40.7079885,
      "lng": 17.6447832,
      "fuels": {
        "sp95": 1.919,
        "gazole": 2.089
      }
    },
    {
      "id": "17986",
      "cp": "",
      "ville": "Carovigno",
      "adresse": "Statale 16 adriatica, km. 888-889, dir. Sud - 72012",
      "brand": "Agip Eni",
      "lat": 40.70112568330345,
      "lng": 17.66335379401994,
      "fuels": {
        "sp95": 1.949,
        "gazole": 2.059
      }
    },
    {
      "id": "30490",
      "cp": "",
      "ville": "Carovigno",
      "adresse": "Statale 16 adriatica, km. 888+013, dir. Brindisi - 72012",
      "brand": "Agip Eni",
      "lat": 40.70447231311191,
      "lng": 17.654022350231912,
      "fuels": {
        "sp95": 1.949,
        "gazole": 2.059
      }
    },
    {
      "id": "54665",
      "cp": "",
      "ville": "Ceglie Messapica",
      "adresse": "Amendola ang. Via Roma Snc 72013",
      "brand": "Agip Eni",
      "lat": 40.6451093532987,
      "lng": 17.520643493212436,
      "fuels": {
        "sp95": 1.929,
        "gazole": 2.029
      }
    },
    {
      "id": "59676",
      "cp": "",
      "ville": "Ceglie Messapica",
      "adresse": "p.le Ceglie Ostuni Sn 72013",
      "brand": "Toil",
      "lat": 40.650667796929966,
      "lng": 17.523197095705374,
      "fuels": {
        "sp95": 1.889,
        "gazole": 2.069
      }
    },
    {
      "id": "34349",
      "cp": "",
      "ville": "Ceglie Messapica",
      "adresse": "Per Ostuni Snc 72013",
      "brand": "Tamoil",
      "lat": 40.64416252184005,
      "lng": 17.52401612699032,
      "fuels": {
        "sp95": 1.899,
        "gazole": 2.069
      }
    },
    {
      "id": "31490",
      "cp": "",
      "ville": "Ceglie Messapica",
      "adresse": "Sp Per San Vito km.0,370 Snc 72013",
      "brand": "Menga Petroli",
      "lat": 40.645797584443095,
      "lng": 17.52494215965271,
      "fuels": {
        "sp95": 1.919,
        "gazole": 2.089
      }
    },
    {
      "id": "60239",
      "cp": "",
      "ville": "Ceglie Messapica",
      "adresse": "spexss581",
      "brand": "Pompe Bianche",
      "lat": 40.64543113198776,
      "lng": 17.630102405096434,
      "fuels": {
        "sp95": 1.919,
        "gazole": 2.129
      }
    },
    {
      "id": "38624",
      "cp": "",
      "ville": "Ceglie Messapica",
      "adresse": "Strada Provincaile Per Martina Franca Sn 72013, Ceglie Messapica (br) 159 72013",
      "brand": "Menga Petroli",
      "lat": 40.650401000250525,
      "lng": 17.50845826295165,
      "fuels": {
        "sp95": 1.924,
        "gazole": 2.094
      }
    },
    {
      "id": "11265",
      "cp": "",
      "ville": "Ceglie Messapica",
      "adresse": "Via Ceglie - Francavilla  72013",
      "brand": "Menga Petroli",
      "lat": 40.628219900859214,
      "lng": 17.525175511837006,
      "fuels": {
        "sp95": 1.919,
        "gazole": 2.089,
        "e85": 1.699,
        "gplc": 0.729
      }
    },
    {
      "id": "50128",
      "cp": "",
      "ville": "Ceglie Messapica",
      "adresse": "Via Matteotti Giacomo 31 72013",
      "brand": "Esso",
      "lat": 40.64259712723728,
      "lng": 17.51468164705284,
      "fuels": {
        "sp95": 1.929,
        "gazole": 2.029
      }
    },
    {
      "id": "62854",
      "cp": "",
      "ville": "Ceglie Messapica",
      "adresse": "Via Per Martina Franca  72013",
      "brand": "Esso",
      "lat": 40.65045,
      "lng": 17.5105,
      "fuels": {
        "sp95": 1.929,
        "gazole": 2.029
      }
    },
    {
      "id": "36633",
      "cp": "",
      "ville": "Ceglie Messapica",
      "adresse": "Via s.p. Per Francavilla Fontana Snc 72013, Ceglie Messapica (br)  72013",
      "brand": "Fly",
      "lat": 40.60025175400559,
      "lng": 17.542821764945984,
      "fuels": {
        "sp95": 1.899,
        "gazole": 1.999,
        "gplc": 0.699
      }
    },
    {
      "id": "49251",
      "cp": "",
      "ville": "Cellino San Marco",
      "adresse": "s.p. 75 Per San Pietro Vernotico   72020",
      "brand": "Menga Petroli",
      "lat": 40.47867012607465,
      "lng": 17.981270093254093,
      "fuels": {
        "sp95": 1.919,
        "gazole": 2.089,
        "e85": 1.649
      }
    },
    {
      "id": "46074",
      "cp": "",
      "ville": "Cellino San Marco",
      "adresse": "Via Per San Donaci Sn 72020",
      "brand": "Mf Carburanti",
      "lat": 40.467832158745814,
      "lng": 17.958338562276708,
      "fuels": {
        "sp95": 1.915,
        "gazole": 2.025
      }
    },
    {
      "id": "6760",
      "cp": "",
      "ville": "Cellino San Marco",
      "adresse": "Via S Pietro Vernotico Snc 72020",
      "brand": "q8",
      "lat": 40.47358587636572,
      "lng": 17.96970282023767,
      "fuels": {
        "sp95": 1.899,
        "gazole": 2.029
      }
    },
    {
      "id": "23394",
      "cp": "",
      "ville": "Cellino San Marco",
      "adresse": "Via San Pietro Vernotico",
      "brand": "Api-Ip",
      "lat": 40.47570072146379,
      "lng": 17.973949313163757,
      "fuels": {
        "sp95": 1.919,
        "gazole": 2.029
      }
    },
    {
      "id": "12162",
      "cp": "",
      "ville": "Cisternino",
      "adresse": "Brindisi 49 72014",
      "brand": "Retitalia",
      "lat": 40.73843870801457,
      "lng": 17.47053517427446,
      "fuels": {
        "sp95": 1.919,
        "gazole": 2.019
      }
    },
    {
      "id": "53738",
      "cp": "",
      "ville": "Cisternino",
      "adresse": "Fasano  72014",
      "brand": "Agip Eni",
      "lat": 40.748478,
      "lng": 17.425121,
      "fuels": {
        "sp95": 1.929,
        "gazole": 2.029
      }
    },
    {
      "id": "33770",
      "cp": "",
      "ville": "Cisternino",
      "adresse": "Sp Gravina Di Castro 18 72014",
      "brand": "Api-Ip",
      "lat": 40.76188882401902,
      "lng": 17.422865331172943,
      "fuels": {
        "sp95": 1.949,
        "gazole": 2.059,
        "gplc": 0.787
      }
    },
    {
      "id": "57535",
      "cp": "",
      "ville": "Cisternino",
      "adresse": "Via n. Sauro - Angolo Via c. Colombo  Snc  72014",
      "brand": "Agip Eni",
      "lat": 40.743988,
      "lng": 17.430502,
      "fuels": {
        "sp95": 1.929,
        "gazole": 2.029
      }
    },
    {
      "id": "32335",
      "cp": "",
      "ville": "Cisternino",
      "adresse": "Viale Valle D'Itria  72014",
      "brand": "q8",
      "lat": 40.740293650817186,
      "lng": 17.422803044319153,
      "fuels": {
        "sp95": 1.999,
        "gazole": 2.029
      }
    },
    {
      "id": "54892",
      "cp": "",
      "ville": "Erchie",
      "adresse": "s.p. San Vito-Latiano-Erchie Snc 72020",
      "brand": "Toil",
      "lat": 40.41104613124024,
      "lng": 17.742821318688584,
      "fuels": {
        "sp95": 1.999,
        "gazole": 2.089,
        "gplc": 0.749
      }
    },
    {
      "id": "30709",
      "cp": "",
      "ville": "Erchie",
      "adresse": "Via Principe Di Napoli 24 72020",
      "brand": "Api-Ip",
      "lat": 40.43152581027397,
      "lng": 17.735948860645294,
      "fuels": {
        "sp95": 1.999,
        "gazole": 2.119
      }
    },
    {
      "id": "11400",
      "cp": "",
      "ville": "Erchie",
      "adresse": "Via prov.le Erchie-Torre s. Susanna  72020",
      "brand": "Toil",
      "lat": 40.442785288921684,
      "lng": 17.735528782872734,
      "fuels": {
        "sp95": 1.999,
        "gazole": 2.119
      }
    },
    {
      "id": "49506",
      "cp": "",
      "ville": "Fasano",
      "adresse": "16 Bis adriatica, km. 854,962, Nord - 72015",
      "brand": "q8",
      "lat": 40.86337824565686,
      "lng": 17.347459793090817,
      "fuels": {
        "sp95": 1.959,
        "gazole": 2.049
      }
    },
    {
      "id": "38356",
      "cp": "",
      "ville": "Fasano",
      "adresse": "Corso Garibaldi 91 72015",
      "brand": "q8",
      "lat": 40.8360723223827,
      "lng": 17.36340880393982,
      "fuels": {
        "sp95": 2.039,
        "gazole": 1.929
      }
    },
    {
      "id": "49819",
      "cp": "",
      "ville": "Fasano",
      "adresse": "Corso Nazionale 18 72015",
      "brand": "Pompe Bianche",
      "lat": 40.81428407233775,
      "lng": 17.40963803865766,
      "fuels": {
        "sp95": 1.929,
        "gazole": 2.029
      }
    },
    {
      "id": "50438",
      "cp": "",
      "ville": "Fasano",
      "adresse": "naz.ex s.s. 16 Km 864+720 Snc 72015",
      "brand": "Tamoil",
      "lat": 40.80611766986011,
      "lng": 17.427308262565614,
      "fuels": {
        "sp95": 1.959,
        "gazole": 2.069
      }
    },
    {
      "id": "57763",
      "cp": "",
      "ville": "Fasano",
      "adresse": "Roma 10 72015",
      "brand": "Esso",
      "lat": 40.615936,
      "lng": 17.94048,
      "fuels": {
        "sp95": 1.939,
        "gazole": 2.069
      }
    },
    {
      "id": "34348",
      "cp": "",
      "ville": "Fasano",
      "adresse": "Roma ang. Via Mignozzi 200 72015",
      "brand": "Tamoil",
      "lat": 40.83905926495007,
      "lng": 17.359470650553703,
      "fuels": {
        "sp95": 1.959,
        "gazole": 2.069
      }
    },
    {
      "id": "40918",
      "cp": "",
      "ville": "Fasano",
      "adresse": "s.p. Per Torre Canne/Pezze Di Greco  72015",
      "brand": "Pompe Bianche",
      "lat": 40.814571489874666,
      "lng": 17.41848260164261,
      "fuels": {
        "sp95": 1.919,
        "gazole": 2.049
      }
    },
    {
      "id": "12192",
      "cp": "",
      "ville": "Fasano",
      "adresse": "s.p.92 Km 1+300  72010",
      "brand": "Pompe Bianche",
      "lat": 40.82152845986678,
      "lng": 17.412798315309487,
      "fuels": {
        "sp95": 1.939,
        "gazole": 2.029,
        "gplc": 0.679
      }
    },
    {
      "id": "34566",
      "cp": "",
      "ville": "Fasano",
      "adresse": "s.s. 16 Km 869+482  72016",
      "brand": "q8",
      "lat": 40.7844324106033,
      "lng": 17.47600689080741,
      "fuels": {
        "sp95": 1.769,
        "gazole": 1.649
      }
    },
    {
      "id": "23698",
      "cp": "",
      "ville": "Fasano",
      "adresse": "s.s.16 Km 857+380  72015",
      "brand": "q8",
      "lat": 40.84322405858498,
      "lng": 17.357414817790982,
      "fuels": {
        "sp95": 1.959,
        "gazole": 2.069
      }
    },
    {
      "id": "53186",
      "cp": "",
      "ville": "Fasano",
      "adresse": "s.s.16 km. 862+141 -Pezze Di Greco-  Nc 72015",
      "brand": "Agip Eni",
      "lat": 40.81823,
      "lng": 17.40119,
      "fuels": {
        "sp95": 1.904,
        "gazole": 1.999
      }
    },
    {
      "id": "4958",
      "cp": "",
      "ville": "Fasano",
      "adresse": "Statale 172 Dei trulli, km. 8,800, dir. Taranto - 72015",
      "brand": "Agip Eni",
      "lat": 40.82501224121072,
      "lng": 17.348731756210327,
      "fuels": {
        "sp95": 1.959,
        "gazole": 2.069,
        "e85": 1.699,
        "gplc": 0.739
      }
    },
    {
      "id": "4957",
      "cp": "",
      "ville": "Fasano",
      "adresse": "Statale 379 Egnazia E Delle Terme Di Torre canne, km. 9,250, dir. Brindisi - 72015",
      "brand": "Agip Eni",
      "lat": 40.820790021218926,
      "lng": 17.491596937179565,
      "fuels": {
        "sp95": 1.949,
        "gazole": 2.059,
        "gplc": 0.759
      }
    },
    {
      "id": "20138",
      "cp": "",
      "ville": "Fasano",
      "adresse": "Via Nazionale Dei Trulli 155 72015",
      "brand": "q8",
      "lat": 40.83078351323959,
      "lng": 17.352734953165054,
      "fuels": {
        "sp95": 1.959,
        "gazole": 2.079
      }
    },
    {
      "id": "37073",
      "cp": "",
      "ville": "Fasano",
      "adresse": "Via Nazionale Dei Trulli 91/A 72015",
      "brand": "Agip Eni",
      "lat": 40.833368999564506,
      "lng": 17.358868601188647,
      "fuels": {
        "sp95": 1.949,
        "gazole": 2.059
      }
    },
    {
      "id": "41557",
      "cp": "",
      "ville": "Fasano",
      "adresse": "Via Roma 239 72015",
      "brand": "Pompe Bianche",
      "lat": 40.8440875,
      "lng": 17.3571374,
      "fuels": {
        "sp95": 1.969,
        "gazole": 2.059
      }
    },
    {
      "id": "61572",
      "cp": "",
      "ville": "Fasano",
      "adresse": "Via Roma 84 72015",
      "brand": "Toil",
      "lat": 40.83543223487252,
      "lng": 17.362376678127283,
      "fuels": {
        "sp95": 1.919,
        "gazole": 2.049
      }
    },
    {
      "id": "53176",
      "cp": "",
      "ville": "Fasano",
      "adresse": "Via Roma Ex s.s.16 Km 859+880  72015",
      "brand": "q8",
      "lat": 40.8281,
      "lng": 17.37776,
      "fuels": {
        "sp95": 1.959,
        "gazole": 2.079
      }
    },
    {
      "id": "40987",
      "cp": "",
      "ville": "Fasano",
      "adresse": "Viale Stazione 76 72015",
      "brand": "Pompe Bianche",
      "lat": 40.84602587004726,
      "lng": 17.38090976973649,
      "fuels": {
        "sp95": 1.919,
        "gazole": 2.089
      }
    },
    {
      "id": "51171",
      "cp": "",
      "ville": "Francavilla Fontana",
      "adresse": "c.da Paludi-Via Per Grottaglie km.0,550 72021",
      "brand": "Pompe Bianche",
      "lat": 40.5301919017307,
      "lng": 17.569445371627808,
      "fuels": {
        "sp95": 1.889,
        "gazole": 2.069,
        "gplc": 0.729
      }
    },
    {
      "id": "26613",
      "cp": "",
      "ville": "Francavilla Fontana",
      "adresse": "C/Da Consolazione  Snc 72021",
      "brand": "Pompe Bianche",
      "lat": 40.52789878990219,
      "lng": 17.59938955307007,
      "fuels": {
        "sp95": 1.919,
        "gazole": 2.049
      }
    },
    {
      "id": "62267",
      "cp": "",
      "ville": "Francavilla Fontana",
      "adresse": "Per Ceglie 2 72021",
      "brand": "Api-Ip",
      "lat": 40.53779318571592,
      "lng": 17.577119689244277,
      "fuels": {
        "sp95": 1.949,
        "gazole": 2.079
      }
    },
    {
      "id": "33233",
      "cp": "",
      "ville": "Francavilla Fontana",
      "adresse": "s.p. 26 Per Ceglie Messapica  72021",
      "brand": "Menga Petroli",
      "lat": 40.54899198011358,
      "lng": 17.571177076057438,
      "fuels": {
        "sp95": 1.919,
        "gazole": 2.089,
        "gplc": 0.729
      }
    },
    {
      "id": "43875",
      "cp": "",
      "ville": "Francavilla Fontana",
      "adresse": "s.p. Per Grottaglie km. 0,500  72021",
      "brand": "Menga Petroli",
      "lat": 40.5292444529154,
      "lng": 17.57327445767214,
      "fuels": {
        "sp95": 1.919,
        "gazole": 2.089
      }
    },
    {
      "id": "23081",
      "cp": "",
      "ville": "Francavilla Fontana",
      "adresse": "s.s. 7 km. 687+200  72021",
      "brand": "q8",
      "lat": 40.5367685537983,
      "lng": 17.64726585739436,
      "fuels": {
        "sp95": 1.869,
        "gazole": 1.989
      }
    },
    {
      "id": "19151",
      "cp": "",
      "ville": "Francavilla Fontana",
      "adresse": "Statale 7 Via appia, km. 0,700, dir. Grottaglie - 72021",
      "brand": "Agip Eni",
      "lat": 40.53108482427701,
      "lng": 17.56718158721924,
      "fuels": {
        "sp95": 1.949,
        "gazole": 2.059
      }
    },
    {
      "id": "29626",
      "cp": "",
      "ville": "Francavilla Fontana",
      "adresse": "Statale 7 Via appia, km. 690+300, dir. Brindisi - 72021",
      "brand": "Agip Eni",
      "lat": 40.52623354294866,
      "lng": 17.592616975307465,
      "fuels": {
        "sp95": 1.949,
        "gazole": 2.059
      }
    },
    {
      "id": "62475",
      "cp": "",
      "ville": "Francavilla Fontana",
      "adresse": "Strada Provinciale  Per Ostuni  km1  72021",
      "brand": "Italiana Carburanti",
      "lat": 40.55082,
      "lng": 17.59371,
      "fuels": {
        "sp95": 1.855,
        "gazole": 2.015
      }
    },
    {
      "id": "34993",
      "cp": "",
      "ville": "Francavilla Fontana",
      "adresse": "Via Capitano Di Castri  162 72021",
      "brand": "Esso",
      "lat": 40.52962678567257,
      "lng": 17.582742422819138,
      "fuels": {
        "sp95": 1.919,
        "gazole": 2.039
      }
    },
    {
      "id": "50840",
      "cp": "",
      "ville": "Francavilla Fontana",
      "adresse": "Via Filippo D'Angio' Snc 72021",
      "brand": "Retitalia",
      "lat": 40.52456209438072,
      "lng": 17.58363918038686,
      "fuels": {
        "sp95": 1.929,
        "gazole": 2.049
      }
    },
    {
      "id": "15849",
      "cp": "",
      "ville": "Francavilla Fontana",
      "adresse": "Via Per Oria Km 0,700  72021",
      "brand": "Api-Ip",
      "lat": 40.52157112163754,
      "lng": 17.59983479976654,
      "fuels": {
        "sp95": 1.929,
        "gazole": 2.029
      }
    },
    {
      "id": "16264",
      "cp": "",
      "ville": "Francavilla Fontana",
      "adresse": "Via Per s.vito Dei Normanni  72021",
      "brand": "Energas",
      "lat": 40.5480058589117,
      "lng": 17.596116417703797,
      "fuels": {
        "sp95": 1.899,
        "gazole": 2.089,
        "gplc": 0.729
      }
    },
    {
      "id": "5524",
      "cp": "",
      "ville": "Francavilla Fontana",
      "adresse": "Via Terracina Snc 72021",
      "brand": "Api-Ip",
      "lat": 40.53017037685969,
      "lng": 17.60508534276744,
      "fuels": {
        "sp95": 1.929,
        "gazole": 2.059
      }
    },
    {
      "id": "59355",
      "cp": "",
      "ville": "Latiano",
      "adresse": "Oria Sn 72022",
      "brand": "Tamoil",
      "lat": 40.5499759666098,
      "lng": 17.713444210605633,
      "fuels": {
        "sp95": 1.999,
        "gazole": 2.119
      }
    },
    {
      "id": "58920",
      "cp": "",
      "ville": "Latiano",
      "adresse": "ss.7km696,505  72022",
      "brand": "Api-Ip",
      "lat": 40.546624913859475,
      "lng": 17.71492962021483,
      "fuels": {
        "sp95": 1.946,
        "gazole": 2.046,
        "gplc": 0.729
      }
    },
    {
      "id": "60360",
      "cp": "",
      "ville": "Latiano",
      "adresse": "ss7 Km 695 + 500 Snc 72022",
      "brand": "Agip Eni",
      "lat": 40.561752,
      "lng": 17.736811,
      "fuels": {
        "sp95": 1.929,
        "gazole": 1.969,
        "gplc": 0.699
      }
    },
    {
      "id": "59603",
      "cp": "",
      "ville": "Latiano",
      "adresse": "Via Della Liberta'  Snc",
      "brand": "Agip Eni",
      "lat": 40.55312,
      "lng": 17.725641,
      "fuels": {
        "sp95": 1.929,
        "gazole": 2.029
      }
    },
    {
      "id": "16048",
      "cp": "",
      "ville": "Latiano",
      "adresse": "Via San Vito Sn 72022",
      "brand": "Api-Ip",
      "lat": 40.55659805686458,
      "lng": 17.717014602377276,
      "fuels": {
        "sp95": 1.949,
        "gazole": 2.059
      }
    },
    {
      "id": "54841",
      "cp": "",
      "ville": "Mesagne",
      "adresse": "a. Murri - Zona Pip  72023",
      "brand": "Biancopetroli",
      "lat": 40.57703549066132,
      "lng": 17.829296475885016,
      "fuels": {
        "sp95": 1.899,
        "gazole": 2.039
      }
    },
    {
      "id": "54842",
      "cp": "",
      "ville": "Mesagne",
      "adresse": "Torre s. Susanna km.1+100 Sn 72023",
      "brand": "Biancopetroli",
      "lat": 40.54411035499111,
      "lng": 17.802035808563232,
      "fuels": {
        "sp95": 2.019,
        "gazole": 2.159,
        "e85": 1.499,
        "gplc": 0.699
      }
    },
    {
      "id": "19235",
      "cp": "",
      "ville": "Mesagne",
      "adresse": "Via Brindisi  72023",
      "brand": "Agip Eni",
      "lat": 40.563731113004586,
      "lng": 17.813366800546646,
      "fuels": {
        "sp95": 1.944,
        "gazole": 2.054
      }
    },
    {
      "id": "46417",
      "cp": "",
      "ville": "Mesagne",
      "adresse": "Via Brindisi 159 72023",
      "brand": "Pompe Bianche",
      "lat": 40.568265710366866,
      "lng": 17.817131780493373,
      "fuels": {
        "sp95": 1.919,
        "gazole": 2.029
      }
    },
    {
      "id": "60517",
      "cp": "",
      "ville": "Mesagne",
      "adresse": "Via Brindisi 2 72023",
      "brand": "Esso",
      "lat": 40.5714401,
      "lng": 17.8205737,
      "fuels": {
        "sp95": 1.919,
        "gazole": 2.029
      }
    },
    {
      "id": "38252",
      "cp": "",
      "ville": "Mesagne",
      "adresse": "Via Latiano  72023",
      "brand": "q8",
      "lat": 40.55941298049411,
      "lng": 17.79290057731555,
      "fuels": {
        "sp95": 1.899,
        "gazole": 2.039
      }
    },
    {
      "id": "15160",
      "cp": "",
      "ville": "Mesagne",
      "adresse": "Via Reali Di Bulgaria  Sn 72023",
      "brand": "Api-Ip",
      "lat": 40.557047356683306,
      "lng": 17.821193486452103,
      "fuels": {
        "sp95": 1.939,
        "gazole": 2.069
      }
    },
    {
      "id": "5522",
      "cp": "",
      "ville": "Mesagne",
      "adresse": "Via Sandonaci 48 72023",
      "brand": "Api-Ip",
      "lat": 40.55408368261556,
      "lng": 17.812026542327885,
      "fuels": {
        "sp95": 1.929,
        "gazole": 2.059
      }
    },
    {
      "id": "56082",
      "cp": "",
      "ville": "Oria",
      "adresse": "Manduria km. 0.300 Snc 72024",
      "brand": "Agip Eni",
      "lat": 40.48901108055209,
      "lng": 17.643220520425505,
      "fuels": {
        "sp95": 1.949,
        "gazole": 2.069,
        "gplc": 0.759
      }
    },
    {
      "id": "22123",
      "cp": "",
      "ville": "Oria",
      "adresse": "s.p. Cellino San Marco  72024",
      "brand": "Api-Ip",
      "lat": 40.50202831605053,
      "lng": 17.630826411045064,
      "fuels": {
        "sp95": 1.939,
        "gazole": 2.059
      }
    },
    {
      "id": "61098",
      "cp": "",
      "ville": "Oria",
      "adresse": "sp.le Oria Francavilla Snc 72024",
      "brand": "Agip Eni",
      "lat": 40.5027636409662,
      "lng": 17.63401943726501,
      "fuels": {
        "sp95": 1.899,
        "gazole": 2.004
      }
    },
    {
      "id": "5523",
      "cp": "",
      "ville": "Oria",
      "adresse": "Via Per Latiano 125 72024",
      "brand": "Api-Ip",
      "lat": 40.50417635496934,
      "lng": 17.64918831779096,
      "fuels": {
        "sp95": 1.939,
        "gazole": 2.059
      }
    },
    {
      "id": "51014",
      "cp": "",
      "ville": "Oria",
      "adresse": "Viale Grande Europa 72024 72024",
      "brand": "Pompe Bianche",
      "lat": 40.49065556326211,
      "lng": 17.653096672937043,
      "fuels": {
        "sp95": 1.919,
        "gazole": 2.069
      }
    },
    {
      "id": "47487",
      "cp": "",
      "ville": "Ostuni",
      "adresse": "16 adriatica, km. 882.7, Carovigno - 72017",
      "brand": "Dill S",
      "lat": 40.72344596475367,
      "lng": 17.597147527531845,
      "fuels": {
        "sp95": 1.919,
        "gazole": 2.069
      }
    },
    {
      "id": "48261",
      "cp": "",
      "ville": "Ostuni",
      "adresse": "c.so Vittorio Emanuele  72017",
      "brand": "q8",
      "lat": 40.726556497991815,
      "lng": 17.58472188895494,
      "fuels": {
        "sp95": 1.939,
        "gazole": 2.059
      }
    },
    {
      "id": "38760",
      "cp": "",
      "ville": "Ostuni",
      "adresse": "Contrada Grieco 6 72017",
      "brand": "Menga Petroli",
      "lat": 40.7009184387747,
      "lng": 17.492981627583504,
      "fuels": {
        "sp95": 1.889,
        "gazole": 2.069
      }
    },
    {
      "id": "62846",
      "cp": "",
      "ville": "Ostuni",
      "adresse": "Corso Giuseppe Mazzini 191 72017",
      "brand": "Esso",
      "lat": 40.73133,
      "lng": 17.57116,
      "fuels": {
        "sp95": 1.929,
        "gazole": 2.049
      }
    },
    {
      "id": "61615",
      "cp": "",
      "ville": "Ostuni",
      "adresse": "Corso Vittorio Emanuele  232 72017",
      "brand": "Dill S",
      "lat": 40.72835232006225,
      "lng": 17.58459985256195,
      "fuels": {
        "sp95": 1.929,
        "gazole": 2.049
      }
    },
    {
      "id": "60562",
      "cp": "",
      "ville": "Ostuni",
      "adresse": "Giovanni Xxiii Sn 72017",
      "brand": "Menga Petroli",
      "lat": 40.72130688,
      "lng": 17.57713551,
      "fuels": {
        "sp95": 1.919,
        "gazole": 2.089
      }
    },
    {
      "id": "59438",
      "cp": "",
      "ville": "Ostuni",
      "adresse": "Per Villanova Snc 72017",
      "brand": "Menga Petroli",
      "lat": 40.733570680870606,
      "lng": 17.570713423567177,
      "fuels": {
        "sp95": 1.919,
        "gazole": 2.089
      }
    },
    {
      "id": "54982",
      "cp": "",
      "ville": "Ostuni",
      "adresse": "s.s. 16 km. 879 + 513 s.n. 72017",
      "brand": "Agip Eni",
      "lat": 40.73310098762676,
      "lng": 17.56745176123048,
      "fuels": {
        "sp95": 1.949,
        "gazole": 2.059
      }
    },
    {
      "id": "45259",
      "cp": "",
      "ville": "Ostuni",
      "adresse": "s.s.379 Km 16+200  72015",
      "brand": "q8",
      "lat": 40.791710234489265,
      "lng": 17.56403131534421,
      "fuels": {
        "sp95": 1.959,
        "gazole": 2.079,
        "gplc": 0.679
      }
    },
    {
      "id": "61943",
      "cp": "",
      "ville": "Ostuni",
      "adresse": "sp22 Snc 72017",
      "brand": "Pompe Bianche",
      "lat": 40.68333914562432,
      "lng": 17.547558804893484,
      "fuels": {
        "sp95": 1.859,
        "gazole": 2.014
      }
    },
    {
      "id": "35502",
      "cp": "",
      "ville": "Ostuni",
      "adresse": "Ss 379 Km 33+620-loc.villanova\t Snc 72017",
      "brand": "Api-Ip",
      "lat": 40.77733824235829,
      "lng": 17.605171725153923,
      "fuels": {
        "sp95": 1.929,
        "gazole": 2.039
      }
    },
    {
      "id": "51780",
      "cp": "",
      "ville": "Ostuni",
      "adresse": "Via Giovanni Xxiii s.n. 72017",
      "brand": "Agip Eni",
      "lat": 40.721268300708786,
      "lng": 17.57721573114395,
      "fuels": {
        "sp95": 1.949,
        "gazole": 2.059
      }
    },
    {
      "id": "48574",
      "cp": "",
      "ville": "Ostuni",
      "adresse": "Via Peppino Orlando 14 72017",
      "brand": "Mf Carburanti",
      "lat": 40.73409051817223,
      "lng": 17.576131079818037,
      "fuels": {
        "sp95": 1.945,
        "gazole": 2.055
      }
    },
    {
      "id": "22783",
      "cp": "",
      "ville": "Ostuni",
      "adresse": "Via Ss 379 km. 19.500  72017",
      "brand": "Esso",
      "lat": 40.77929518974384,
      "lng": 17.598654627799988,
      "fuels": {
        "sp95": 1.919,
        "gazole": 2.049
      }
    },
    {
      "id": "7734",
      "cp": "",
      "ville": "Ostuni",
      "adresse": "Via ss. 379 km.14+930- Rosa Marina -72017, Ostuni (br) Snc 72017",
      "brand": "Api-Ip",
      "lat": 40.79486462936511,
      "lng": 17.549087405204773,
      "fuels": {
        "sp95": 1.936,
        "gazole": 2.046
      }
    },
    {
      "id": "49761",
      "cp": "",
      "ville": "Ostuni",
      "adresse": "Viale Pola Snc 72017",
      "brand": "Api-Ip",
      "lat": 40.72828743234156,
      "lng": 17.573200845886475,
      "fuels": {
        "sp95": 1.949,
        "gazole": 2.069
      }
    },
    {
      "id": "38280",
      "cp": "",
      "ville": "San Donaci",
      "adresse": "Via Cellino San Marco 0 72025",
      "brand": "Api-Ip",
      "lat": 40.449083936773164,
      "lng": 17.925131767988205,
      "fuels": {
        "sp95": 1.929,
        "gazole": 2.039
      }
    },
    {
      "id": "58999",
      "cp": "",
      "ville": "San Donaci",
      "adresse": "Via Per Mesagne 1 72025",
      "brand": "Toil",
      "lat": 40.45421081776598,
      "lng": 17.91625902056694,
      "fuels": {
        "sp95": 1.929,
        "gazole": 2.035
      }
    },
    {
      "id": "52465",
      "cp": "",
      "ville": "San Donaci",
      "adresse": "Via Tuturano 22 72025",
      "brand": "Api-Ip",
      "lat": 40.455269227572096,
      "lng": 17.921816356965522,
      "fuels": {
        "sp95": 1.929,
        "gazole": 2.039,
        "gplc": 0.735
      }
    },
    {
      "id": "52466",
      "cp": "",
      "ville": "San Donaci",
      "adresse": "Via Tuturano 22 72025",
      "brand": "Api-Ip",
      "lat": 40.455269227572096,
      "lng": 17.921816356965522,
      "fuels": {
        "sp95": 2.009,
        "gazole": 2.059
      }
    },
    {
      "id": "17116",
      "cp": "",
      "ville": "San Michele Salentino",
      "adresse": "Via Per Ceglie-c.da San Michele  72018",
      "brand": "Menga Petroli",
      "lat": 40.63938499363395,
      "lng": 17.632361948490143,
      "fuels": {
        "sp95": 1.889,
        "gazole": 2.069,
        "gplc": 0.729
      }
    },
    {
      "id": "26886",
      "cp": "",
      "ville": "San Michele Salentino",
      "adresse": "Via Per Francavilla  Sn 72018",
      "brand": "Api-Ip",
      "lat": 40.62209634167975,
      "lng": 17.634944915771484,
      "fuels": {
        "sp95": 1.959,
        "gazole": 2.089
      }
    },
    {
      "id": "49317",
      "cp": "",
      "ville": "San Pancrazio Salentino",
      "adresse": "sp74 s.pancrazio-mesagnekm1.15 Snc 72026",
      "brand": "Menga Petroli",
      "lat": 40.431297833380455,
      "lng": 17.839744906745864,
      "fuels": {
        "sp95": 1.919,
        "gazole": 2.089,
        "e85": 1.649,
        "gplc": 0.729
      }
    },
    {
      "id": "52337",
      "cp": "",
      "ville": "San Pancrazio Salentino",
      "adresse": "Via Dei Garofani Snc 72026",
      "brand": "Menga Petroli",
      "lat": 40.41017508459243,
      "lng": 17.83560302331354,
      "fuels": {
        "sp95": 1.919,
        "gazole": 2.089,
        "gplc": 0.729
      }
    },
    {
      "id": "16818",
      "cp": "",
      "ville": "San Pancrazio Salentino",
      "adresse": "Via Lecce 10",
      "brand": "Agip Eni",
      "lat": 40.416438380476976,
      "lng": 17.845419198274612,
      "fuels": {
        "sp95": 1.949,
        "gazole": 2.059
      }
    },
    {
      "id": "59335",
      "cp": "",
      "ville": "San Pancrazio Salentino",
      "adresse": "Via s. Donaci 188 72026",
      "brand": "Toil",
      "lat": 40.42139794166098,
      "lng": 17.849459641452043,
      "fuels": {
        "sp95": 1.949,
        "gazole": 2.029
      }
    },
    {
      "id": "8404",
      "cp": "",
      "ville": "San Pancrazio Salentino",
      "adresse": "Via Taranto 54 72026",
      "brand": "Agip Eni",
      "lat": 40.41808266419241,
      "lng": 17.830923199653625,
      "fuels": {
        "sp95": 1.949,
        "gazole": 2.059
      }
    },
    {
      "id": "42243",
      "cp": "",
      "ville": "San Pietro Vernotico",
      "adresse": "16 adriatica, km. 931/800, Brindisi - 72027",
      "brand": "Agip Eni",
      "lat": 40.499253932934444,
      "lng": 17.99364982209022,
      "fuels": {
        "sp95": 1.904,
        "gazole": 1.999
      }
    },
    {
      "id": "26134",
      "cp": "",
      "ville": "San Pietro Vernotico",
      "adresse": "16 adriatica, km. 935, Lecce - 72027",
      "brand": "Pompe Bianche",
      "lat": 40.47146552548396,
      "lng": 18.012489377267116,
      "fuels": {
        "sp95": 1.919,
        "gazole": 2.019,
        "gplc": 0.699
      }
    },
    {
      "id": "39054",
      "cp": "",
      "ville": "San Pietro Vernotico",
      "adresse": "Brindisi Snc 72027",
      "brand": "Tamoil",
      "lat": 40.49754291082498,
      "lng": 17.99444206058979,
      "fuels": {
        "sp95": 1.949,
        "gazole": 2.059
      }
    },
    {
      "id": "50947",
      "cp": "",
      "ville": "San Pietro Vernotico",
      "adresse": "s.p. 84  km.2,00 72027",
      "brand": "Esso",
      "lat": 40.48750623197382,
      "lng": 18.022956363570778,
      "fuels": {
        "sp95": 1.919,
        "gazole": 2.029,
        "gplc": 0.759
      }
    },
    {
      "id": "43081",
      "cp": "",
      "ville": "San Pietro Vernotico",
      "adresse": "s.s. 16 Km 932+248 s.n.c. 72027",
      "brand": "Energas",
      "lat": 40.49355413494659,
      "lng": 17.989902450861337,
      "fuels": {
        "sp95": 1.849,
        "gazole": 1.959
      }
    },
    {
      "id": "12308",
      "cp": "",
      "ville": "San Pietro Vernotico",
      "adresse": "Strada prov.le San Pietro Vern Sn 72027",
      "brand": "Camer",
      "lat": 40.50013390712871,
      "lng": 18.004710754028338,
      "fuels": {
        "sp95": 1.914,
        "gazole": 2.096
      }
    },
    {
      "id": "7498",
      "cp": "",
      "ville": "San Pietro Vernotico",
      "adresse": "Via Brindisi 246 72027",
      "brand": "q8",
      "lat": 40.49515449715354,
      "lng": 17.995165944180258,
      "fuels": {
        "sp95": 1.889,
        "gazole": 2.029
      }
    },
    {
      "id": "51077",
      "cp": "",
      "ville": "San Vito Dei Normanni",
      "adresse": "16 adriatica, km. 895+399, Brindisi  72019",
      "brand": "Agip Eni",
      "lat": 40.65785647243643,
      "lng": 17.712904394643143,
      "fuels": {
        "sp95": 1.949,
        "gazole": 2.059
      }
    },
    {
      "id": "55234",
      "cp": "",
      "ville": "San Vito Dei Normanni",
      "adresse": "Del Mare s.p Per Serranova Sn 72019",
      "brand": "q8",
      "lat": 40.6614909324735,
      "lng": 17.7207871306012,
      "fuels": {
        "sp95": 1.899,
        "gazole": 2.019
      }
    },
    {
      "id": "38936",
      "cp": "",
      "ville": "San Vito Dei Normanni",
      "adresse": "Statale 16 adriatica, km. 824+400, dir. Nord - 72019",
      "brand": "Esso",
      "lat": 40.66176695459489,
      "lng": 17.703315764665604,
      "fuels": {
        "sp95": 1.929,
        "gazole": 2.079
      }
    },
    {
      "id": "38987",
      "cp": "",
      "ville": "San Vito Dei Normanni",
      "adresse": "Statale 16 adriatica, km. 894+691, dir. Nord - 72019",
      "brand": "Agip Eni",
      "lat": 40.65977124670698,
      "lng": 17.70519834011793,
      "fuels": {
        "sp95": 1.949,
        "gazole": 2.059
      }
    },
    {
      "id": "38938",
      "cp": "",
      "ville": "San Vito Dei Normanni",
      "adresse": "Strada Provinciale s. Vito -Specchiolla Snc 72019",
      "brand": "Pompe Bianche",
      "lat": 40.67567024484573,
      "lng": 17.71117463707924,
      "fuels": {
        "sp95": 1.999,
        "gazole": 2.119,
        "gplc": 0.749
      }
    },
    {
      "id": "41256",
      "cp": "",
      "ville": "San Vito Dei Normanni",
      "adresse": "Via Mesagne  72019",
      "brand": "Menga Petroli",
      "lat": 40.65237155117359,
      "lng": 17.71166354417801,
      "fuels": {
        "sp95": 1.919,
        "gazole": 2.069
      }
    },
    {
      "id": "14045",
      "cp": "",
      "ville": "San Vito Dei Normanni",
      "adresse": "Via s.p. 48  Francavila Fontana  Km 15,150 Snc 72019, San Vito Dei Normanni (br)  72019",
      "brand": "Pompe Bianche",
      "lat": 40.63798141943399,
      "lng": 17.689729034900665,
      "fuels": {
        "sp95": 1.929,
        "gazole": 2.039,
        "e85": 1.599
      }
    },
    {
      "id": "55206",
      "cp": "",
      "ville": "San Vito Dei Normanni",
      "adresse": "Viale Germania 0 72019, San Vito Dei Normanni (br) Snc 72019",
      "brand": "Pompe Bianche",
      "lat": 40.668943155818816,
      "lng": 17.69851326942444,
      "fuels": {
        "sp95": 1.929,
        "gazole": 2.039,
        "gplc": 0.779
      }
    },
    {
      "id": "33353",
      "cp": "",
      "ville": "Torchiarolo",
      "adresse": "Contrada Case Bianche  72020",
      "brand": "Api-Ip",
      "lat": 40.51931461998139,
      "lng": 18.079492896795273,
      "fuels": {
        "sp95": 1.919,
        "gazole": 2.129
      }
    },
    {
      "id": "57550",
      "cp": "",
      "ville": "Torchiarolo",
      "adresse": "Ss 613 Km 16  72020",
      "brand": "q8",
      "lat": 40.49086603346533,
      "lng": 18.0385060608387,
      "fuels": {
        "sp95": 1.889,
        "gazole": 1.999
      }
    },
    {
      "id": "17382",
      "cp": "",
      "ville": "Torchiarolo",
      "adresse": "Via Bindisi 127 72020",
      "brand": "Tamoil",
      "lat": 40.48667577432373,
      "lng": 18.04527461528778,
      "fuels": {
        "sp95": 1.959,
        "gazole": 2.079
      }
    },
    {
      "id": "58007",
      "cp": "",
      "ville": "Torre Santa Susanna",
      "adresse": "Latiano Km 30+269 Snc 72028",
      "brand": "Menga Petroli",
      "lat": 40.4785003,
      "lng": 17.7403999,
      "fuels": {
        "sp95": 1.919,
        "gazole": 2.089
      }
    },
    {
      "id": "47119",
      "cp": "",
      "ville": "Torre Santa Susanna",
      "adresse": "Via Erchie  72020",
      "brand": "Fuelpp",
      "lat": 40.45828771419981,
      "lng": 17.73582011461258,
      "fuels": {
        "sp95": 1.909,
        "gazole": 2.069
      }
    },
    {
      "id": "26409",
      "cp": "",
      "ville": "Torre Santa Susanna",
      "adresse": "Via Mesagne  Km 0,500  72028",
      "brand": "Pompe Bianche",
      "lat": 40.47165548822759,
      "lng": 17.74489939212799,
      "fuels": {
        "sp95": 1.999,
        "gazole": 2.099
      }
    },
    {
      "id": "6758",
      "cp": "",
      "ville": "Torre Santa Susanna",
      "adresse": "Via prov. s. Pancrazio Snc 72028",
      "brand": "q8",
      "lat": 40.463915475624106,
      "lng": 17.746176373016397,
      "fuels": {
        "sp95": 1.899,
        "gazole": 2.029
      }
    },
    {
      "id": "16477",
      "cp": "",
      "ville": "Torre Santa Susanna",
      "adresse": "Via prov.le Per Oria km. 0,500 null, 72028",
      "brand": "Agip Eni",
      "lat": 40.46588245779149,
      "lng": 17.728639841079712,
      "fuels": {
        "sp95": 1.879,
        "gazole": 2.069,
        "e85": 1.24,
        "gplc": 0.689
      }
    },
    {
      "id": "48776",
      "cp": "",
      "ville": "Villa Castelli",
      "adresse": "7 Via appia, km. 671+400, Brindisi-Taranto - 72029",
      "brand": "Menga Petroli",
      "lat": 40.534507836682195,
      "lng": 17.476818683189382,
      "fuels": {
        "sp95": 1.919,
        "gazole": 2.089
      }
    },
    {
      "id": "49318",
      "cp": "",
      "ville": "Villa Castelli",
      "adresse": "7 Via appia, km. km. 677+800, Brindisi - 72029",
      "brand": "Menga Petroli",
      "lat": 40.53391957707238,
      "lng": 17.478340371163995,
      "fuels": {
        "sp95": 1.919,
        "gazole": 2.089,
        "gplc": 0.729
      }
    },
    {
      "id": "32585",
      "cp": "",
      "ville": "Villa Castelli",
      "adresse": "prov.le Per Ceglie 102 72029",
      "brand": "Pompe Bianche",
      "lat": 40.59287834241414,
      "lng": 17.480516731739044,
      "fuels": {
        "sp95": 1.899,
        "gazole": 2.099
      }
    },
    {
      "id": "51323",
      "cp": "",
      "ville": "Villa Castelli",
      "adresse": "s.p. Per Grottaglie Snc  72029",
      "brand": "Menga Petroli",
      "lat": 40.574109022503194,
      "lng": 17.474040746032713,
      "fuels": {
        "sp95": 1.919,
        "gazole": 2.089
      }
    },
    {
      "id": "48972",
      "cp": "",
      "ville": "Villa Castelli",
      "adresse": "Via Per Francavilla Snc 72029",
      "brand": "Pompe Bianche",
      "lat": 40.572579626408405,
      "lng": 17.479443703621445,
      "fuels": {
        "sp95": 1.869,
        "gazole": 1.989
      }
    }
  ]
}