{
  "code": "CA",
  "name": "Cagliari",
  "regionCode": "SAR",
  "regionName": "Sardegna",
  "asOf": "2026-06-10T08:43:45.725Z",
  "source": "https://www.mimit.gov.it/it/open-data/elenco-dataset/2032336-dataset-prezzi-carburanti",
  "stationCount": 135,
  "fuels": {
    "gazole": {
      "count": 133,
      "mean": 2.0198,
      "median": 2.029,
      "min": 1.939,
      "max": 2.13
    },
    "sp95": {
      "count": 133,
      "mean": 1.8971,
      "median": 1.889,
      "min": 1.829,
      "max": 2.059
    },
    "gplc": {
      "count": 12,
      "mean": 0.8262,
      "median": 0.836,
      "min": 0.742,
      "max": 0.93
    }
  },
  "stations": [
    {
      "id": "63193",
      "cp": "",
      "ville": "Assemini",
      "adresse": "Roberto Cattaneo 49 09016",
      "brand": "Esso",
      "lat": 39.31796432131751,
      "lng": 8.533671975332329,
      "fuels": {
        "sp95": 1.919,
        "gazole": 2.13
      }
    },
    {
      "id": "59768",
      "cp": "",
      "ville": "Assemini",
      "adresse": "s.s. 130/131 Elmas Sestu",
      "brand": "Agip Eni",
      "lat": 39.275063,
      "lng": 9.067662,
      "fuels": {
        "sp95": 1.874,
        "gazole": 2.024,
        "gplc": 0.742
      }
    },
    {
      "id": "54987",
      "cp": "",
      "ville": "Assemini",
      "adresse": "Segariu 140 09040",
      "brand": "Esso",
      "lat": 39.5674451,
      "lng": 9.0465172,
      "fuels": {
        "sp95": 1.919,
        "gazole": 2.049
      }
    },
    {
      "id": "40636",
      "cp": "",
      "ville": "Assemini",
      "adresse": "Via Carmine  09032",
      "brand": "q8",
      "lat": 39.28376037810809,
      "lng": 9.011115123313516,
      "fuels": {
        "sp95": 1.919,
        "gazole": 2.049
      }
    },
    {
      "id": "37922",
      "cp": "",
      "ville": "Assemini",
      "adresse": "Via Carmine 233 09032",
      "brand": "Esso",
      "lat": 39.27940400210246,
      "lng": 9.021947912303176,
      "fuels": {
        "sp95": 1.919,
        "gazole": 2.049
      }
    },
    {
      "id": "44687",
      "cp": "",
      "ville": "Assemini",
      "adresse": "Via Ignazio Coghe  111 09032",
      "brand": "Api-Ip",
      "lat": 39.28302812809059,
      "lng": 9.000420570373535,
      "fuels": {
        "sp95": 1.939,
        "gazole": 2.049
      }
    },
    {
      "id": "27922",
      "cp": "",
      "ville": "Assemini",
      "adresse": "Via Piave 81 09032",
      "brand": "Tamoil",
      "lat": 39.29691464349141,
      "lng": 9.000973775982857,
      "fuels": {
        "sp95": 1.899,
        "gazole": 2.049
      }
    },
    {
      "id": "63071",
      "cp": "",
      "ville": "Assemini",
      "adresse": "Vittorio Veneto Snc 09016",
      "brand": "Esso",
      "lat": 39.309565228132094,
      "lng": 8.535147755878679,
      "fuels": {
        "sp95": 1.859,
        "gazole": 2.02
      }
    },
    {
      "id": "15039",
      "cp": "",
      "ville": "Cagliari",
      "adresse": "125 km. 56,919 Snc 09043",
      "brand": "Tamoil",
      "lat": 39.37152712180115,
      "lng": 9.587198719382286,
      "fuels": {
        "sp95": 1.939,
        "gazole": 2.049
      }
    },
    {
      "id": "52673",
      "cp": "",
      "ville": "Cagliari",
      "adresse": "Baldassarre Castiglione Snc 09131",
      "brand": "Agip Eni",
      "lat": 39.23286,
      "lng": 9.13168,
      "fuels": {
        "sp95": 1.889,
        "gazole": 2.04
      }
    },
    {
      "id": "6691",
      "cp": "",
      "ville": "Cagliari",
      "adresse": "Cadello Snc 09100",
      "brand": "q8",
      "lat": 39.23948584789863,
      "lng": 9.118173517196624,
      "fuels": {
        "sp95": 1.877,
        "gazole": 1.977
      }
    },
    {
      "id": "49375",
      "cp": "",
      "ville": "Cagliari",
      "adresse": "circ. Di Pirri ang, Via s.m. Chiara Snc 09134",
      "brand": "Agip Eni",
      "lat": 39.24059632129545,
      "lng": 9.119194149971008,
      "fuels": {
        "sp95": 1.889,
        "gazole": 2.039
      }
    },
    {
      "id": "54398",
      "cp": "",
      "ville": "Cagliari",
      "adresse": "Circonvallazione Di Pirri  09131",
      "brand": "Esso",
      "lat": 39.247570873608005,
      "lng": 9.119200261816397,
      "fuels": {
        "sp95": 1.879,
        "gazole": 1.98
      }
    },
    {
      "id": "19187",
      "cp": "",
      "ville": "Cagliari",
      "adresse": "Colombo Cristoforo Snc 09125",
      "brand": "Agip Eni",
      "lat": 39.20265095254905,
      "lng": 9.129546135663986,
      "fuels": {
        "sp95": 1.949,
        "gazole": 2.04,
        "gplc": 0.822
      }
    },
    {
      "id": "17110",
      "cp": "",
      "ville": "Cagliari",
      "adresse": "Deffenu  09125",
      "brand": "Agip Eni",
      "lat": 39.21159618086825,
      "lng": 9.11600835621357,
      "fuels": {
        "sp95": 1.899,
        "gazole": 2.04
      }
    },
    {
      "id": "56788",
      "cp": "",
      "ville": "Cagliari",
      "adresse": "Della Pineta 114 09126",
      "brand": "Agip Eni",
      "lat": 39.2081266747863,
      "lng": 9.133721221620945,
      "fuels": {
        "sp95": 1.909,
        "gazole": 2.04
      }
    },
    {
      "id": "59759",
      "cp": "",
      "ville": "Cagliari",
      "adresse": "Della Pineta ang. Viale Diaz Sn 09125",
      "brand": "Tamoil",
      "lat": 39.205097,
      "lng": 9.137261,
      "fuels": {
        "sp95": 1.899,
        "gazole": 1.999
      }
    },
    {
      "id": "60789",
      "cp": "",
      "ville": "Cagliari",
      "adresse": "Francesco De Esquivel 15 09121",
      "brand": "Agip Eni",
      "lat": 39.23572820699284,
      "lng": 9.11280222772984,
      "fuels": {
        "sp95": 1.879,
        "gazole": 2.029
      }
    },
    {
      "id": "49563",
      "cp": "",
      "ville": "Cagliari",
      "adresse": "fraz. Pirri - Via r. Villasanta  09134",
      "brand": "q8",
      "lat": 39.24123993457759,
      "lng": 9.125964846590414,
      "fuels": {
        "sp95": 1.879,
        "gazole": 1.979
      }
    },
    {
      "id": "30626",
      "cp": "",
      "ville": "Cagliari",
      "adresse": "Is Maglias Sn 09122",
      "brand": "Tamoil",
      "lat": 39.23293896198873,
      "lng": 9.102930575609207,
      "fuels": {
        "sp95": 1.879,
        "gazole": 1.979
      }
    },
    {
      "id": "30821",
      "cp": "",
      "ville": "Cagliari",
      "adresse": "Marconi 23 09131",
      "brand": "Tamoil",
      "lat": 39.22841564664676,
      "lng": 9.132053330540657,
      "fuels": {
        "sp95": 1.879,
        "gazole": 1.979
      }
    },
    {
      "id": "47468",
      "cp": "",
      "ville": "Cagliari",
      "adresse": "Piazza Santa Maria Chiara Snc 09134",
      "brand": "Api-Ip",
      "lat": 39.24451005175765,
      "lng": 9.1243073984695,
      "fuels": {
        "sp95": 1.879,
        "gazole": 1.979
      }
    },
    {
      "id": "59259",
      "cp": "",
      "ville": "Cagliari",
      "adresse": "Po Angolo Via Adige Snc 09122",
      "brand": "Isola Gas",
      "lat": 39.23250290479325,
      "lng": 9.095383930059414,
      "fuels": {
        "sp95": 1.929,
        "gazole": 2.027
      }
    },
    {
      "id": "63070",
      "cp": "",
      "ville": "Cagliari",
      "adresse": "Repubblica Snc 09128",
      "brand": "Esso",
      "lat": 39.21701063597388,
      "lng": 9.125544780013376,
      "fuels": {
        "sp95": 1.879,
        "gazole": 2
      }
    },
    {
      "id": "38065",
      "cp": "",
      "ville": "Cagliari",
      "adresse": "Sa Illetta- s.s. 195 km. 5,357 Snc 09123",
      "brand": "Agip Eni",
      "lat": 39.224861369419095,
      "lng": 9.063801169395447,
      "fuels": {
        "sp95": 1.889,
        "gazole": 2.039,
        "gplc": 0.769
      }
    },
    {
      "id": "54397",
      "cp": "",
      "ville": "Cagliari",
      "adresse": "Sant Avendrace Sn 09122",
      "brand": "Agip Eni",
      "lat": 39.234152050168575,
      "lng": 9.097462892532349,
      "fuels": {
        "sp95": 1.884,
        "gazole": 2.035
      }
    },
    {
      "id": "52371",
      "cp": "",
      "ville": "Cagliari",
      "adresse": "Saverio Belgrano Snc 09131",
      "brand": "Tamoil",
      "lat": 39.23142438642247,
      "lng": 9.122870469298958,
      "fuels": {
        "sp95": 1.879,
        "gazole": 1.979
      }
    },
    {
      "id": "54948",
      "cp": "",
      "ville": "Cagliari",
      "adresse": "Ss 125 Km 41+700 Sn",
      "brand": "Agip Eni",
      "lat": 39.388135,
      "lng": 9.539094,
      "fuels": {
        "sp95": 1.909,
        "gazole": 2.04,
        "gplc": 0.792
      }
    },
    {
      "id": "54346",
      "cp": "",
      "ville": "Cagliari",
      "adresse": "ss131dir",
      "brand": "Agip Eni",
      "lat": 39.252895,
      "lng": 9.113575,
      "fuels": {
        "sp95": 1.874,
        "gazole": 2.024
      }
    },
    {
      "id": "57375",
      "cp": "",
      "ville": "Cagliari",
      "adresse": "Trieste Sn 09123",
      "brand": "Tamoil",
      "lat": 39.22455,
      "lng": 9.101278,
      "fuels": {
        "sp95": 1.919,
        "gazole": 2.049
      }
    },
    {
      "id": "6694",
      "cp": "",
      "ville": "Cagliari",
      "adresse": "v.le Monastir Snc 09100",
      "brand": "q8",
      "lat": 39.241971244023844,
      "lng": 9.097078510450729,
      "fuels": {
        "sp95": 1.877,
        "gazole": 1.977
      }
    },
    {
      "id": "39831",
      "cp": "",
      "ville": "Cagliari",
      "adresse": "Via Bacaredda 89 09127",
      "brand": "Agip Eni",
      "lat": 39.22630012539152,
      "lng": 9.120564758777618,
      "fuels": {
        "sp95": 1.884,
        "gazole": 2.035
      }
    },
    {
      "id": "57902",
      "cp": "",
      "ville": "Cagliari",
      "adresse": "Via Berlino Snc 09129",
      "brand": "Esso",
      "lat": 39.22364328751556,
      "lng": 9.136286114979288,
      "fuels": {
        "sp95": 1.879,
        "gazole": 2.049
      }
    },
    {
      "id": "34174",
      "cp": "",
      "ville": "Cagliari",
      "adresse": "Via Campania Angolo Via Is Mirrionis  09121",
      "brand": "Agip Eni",
      "lat": 39.23363515326566,
      "lng": 9.11140602082014,
      "fuels": {
        "sp95": 1.889,
        "gazole": 2.029
      }
    },
    {
      "id": "36449",
      "cp": "",
      "ville": "Cagliari",
      "adresse": "Via Circonvallazione Pirri Km 1+10  09134",
      "brand": "Api-Ip",
      "lat": 39.24387182829938,
      "lng": 9.11752849817276,
      "fuels": {
        "sp95": 1.877,
        "gazole": 1.977,
        "gplc": 0.769
      }
    },
    {
      "id": "32159",
      "cp": "",
      "ville": "Cagliari",
      "adresse": "Via Ciusa Francesco 129 09131",
      "brand": "Esso",
      "lat": 39.237047267203316,
      "lng": 9.124923348426819,
      "fuels": {
        "sp95": 1.879,
        "gazole": 1.979
      }
    },
    {
      "id": "57470",
      "cp": "",
      "ville": "Cagliari",
      "adresse": "Via Giovanni Battista Tuveri Ang Via Carboni Boi Snc 09129",
      "brand": "Pompe Bianche",
      "lat": 39.21749474703998,
      "lng": 9.127080693917828,
      "fuels": {
        "sp95": 1.879,
        "gazole": 1.939
      }
    },
    {
      "id": "46490",
      "cp": "",
      "ville": "Cagliari",
      "adresse": "Via Italia  188 09134",
      "brand": "Agip Eni",
      "lat": 39.2512565300387,
      "lng": 9.133989214897156,
      "fuels": {
        "sp95": 1.889,
        "gazole": 2.039
      }
    },
    {
      "id": "62388",
      "cp": "",
      "ville": "Cagliari",
      "adresse": "Via Livorno  09126",
      "brand": "Agip Eni",
      "lat": 39.206835779548335,
      "lng": 9.133159819539243,
      "fuels": {
        "sp95": 1.869,
        "gazole": 1.985
      }
    },
    {
      "id": "12409",
      "cp": "",
      "ville": "Cagliari",
      "adresse": "Via Marconi 224",
      "brand": "Api-Ip",
      "lat": 39.23775858818651,
      "lng": 9.14338231086731,
      "fuels": {
        "sp95": 1.879,
        "gazole": 1.979
      }
    },
    {
      "id": "31010",
      "cp": "",
      "ville": "Cagliari",
      "adresse": "Via Matteotti 226 09036",
      "brand": "Agip Eni",
      "lat": 39.53675612320671,
      "lng": 8.636841773986816,
      "fuels": {
        "sp95": 1.889,
        "gazole": 2.024
      }
    },
    {
      "id": "50807",
      "cp": "",
      "ville": "Cagliari",
      "adresse": "Via Merello  09100",
      "brand": "Esso",
      "lat": 39.22478427262467,
      "lng": 9.110310095574135,
      "fuels": {
        "sp95": 1.879,
        "gazole": 1.979
      }
    },
    {
      "id": "58585",
      "cp": "",
      "ville": "Cagliari",
      "adresse": "Via Ottone Bacaredda 97  09131",
      "brand": "Agip Eni",
      "lat": 39.22826,
      "lng": 9.119947,
      "fuels": {
        "sp95": 1.879,
        "gazole": 2.029
      }
    },
    {
      "id": "14981",
      "cp": "",
      "ville": "Cagliari",
      "adresse": "Via s. Gilla ang. Via Ticino  09122",
      "brand": "Agip Eni",
      "lat": 39.2308571936233,
      "lng": 9.095150903794774,
      "fuels": {
        "sp95": 1.889,
        "gazole": 2.04
      }
    },
    {
      "id": "44957",
      "cp": "",
      "ville": "Cagliari",
      "adresse": "Via Tramontana Snc 09126",
      "brand": "Agip Eni",
      "lat": 39.20306082852139,
      "lng": 9.143757820129395,
      "fuels": {
        "sp95": 1.909,
        "gazole": 2.039
      }
    },
    {
      "id": "61653",
      "cp": "",
      "ville": "Cagliari",
      "adresse": "Viale Buoncammino",
      "brand": "Agip Eni",
      "lat": 39.223917807001754,
      "lng": 9.115343823214062,
      "fuels": {
        "sp95": 1.869,
        "gazole": 1.979
      }
    },
    {
      "id": "45241",
      "cp": "",
      "ville": "Cagliari",
      "adresse": "Viale Diaz Angolo Via Messina Snc 09126",
      "brand": "Api-Ip",
      "lat": 39.20563808717481,
      "lng": 9.130357503890991,
      "fuels": {
        "sp95": 1.889,
        "gazole": 1.989
      }
    },
    {
      "id": "16387",
      "cp": "",
      "ville": "Cagliari",
      "adresse": "Viale Elmas  km. 1, 047  09122",
      "brand": "Agip Eni",
      "lat": 39.24251120690132,
      "lng": 9.090927690267563,
      "fuels": {
        "sp95": 1.889,
        "gazole": 2.04
      }
    },
    {
      "id": "44872",
      "cp": "",
      "ville": "Cagliari",
      "adresse": "Viale La Plaia 2 09123",
      "brand": "Agip Eni",
      "lat": 39.21411076218389,
      "lng": 9.107549729578977,
      "fuels": {
        "sp95": 1.889,
        "gazole": 2.039
      }
    },
    {
      "id": "38649",
      "cp": "",
      "ville": "Cagliari",
      "adresse": "Viale La Plaia Snc 09133",
      "brand": "Esso",
      "lat": 39.21463010862545,
      "lng": 9.103172980248928,
      "fuels": {
        "sp95": 1.896,
        "gazole": 1.996
      }
    },
    {
      "id": "60884",
      "cp": "",
      "ville": "Cagliari",
      "adresse": "Viale Marconi",
      "brand": "Agip Eni",
      "lat": 39.225243,
      "lng": 9.129488,
      "fuels": {
        "sp95": 1.879,
        "gazole": 2.029
      }
    },
    {
      "id": "6692",
      "cp": "",
      "ville": "Cagliari",
      "adresse": "Viale Marconi 170 09100",
      "brand": "q8",
      "lat": 39.23407568015544,
      "lng": 9.137494535581936,
      "fuels": {
        "sp95": 1.877,
        "gazole": 1.977
      }
    },
    {
      "id": "16692",
      "cp": "",
      "ville": "Cagliari",
      "adresse": "Viale Marconi Km 4,700  09131",
      "brand": "Esso",
      "lat": 39.23886378046752,
      "lng": 9.145065397024155,
      "fuels": {
        "sp95": 1.879,
        "gazole": 1.98
      }
    },
    {
      "id": "61688",
      "cp": "",
      "ville": "Cagliari",
      "adresse": "Viale Marconi Km 5,475",
      "brand": "Agip Eni",
      "lat": 39.241474,
      "lng": 9.151177,
      "fuels": {
        "sp95": 1.879,
        "gazole": 2.029
      }
    },
    {
      "id": "59732",
      "cp": "",
      "ville": "Cagliari",
      "adresse": "Viale Monastir",
      "brand": "Agip Eni",
      "lat": 39.241352,
      "lng": 9.097052,
      "fuels": {
        "sp95": 1.879,
        "gazole": 2.029
      }
    },
    {
      "id": "58341",
      "cp": "",
      "ville": "Cagliari",
      "adresse": "Viale Monastir  1",
      "brand": "q8",
      "lat": 39.2347906,
      "lng": 9.0972571,
      "fuels": {
        "sp95": 1.877,
        "gazole": 1.977
      }
    },
    {
      "id": "55833",
      "cp": "",
      "ville": "Cagliari",
      "adresse": "Viale Monastir 195/B 09122",
      "brand": "Esso",
      "lat": 39.250884011808395,
      "lng": 9.09443514183351,
      "fuels": {
        "sp95": 1.889,
        "gazole": 1.96
      }
    },
    {
      "id": "62489",
      "cp": "",
      "ville": "Cagliari",
      "adresse": "Viale Monastir 241  09122",
      "brand": "Api-Ip",
      "lat": 39.2587474,
      "lng": 9.0882159,
      "fuels": {
        "sp95": 1.879,
        "gazole": 1.959
      }
    },
    {
      "id": "32297",
      "cp": "",
      "ville": "Cagliari",
      "adresse": "Viale Poetto 112a 09126",
      "brand": "Agip Eni",
      "lat": 39.1972296,
      "lng": 9.1499017,
      "fuels": {
        "sp95": 1.909,
        "gazole": 2.04
      }
    },
    {
      "id": "6689",
      "cp": "",
      "ville": "Cagliari",
      "adresse": "Viale San Vincenzo Snc 09100",
      "brand": "q8",
      "lat": 39.22713129865951,
      "lng": 9.113856613491862,
      "fuels": {
        "sp95": 1.877,
        "gazole": 1.977
      }
    },
    {
      "id": "60651",
      "cp": "",
      "ville": "Cagliari",
      "adresse": "Vittorio Bottego Snc 09125",
      "brand": "Esso",
      "lat": 39.209400027872924,
      "lng": 9.123203039366231,
      "fuels": {
        "sp95": 1.889,
        "gazole": 1.989
      }
    },
    {
      "id": "41858",
      "cp": "",
      "ville": "Capoterra",
      "adresse": "Prolungamento Via Trento Snc 09012",
      "brand": "Isola Gas",
      "lat": 39.17756270862054,
      "lng": 8.982900125547758,
      "fuels": {
        "sp95": 1.919,
        "gazole": 2.049
      }
    },
    {
      "id": "51798",
      "cp": "",
      "ville": "Capoterra",
      "adresse": "str.prov.collegamento s.s. 195 Sn 09012",
      "brand": "Tamoil",
      "lat": 39.169470915197174,
      "lng": 8.986348354536892,
      "fuels": {
        "sp95": 1.919,
        "gazole": 2.039
      }
    },
    {
      "id": "55876",
      "cp": "",
      "ville": "Capoterra",
      "adresse": "Via Cagliari  23/B 09012",
      "brand": "Api-Ip",
      "lat": 39.172658646975314,
      "lng": 8.979045982713307,
      "fuels": {
        "sp95": 1.919,
        "gazole": 2.039
      }
    },
    {
      "id": "53569",
      "cp": "",
      "ville": "Decimomannu",
      "adresse": "Via Nazionale Km 14,00 s.n. 09033",
      "brand": "Esso",
      "lat": 39.30747206565293,
      "lng": 8.969178199768066,
      "fuels": {
        "sp95": 1.899,
        "gazole": 2.05
      }
    },
    {
      "id": "17112",
      "cp": "",
      "ville": "Decimomannu",
      "adresse": "Via Nazionale s.n.c. 09033",
      "brand": "Agip Eni",
      "lat": 39.30496911307737,
      "lng": 8.97320955991745,
      "fuels": {
        "sp95": 1.884,
        "gazole": 2.035
      }
    },
    {
      "id": "51354",
      "cp": "",
      "ville": "Elmas",
      "adresse": "Igola Snc 09030",
      "brand": "Isola Gas",
      "lat": 39.26468829561399,
      "lng": 9.07204329352014,
      "fuels": {
        "sp95": 1.949,
        "gazole": 2.069,
        "gplc": 0.859
      }
    },
    {
      "id": "55986",
      "cp": "",
      "ville": "Elmas",
      "adresse": "s.s. 130 Km 3,400 Sn 09067",
      "brand": "Agip Eni",
      "lat": 39.2582439,
      "lng": 9.0725638,
      "fuels": {
        "sp95": 1.884,
        "gazole": 2.035
      }
    },
    {
      "id": "7340",
      "cp": "",
      "ville": "Elmas",
      "adresse": "Statale 130 iglesiente, km. 8,063, dir. Cagliari - 09132",
      "brand": "Esso",
      "lat": 39.28182397723136,
      "lng": 9.031984806060791,
      "fuels": {
        "sp95": 1.899,
        "gazole": 2.05
      }
    },
    {
      "id": "52492",
      "cp": "",
      "ville": "Elmas",
      "adresse": "Sulcitana Km 6 Ex s.s.130  09030",
      "brand": "q8",
      "lat": 39.26468887364322,
      "lng": 9.0569953619713,
      "fuels": {
        "sp95": 1.919,
        "gazole": 2.049
      }
    },
    {
      "id": "26492",
      "cp": "",
      "ville": "Elmas",
      "adresse": "Via Sulcitana 219 09030",
      "brand": "Esso",
      "lat": 39.271573084679716,
      "lng": 9.040373185427143,
      "fuels": {
        "sp95": 1.899,
        "gazole": 2.05
      }
    },
    {
      "id": "29108",
      "cp": "",
      "ville": "Maracalagonis",
      "adresse": "Strada Provinciale Per Sinnai Snc 09069",
      "brand": "Agip Eni",
      "lat": 39.28675866506992,
      "lng": 9.220711159494044,
      "fuels": {
        "sp95": 1.894,
        "gazole": 1.98
      }
    },
    {
      "id": "6688",
      "cp": "",
      "ville": "Maracalagonis",
      "adresse": "Via Nazionale 120 09040",
      "brand": "q8",
      "lat": 39.283299349801744,
      "lng": 9.228530515344232,
      "fuels": {
        "sp95": 1.859,
        "gazole": 1.979
      }
    },
    {
      "id": "48215",
      "cp": "",
      "ville": "Monserrato",
      "adresse": "fraz. Monserra - Via g. Cesare  09042",
      "brand": "Esso",
      "lat": 39.25331844549436,
      "lng": 9.136482566574673,
      "fuels": {
        "sp95": 1.899,
        "gazole": 1.999
      }
    },
    {
      "id": "60670",
      "cp": "",
      "ville": "Monserrato",
      "adresse": "Fulgenzio Snc 09042",
      "brand": "Esso",
      "lat": 39.262962,
      "lng": 9.13019,
      "fuels": {
        "sp95": 1.879,
        "gazole": 1.98
      }
    },
    {
      "id": "33752",
      "cp": "",
      "ville": "Monserrato",
      "adresse": "Statale 387 Del gerrei, km. 6,300, dir. Dolianova - 09042",
      "brand": "Agip Eni",
      "lat": 39.27156709474115,
      "lng": 9.137223958969116,
      "fuels": {
        "sp95": 1.904,
        "gazole": 2.035
      }
    },
    {
      "id": "39514",
      "cp": "",
      "ville": "Monserrato",
      "adresse": "Statale 554 cagliaritana, km. 5,550, dir. Cagliari - 09133",
      "brand": "Agip Eni",
      "lat": 39.26623562200151,
      "lng": 9.133602976799011,
      "fuels": {
        "sp95": 1.889,
        "gazole": 2.039
      }
    },
    {
      "id": "46466",
      "cp": "",
      "ville": "Pula",
      "adresse": "195 km. 32,850 Sn 09010",
      "brand": "Tamoil",
      "lat": 38.979712351725226,
      "lng": 8.980024777830977,
      "fuels": {
        "sp95": 1.919,
        "gazole": 2.019
      }
    },
    {
      "id": "49154",
      "cp": "",
      "ville": "Pula",
      "adresse": "195 sulcitana, km. 29, Cagliari  09050",
      "brand": "Agip Eni",
      "lat": 39.008867618413376,
      "lng": 8.995868906745955,
      "fuels": {
        "sp95": 1.904,
        "gazole": 2.035
      }
    },
    {
      "id": "35252",
      "cp": "",
      "ville": "Pula",
      "adresse": "Statale 195 sulcitana, km. 34,300, dir. Cagliari - 09010",
      "brand": "Agip Eni",
      "lat": 38.9692691219845,
      "lng": 8.9704180508852,
      "fuels": {
        "sp95": 1.904,
        "gazole": 2.035
      }
    },
    {
      "id": "55237",
      "cp": "",
      "ville": "Pula",
      "adresse": "Strada Ss 195 km.30+987 s.n. 09010, Pula (ca) Sn 09010",
      "brand": "Agip Eni",
      "lat": 38.99373089023428,
      "lng": 8.992648652803837,
      "fuels": {
        "sp95": 1.904,
        "gazole": 2.039
      }
    },
    {
      "id": "62374",
      "cp": "",
      "ville": "Pula",
      "adresse": "Via Alfonso Lamarmora Snc 09010",
      "brand": "Api-Ip",
      "lat": 39.00555,
      "lng": 9.00084,
      "fuels": {
        "sp95": 1.947,
        "gazole": 2.057
      }
    },
    {
      "id": "61507",
      "cp": "",
      "ville": "Quartu Sant'Elena",
      "adresse": "Capitana Sn 09045",
      "brand": "Tamoil",
      "lat": 39.206087,
      "lng": 9.317337,
      "fuels": {
        "sp95": 1.869,
        "gazole": 1.979
      }
    },
    {
      "id": "57092",
      "cp": "",
      "ville": "Quartu Sant'Elena",
      "adresse": "Giotto Angolo Via Messina Snc 09045",
      "brand": "Isola Gas",
      "lat": 39.24820580993217,
      "lng": 9.183944046627039,
      "fuels": {
        "sp95": 1.919,
        "gazole": 2.039
      }
    },
    {
      "id": "20588",
      "cp": "",
      "ville": "Quartu Sant'Elena",
      "adresse": "Leonardo Da Vinci 2- A 09045",
      "brand": "Agip Eni",
      "lat": 39.23003879814264,
      "lng": 9.222993799336223,
      "fuels": {
        "sp95": 1.894,
        "gazole": 2.039
      }
    },
    {
      "id": "30622",
      "cp": "",
      "ville": "Quartu Sant'Elena",
      "adresse": "Leonardo Da Vinci Km 5,970 Sn 09045",
      "brand": "Tamoil",
      "lat": 39.22085345860099,
      "lng": 9.258191585540771,
      "fuels": {
        "sp95": 1.879,
        "gazole": 1.989
      }
    },
    {
      "id": "4979",
      "cp": "",
      "ville": "Quartu Sant'Elena",
      "adresse": "Localita' s. Andrea km. 6,715  09045",
      "brand": "Agip Eni",
      "lat": 39.22018452302387,
      "lng": 9.266891330480576,
      "fuels": {
        "sp95": 1.889,
        "gazole": 2.04
      }
    },
    {
      "id": "41730",
      "cp": "",
      "ville": "Quartu Sant'Elena",
      "adresse": "s.p. Per Villasamius - Loc Foxi  09045",
      "brand": "q8",
      "lat": 39.226578576492386,
      "lng": 9.240429334934156,
      "fuels": {
        "sp95": 1.899,
        "gazole": 1.999,
        "gplc": 0.859
      }
    },
    {
      "id": "39821",
      "cp": "",
      "ville": "Quartu Sant'Elena",
      "adresse": "Statale 125 Orientale sarda, km. 14, dir. Ss 554 - 09045",
      "brand": "Tamoil",
      "lat": 39.261869430381296,
      "lng": 9.235810562968254,
      "fuels": {
        "sp95": 1.919,
        "gazole": 2.019
      }
    },
    {
      "id": "49062",
      "cp": "",
      "ville": "Quartu Sant'Elena",
      "adresse": "v.le Colombo  09045",
      "brand": "Esso",
      "lat": 39.23820651036077,
      "lng": 9.18013075369994,
      "fuels": {
        "sp95": 1.889,
        "gazole": 1.979
      }
    },
    {
      "id": "9547",
      "cp": "",
      "ville": "Quartu Sant'Elena",
      "adresse": "Via Cagliari 7 09045",
      "brand": "Agip Eni",
      "lat": 39.24198934278072,
      "lng": 9.179582046627047,
      "fuels": {
        "sp95": 1.889,
        "gazole": 2.04
      }
    },
    {
      "id": "13242",
      "cp": "",
      "ville": "Quartu Sant'Elena",
      "adresse": "Via Leonardo Da Vinci 151 09045",
      "brand": "Esso",
      "lat": 39.219497927119704,
      "lng": 9.276057875532501,
      "fuels": {
        "sp95": 1.899,
        "gazole": 1.999
      }
    },
    {
      "id": "35944",
      "cp": "",
      "ville": "Quartu Sant'Elena",
      "adresse": "Via Marconi 722 09045",
      "brand": "Pompe Bianche",
      "lat": 39.250362628002414,
      "lng": 9.19988673068849,
      "fuels": {
        "gplc": 0.93
      }
    },
    {
      "id": "48318",
      "cp": "",
      "ville": "Quartu Sant'Elena",
      "adresse": "Via Poetto",
      "brand": "Esso",
      "lat": 39.19562844654476,
      "lng": 9.152912117397273,
      "fuels": {
        "sp95": 1.919,
        "gazole": 1.989
      }
    },
    {
      "id": "53603",
      "cp": "",
      "ville": "Quartu Sant'Elena",
      "adresse": "Viale c. Colombo 364 09045",
      "brand": "Agip Eni",
      "lat": 39.229727,
      "lng": 9.189807,
      "fuels": {
        "sp95": 1.889,
        "gazole": 2.04
      }
    },
    {
      "id": "15582",
      "cp": "",
      "ville": "Quartu Sant'Elena",
      "adresse": "Viale Colombo 189 09045",
      "brand": "Agip Eni",
      "lat": 39.23313715855328,
      "lng": 9.186471998691559,
      "fuels": {
        "sp95": 1.889,
        "gazole": 2.04
      }
    },
    {
      "id": "60296",
      "cp": "",
      "ville": "Quartu Sant'Elena",
      "adresse": "Viale Dell'Autonomia Regionale Sarda 90 09045",
      "brand": "Beyfin",
      "lat": 39.2393742,
      "lng": 9.276430399999999,
      "fuels": {
        "sp95": 1.919,
        "gazole": 2.06,
        "gplc": 0.899
      }
    },
    {
      "id": "18300",
      "cp": "",
      "ville": "Quartu Sant'Elena",
      "adresse": "Viale Marconi Km 9.593  09045",
      "brand": "Agip Eni",
      "lat": 39.24754184311367,
      "lng": 9.195650517940521,
      "fuels": {
        "sp95": 1.894,
        "gazole": 2.04
      }
    },
    {
      "id": "46665",
      "cp": "",
      "ville": "Quartu Sant'Elena",
      "adresse": "Viale Marconi km. 6,900 Snc 09045",
      "brand": "Agip Eni",
      "lat": 39.243197129593376,
      "lng": 9.168455600738525,
      "fuels": {
        "sp95": 1.884,
        "gazole": 2.035
      }
    },
    {
      "id": "9341",
      "cp": "",
      "ville": "Quartu Sant'Elena",
      "adresse": "Viale marconi, km. 7,168  09045",
      "brand": "Esso",
      "lat": 39.24227013529914,
      "lng": 9.171498566865921,
      "fuels": {
        "sp95": 1.879,
        "gazole": 1.979
      }
    },
    {
      "id": "27747",
      "cp": "",
      "ville": "Quartu Sant'Elena",
      "adresse": "Vle Europa Ex Ss 554 Km 12,5  09045",
      "brand": "Agip Eni",
      "lat": 39.24547654023403,
      "lng": 9.203535144119996,
      "fuels": {
        "sp95": 1.894,
        "gazole": 2.039
      }
    },
    {
      "id": "48724",
      "cp": "",
      "ville": "Quartucciu",
      "adresse": "Località Su idanu, Via Delle Serre 130 09044",
      "brand": "Api-Ip",
      "lat": 39.245978838874734,
      "lng": 9.164054057233653,
      "fuels": {
        "sp95": 1.879,
        "gazole": 1.979
      }
    },
    {
      "id": "58587",
      "cp": "",
      "ville": "Quartucciu",
      "adresse": "Via Delle Serre 27  09044",
      "brand": "Agip Eni",
      "lat": 39.248367,
      "lng": 9.168261,
      "fuels": {
        "sp95": 1.874,
        "gazole": 2.024
      }
    },
    {
      "id": "6686",
      "cp": "",
      "ville": "Quartucciu",
      "adresse": "Via Don Minzoni 11 09044",
      "brand": "q8",
      "lat": 39.25047284475083,
      "lng": 9.174127707969319,
      "fuels": {
        "sp95": 1.887,
        "gazole": 1.987
      }
    },
    {
      "id": "59647",
      "cp": "",
      "ville": "Sarroch",
      "adresse": "Cagliari 24 09018",
      "brand": "Pompe Bianche",
      "lat": 39.06707,
      "lng": 9.01053,
      "fuels": {
        "sp95": 1.925,
        "gazole": 1.995
      }
    },
    {
      "id": "33185",
      "cp": "",
      "ville": "Sarroch",
      "adresse": "s.s. 195 Km 16+195  09018",
      "brand": "q8",
      "lat": 39.1097307936484,
      "lng": 8.998206406831741,
      "fuels": {
        "sp95": 1.899,
        "gazole": 2.049,
        "gplc": 0.764
      }
    },
    {
      "id": "48109",
      "cp": "",
      "ville": "Sarroch",
      "adresse": "Via Cagliari 2/A 09018",
      "brand": "Esso",
      "lat": 39.07048783522069,
      "lng": 9.010538588954908,
      "fuels": {
        "sp95": 1.929,
        "gazole": 2.059
      }
    },
    {
      "id": "30624",
      "cp": "",
      "ville": "Selargius",
      "adresse": "Roma Sn 09047",
      "brand": "Tamoil",
      "lat": 39.26031364617995,
      "lng": 9.173478707671165,
      "fuels": {
        "sp95": 1.879,
        "gazole": 1.999
      }
    },
    {
      "id": "57871",
      "cp": "",
      "ville": "Selargius",
      "adresse": "ss554 Km 4,200 09047",
      "brand": "q8",
      "lat": 39.26388787067593,
      "lng": 9.115463207337967,
      "fuels": {
        "sp95": 1.875,
        "gazole": 1.958
      }
    },
    {
      "id": "8410",
      "cp": "",
      "ville": "Selargius",
      "adresse": "Statale 554 cagliaritana, km. 9,00, dir. Aereoporto - 09047",
      "brand": "q8",
      "lat": 39.2633503320484,
      "lng": 9.172810167074203,
      "fuels": {
        "sp95": 1.969,
        "gazole": 2.059
      }
    },
    {
      "id": "52626",
      "cp": "",
      "ville": "Selargius",
      "adresse": "Trieste 60 09047",
      "brand": "Agip Eni",
      "lat": 39.2528461,
      "lng": 9.1534144,
      "fuels": {
        "sp95": 1.894,
        "gazole": 2.04
      }
    },
    {
      "id": "47160",
      "cp": "",
      "ville": "Selargius",
      "adresse": "Via Primo Maggio Snc 09047",
      "brand": "Esso",
      "lat": 39.24692512743084,
      "lng": 9.158924283819365,
      "fuels": {
        "sp95": 1.886,
        "gazole": 1.986
      }
    },
    {
      "id": "16267",
      "cp": "",
      "ville": "Selargius",
      "adresse": "Via Trieste 87/A 09047",
      "brand": "Agip Eni",
      "lat": 39.25373892498738,
      "lng": 9.162722846557585,
      "fuels": {
        "sp95": 1.894,
        "gazole": 2.04
      }
    },
    {
      "id": "45175",
      "cp": "",
      "ville": "Selargius",
      "adresse": "Viale Trieste 98 09047",
      "brand": "q8",
      "lat": 39.253404666959746,
      "lng": 9.157554957942011,
      "fuels": {
        "sp95": 1.999,
        "gazole": 2.069
      }
    },
    {
      "id": "49330",
      "cp": "",
      "ville": "Sestu",
      "adresse": "Ex s.s. 131 km. 7+222  09028",
      "brand": "Agip Eni",
      "lat": 39.272912046997874,
      "lng": 9.07943295168459,
      "fuels": {
        "sp95": 1.884,
        "gazole": 2.035
      }
    },
    {
      "id": "44358",
      "cp": "",
      "ville": "Sestu",
      "adresse": "Monserrato Sn 09028",
      "brand": "Tamoil",
      "lat": 39.298458810882984,
      "lng": 9.093375317791015,
      "fuels": {
        "sp95": 1.919,
        "gazole": 2.049
      }
    },
    {
      "id": "24260",
      "cp": "",
      "ville": "Sestu",
      "adresse": "s.p.8 Sestu- Elmas Km 2,900 s.n.c. 09028",
      "brand": "Sodigas",
      "lat": 39.283964608113706,
      "lng": 9.080343164727083,
      "fuels": {
        "sp95": 1.917,
        "gazole": 2.026
      }
    },
    {
      "id": "8946",
      "cp": "",
      "ville": "Sestu",
      "adresse": "Statale 131 Carlo felice, km. km. 8,650, dir. Sassari - 09028",
      "brand": "Agip Eni",
      "lat": 39.28402880322496,
      "lng": 9.069766402244568,
      "fuels": {
        "sp95": 1.889,
        "gazole": 2.029
      }
    },
    {
      "id": "60153",
      "cp": "",
      "ville": "Sestu",
      "adresse": "Statale Ex 131 Snc 09028",
      "brand": "Isola Gas",
      "lat": 39.30204999999999,
      "lng": 9.06470463558195,
      "fuels": {
        "sp95": 1.927,
        "gazole": 1.977,
        "gplc": 0.859
      }
    },
    {
      "id": "62638",
      "cp": "",
      "ville": "Sestu",
      "adresse": "Via Cagliari 147  09028",
      "brand": "q8",
      "lat": 39.296002,
      "lng": 9.0898819,
      "fuels": {
        "sp95": 1.919,
        "gazole": 2.049
      }
    },
    {
      "id": "33567",
      "cp": "",
      "ville": "Sestu",
      "adresse": "Via Cagliari 234 09028",
      "brand": "Agip Eni",
      "lat": 39.29411551597557,
      "lng": 9.087526649236679,
      "fuels": {
        "sp95": 1.909,
        "gazole": 2.039
      }
    },
    {
      "id": "46281",
      "cp": "",
      "ville": "Sestu",
      "adresse": "Via Piscina Matzeu 3 09028",
      "brand": "Pinguino Carburanti",
      "lat": 39.28093953600191,
      "lng": 9.073537588119507,
      "fuels": {
        "sp95": 1.974,
        "gazole": 1.983
      }
    },
    {
      "id": "61585",
      "cp": "",
      "ville": "Settimo San Pietro",
      "adresse": "prov. Per Selargius Sn 09040",
      "brand": "Esso",
      "lat": 39.2809,
      "lng": 9.1822,
      "fuels": {
        "sp95": 1.829,
        "gazole": 1.999
      }
    },
    {
      "id": "30057",
      "cp": "",
      "ville": "Settimo San Pietro",
      "adresse": "s.p. Per Selargius Km 4,968 Sn 09040",
      "brand": "Tamoil",
      "lat": 39.2790575283177,
      "lng": 9.181302040815353,
      "fuels": {
        "sp95": 1.839,
        "gazole": 1.999
      }
    },
    {
      "id": "42547",
      "cp": "",
      "ville": "Settimo San Pietro",
      "adresse": "San Salvatore Sn 09040",
      "brand": "Api-Ip",
      "lat": 39.28639307343592,
      "lng": 9.185698385418391,
      "fuels": {
        "sp95": 1.829,
        "gazole": 1.989
      }
    },
    {
      "id": "47910",
      "cp": "",
      "ville": "Settimo San Pietro",
      "adresse": "Via San Salvatore 2 09040",
      "brand": "Isola Gas",
      "lat": 39.284889595061465,
      "lng": 9.185012306134212,
      "fuels": {
        "sp95": 1.919,
        "gazole": 2.049
      }
    },
    {
      "id": "12830",
      "cp": "",
      "ville": "Sinnai",
      "adresse": "loc.luceri Zona Insediamenti Sn 09048",
      "brand": "Pompe Bianche",
      "lat": 39.29085875582481,
      "lng": 9.213578402996063,
      "fuels": {
        "gplc": 0.85
      }
    },
    {
      "id": "39214",
      "cp": "",
      "ville": "Sinnai",
      "adresse": "s.s. 125 Var Km 14+400 Sn 09048",
      "brand": "Pompe Bianche",
      "lat": 39.1801885043339,
      "lng": 9.45136696100235,
      "fuels": {
        "sp95": 2.059,
        "gazole": 2.099
      }
    },
    {
      "id": "45198",
      "cp": "",
      "ville": "Sinnai",
      "adresse": "Solanas Sn 09048",
      "brand": "Tamoil",
      "lat": 39.14179100284583,
      "lng": 9.430735531163918,
      "fuels": {
        "sp95": 1.919,
        "gazole": 2.059
      }
    },
    {
      "id": "18025",
      "cp": "",
      "ville": "Sinnai",
      "adresse": "Via Roma 5 09048",
      "brand": "Esso",
      "lat": 39.2992606164418,
      "lng": 9.198000549073754,
      "fuels": {
        "sp95": 1.889,
        "gazole": 1.989
      }
    },
    {
      "id": "23792",
      "cp": "",
      "ville": "Sinnai",
      "adresse": "Via Trieste  09048",
      "brand": "q8",
      "lat": 39.299627517029265,
      "lng": 9.200684469311454,
      "fuels": {
        "sp95": 1.829,
        "gazole": 1.999
      }
    },
    {
      "id": "12624",
      "cp": "",
      "ville": "Sinnai",
      "adresse": "Zona ind. loc. Luceri s.n.c. 09048",
      "brand": "Sodigas",
      "lat": 39.290859793760916,
      "lng": 9.21357974410057,
      "fuels": {
        "sp95": 1.859,
        "gazole": 2.014
      }
    },
    {
      "id": "37472",
      "cp": "",
      "ville": "Uta",
      "adresse": "Via Stazione 47 09068",
      "brand": "Agip Eni",
      "lat": 39.29474941029791,
      "lng": 8.950216772946987,
      "fuels": {
        "sp95": 1.909,
        "gazole": 2.04
      }
    },
    {
      "id": "11041",
      "cp": "",
      "ville": "Uta",
      "adresse": "Via Stazione 9 09010",
      "brand": "q8",
      "lat": 39.30014310140881,
      "lng": 8.944049924612045,
      "fuels": {
        "sp95": 1.964,
        "gazole": 2.054
      }
    },
    {
      "id": "50874",
      "cp": "",
      "ville": "Villa San Pietro",
      "adresse": "195 sulcitana, km. 26+390, Pula - 09010",
      "brand": "Esso",
      "lat": 39.0297444447223,
      "lng": 9.00100702385639,
      "fuels": {
        "sp95": 1.919,
        "gazole": 2.059
      }
    }
  ]
}