{
  "code": "CB",
  "name": "Campobasso",
  "regionCode": "MOL",
  "regionName": "Molise",
  "asOf": "2026-06-26T08:26:29.914Z",
  "source": "https://www.mimit.gov.it/it/open-data/elenco-dataset/2032336-dataset-prezzi-carburanti",
  "stationCount": 109,
  "fuels": {
    "gazole": {
      "count": 104,
      "mean": 1.9435,
      "median": 1.929,
      "min": 1.605,
      "max": 2.209
    },
    "sp95": {
      "count": 102,
      "mean": 1.8498,
      "median": 1.839,
      "min": 1.628,
      "max": 2.159
    },
    "e85": {
      "count": 6,
      "mean": 1.4728,
      "median": 1.449,
      "min": 1.398,
      "max": 1.647
    },
    "gplc": {
      "count": 23,
      "mean": 0.7999,
      "median": 0.799,
      "min": 0.629,
      "max": 0.899
    }
  },
  "stations": [
    {
      "id": "60587",
      "cp": "",
      "ville": "Baranello",
      "adresse": "c.da Gaudo Snc 86011",
      "brand": "Pompe Bianche",
      "lat": 41.52722,
      "lng": 14.558,
      "fuels": {
        "sp95": 1.847,
        "gazole": 1.936
      }
    },
    {
      "id": "62102",
      "cp": "",
      "ville": "Bojano",
      "adresse": "Localita' Remete Snc 86021",
      "brand": "4.0",
      "lat": 41.50697,
      "lng": 14.45773,
      "fuels": {
        "e85": 1.449,
        "gplc": 0.779
      }
    },
    {
      "id": "29833",
      "cp": "",
      "ville": "Bojano",
      "adresse": "s.p. Bojano - Monteverde Snc 86012",
      "brand": "Api-Ip",
      "lat": 41.491252237325995,
      "lng": 14.481016093254084,
      "fuels": {
        "sp95": 1.822,
        "gazole": 1.912
      }
    },
    {
      "id": "48748",
      "cp": "",
      "ville": "Bojano",
      "adresse": "Strada statale, km. 207+400, Campobasso  86021",
      "brand": "Agip Eni",
      "lat": 41.48458575725868,
      "lng": 14.480212334639967,
      "fuels": {
        "sp95": 1.829,
        "gazole": 1.919
      }
    },
    {
      "id": "60252",
      "cp": "",
      "ville": "Bojano",
      "adresse": "Via Calderari Snc 86021",
      "brand": "Pompe Bianche",
      "lat": 41.4853,
      "lng": 14.47075,
      "fuels": {
        "sp95": 1.905,
        "gazole": 1.955
      }
    },
    {
      "id": "6025",
      "cp": "",
      "ville": "Bojano",
      "adresse": "Via s.s.17 km.204+23  86021",
      "brand": "Esso",
      "lat": 41.50115633840512,
      "lng": 14.456095397472382,
      "fuels": {
        "sp95": 1.829,
        "gazole": 1.919,
        "gplc": 0.799
      }
    },
    {
      "id": "49235",
      "cp": "",
      "ville": "Bonefro",
      "adresse": "s.p. 166 Bonefro Casacalenda   86041",
      "brand": "Pompe Bianche",
      "lat": 41.70367395716098,
      "lng": 14.90377351641655,
      "fuels": {
        "sp95": 1.839,
        "gazole": 1.929
      }
    },
    {
      "id": "50658",
      "cp": "",
      "ville": "Campobasso",
      "adresse": "c.da Colle Dell'Orso tang. Est km. 0+870  86100",
      "brand": "Esso",
      "lat": 41.56609472076166,
      "lng": 14.681486763002725,
      "fuels": {
        "sp95": 1.829,
        "gazole": 1.919
      }
    },
    {
      "id": "52249",
      "cp": "",
      "ville": "Campobasso",
      "adresse": "c.da Colle Delle Api Snc 86100",
      "brand": "q8",
      "lat": 41.58634807096178,
      "lng": 14.672220567181398,
      "fuels": {
        "sp95": 1.869,
        "gazole": 1.949
      }
    },
    {
      "id": "48886",
      "cp": "",
      "ville": "Campobasso",
      "adresse": "c.da Tappino - Ss 87 km129+100 - tang. Ovest  86018",
      "brand": "q8",
      "lat": 41.538552998983455,
      "lng": 14.617770896622819,
      "fuels": {
        "sp95": 1.829,
        "gazole": 1.919,
        "gplc": 0.849
      }
    },
    {
      "id": "5687",
      "cp": "",
      "ville": "Campobasso",
      "adresse": "Cda Macchie 96 86100",
      "brand": "Pompe Bianche",
      "lat": 41.57076203995664,
      "lng": 14.647030466270508,
      "fuels": {
        "e85": 1.647,
        "gplc": 0.849
      }
    },
    {
      "id": "49124",
      "cp": "",
      "ville": "Campobasso",
      "adresse": "Contrada Mascione Snc 86100",
      "brand": "Petrol Gamma",
      "lat": 41.55031720167095,
      "lng": 14.699427485465998,
      "fuels": {
        "sp95": 1.897,
        "gazole": 1.997
      }
    },
    {
      "id": "42877",
      "cp": "",
      "ville": "Campobasso",
      "adresse": "Contrada Selva Piana  86100",
      "brand": "Esso",
      "lat": 41.56851171788864,
      "lng": 14.638111527726684,
      "fuels": {
        "sp95": 1.829,
        "gazole": 1.919
      }
    },
    {
      "id": "62877",
      "cp": "",
      "ville": "Campobasso",
      "adresse": "De Pretis Snc 86100",
      "brand": "b+",
      "lat": 41.5487991,
      "lng": 14.6537792,
      "fuels": {
        "sp95": 1.839,
        "gazole": 1.939
      }
    },
    {
      "id": "30398",
      "cp": "",
      "ville": "Campobasso",
      "adresse": "Via c.da s.giovanni In Golfo tang.est km.300+705 0 86100, Campobasso (cb) 0 86100",
      "brand": "Api-Ip",
      "lat": 41.58885598128268,
      "lng": 14.682558417298424,
      "fuels": {
        "sp95": 1.859,
        "gazole": 1.959
      }
    },
    {
      "id": "52323",
      "cp": "",
      "ville": "Campobasso",
      "adresse": "Via Colle Delle Api Snc 86100",
      "brand": "Conad",
      "lat": 41.57532269360696,
      "lng": 14.674708463924455,
      "fuels": {
        "sp95": 1.795,
        "gazole": 1.895
      }
    },
    {
      "id": "41153",
      "cp": "",
      "ville": "Campobasso",
      "adresse": "Via Duca Da Genova 5 86100",
      "brand": "Esso",
      "lat": 41.55383523889025,
      "lng": 14.657600373029709,
      "fuels": {
        "sp95": 1.859,
        "gazole": 1.949
      }
    },
    {
      "id": "43571",
      "cp": "",
      "ville": "Campobasso",
      "adresse": "Via G Garibaldi Km 2 86100",
      "brand": "Api-Ip",
      "lat": 41.56620379599178,
      "lng": 14.648330459807767,
      "fuels": {
        "sp95": 1.846,
        "gazole": 1.936
      }
    },
    {
      "id": "48620",
      "cp": "",
      "ville": "Campobasso",
      "adresse": "Via Iv Novembre Snc 86100",
      "brand": "Agip Eni",
      "lat": 41.56743784826279,
      "lng": 14.671353444042623,
      "fuels": {
        "sp95": 1.829,
        "gazole": 1.919
      }
    },
    {
      "id": "10590",
      "cp": "",
      "ville": "Campobasso",
      "adresse": "Via Puglia 165 86100",
      "brand": "Pompe Bianche",
      "lat": 41.56099230368645,
      "lng": 14.682874828577042,
      "fuels": {
        "sp95": 1.859,
        "gazole": 1.949
      }
    },
    {
      "id": "47919",
      "cp": "",
      "ville": "Campobasso",
      "adresse": "Via s. Giovanni Dei Gelsi Ex Ss 375 Gildonese  86100",
      "brand": "Api-Ip",
      "lat": 41.550183873099506,
      "lng": 14.69140599012826,
      "fuels": {
        "sp95": 1.829,
        "gazole": 1.919
      }
    },
    {
      "id": "6708",
      "cp": "",
      "ville": "Campobasso",
      "adresse": "Via s.antonio Dei Lazzari Snc 86100",
      "brand": "q8",
      "lat": 41.56737280712992,
      "lng": 14.665922289591663,
      "fuels": {
        "sp95": 1.869,
        "gazole": 1.949
      }
    },
    {
      "id": "31308",
      "cp": "",
      "ville": "Campobasso",
      "adresse": "Via San Giovanni 33 86100",
      "brand": "Api-Ip",
      "lat": 41.55963500668554,
      "lng": 14.670551429703892,
      "fuels": {
        "sp95": 1.839,
        "gazole": 1.939
      }
    },
    {
      "id": "58104",
      "cp": "",
      "ville": "Campobasso",
      "adresse": "Via Vincenzo Tiberio 15 86100",
      "brand": "Api-Ip",
      "lat": 41.56477083694329,
      "lng": 14.661301759227928,
      "fuels": {
        "sp95": 1.857,
        "gazole": 1.895
      }
    },
    {
      "id": "51838",
      "cp": "",
      "ville": "Campobasso",
      "adresse": "Via Xxiv Maggio 180 86100",
      "brand": "Agip Eni",
      "lat": 41.56856560518733,
      "lng": 14.673408366562102,
      "fuels": {
        "sp95": 1.829,
        "gazole": 1.919
      }
    },
    {
      "id": "52264",
      "cp": "",
      "ville": "Campobasso",
      "adresse": "Via Xxiv maggio, ang. Via Iv Novembre  86100",
      "brand": "q8",
      "lat": 41.562998626257716,
      "lng": 14.670485152576362,
      "fuels": {
        "sp95": 1.869,
        "gazole": 1.949
      }
    },
    {
      "id": "62844",
      "cp": "",
      "ville": "Campobasso",
      "adresse": "Viale Xxiv Maggio  86100",
      "brand": "Api-Ip",
      "lat": 41.56685,
      "lng": 14.67281,
      "fuels": {
        "sp95": 1.839,
        "gazole": 1.899
      }
    },
    {
      "id": "29813",
      "cp": "",
      "ville": "Campobasso",
      "adresse": "Xxiv Maggio 180 86100",
      "brand": "Tamoil",
      "lat": 41.568554096655696,
      "lng": 14.673340916633606,
      "fuels": {
        "sp95": 1.819,
        "gazole": 1.899
      }
    },
    {
      "id": "50683",
      "cp": "",
      "ville": "Campobasso",
      "adresse": "Xxiv Maggio 207 86100",
      "brand": "Esso",
      "lat": 41.57105323851664,
      "lng": 14.675335884094233,
      "fuels": {
        "sp95": 1.859,
        "gazole": 1.949
      }
    },
    {
      "id": "49233",
      "cp": "",
      "ville": "Campomarino",
      "adresse": "s.p. 40 Adriatica C/Da Favotita  86042",
      "brand": "Pompe Bianche",
      "lat": 41.94975760507629,
      "lng": 15.025386214256287,
      "fuels": {
        "sp95": 1.839,
        "gazole": 1.929
      }
    },
    {
      "id": "60247",
      "cp": "",
      "ville": "Campomarino",
      "adresse": "ss16 555  86042",
      "brand": "Pompe Bianche",
      "lat": 41.9562688,
      "lng": 15.034344,
      "fuels": {
        "sp95": 1.796,
        "gazole": 1.875
      }
    },
    {
      "id": "63201",
      "cp": "",
      "ville": "Campomarino",
      "adresse": "ss16 Km 554+697 Campomarino  86042",
      "brand": "Api-Ip",
      "lat": 41.9583015,
      "lng": 15.0388259,
      "fuels": {
        "sp95": 1.839,
        "gazole": 1.939
      }
    },
    {
      "id": "32822",
      "cp": "",
      "ville": "Campomarino",
      "adresse": "Statale 16 adriatica, km. 550+700, dir. Bari - 86042",
      "brand": "Api-Ip",
      "lat": 41.95859334823048,
      "lng": 15.03797248005867,
      "fuels": {
        "sp95": 1.829,
        "gazole": 1.939
      }
    },
    {
      "id": "5759",
      "cp": "",
      "ville": "Campomarino",
      "adresse": "Statale 16 adriatica, km. 552+016, dir. Sud - 86042",
      "brand": "Tamoil",
      "lat": 41.95202741400315,
      "lng": 15.04936623545791,
      "fuels": {
        "sp95": 1.819,
        "gazole": 1.899,
        "gplc": 0.729
      }
    },
    {
      "id": "44481",
      "cp": "",
      "ville": "Campomarino",
      "adresse": "Via Madonna Grande  86042",
      "brand": "Tamoil",
      "lat": 41.8962818,
      "lng": 15.0770609,
      "fuels": {
        "sp95": 1.829,
        "gazole": 1.939
      }
    },
    {
      "id": "24328",
      "cp": "",
      "ville": "Casacalenda",
      "adresse": "Via Roma 0 86043",
      "brand": "Api-Ip",
      "lat": 41.73782692049675,
      "lng": 14.846251988746644,
      "fuels": {
        "sp95": 1.829,
        "gazole": 1.929
      }
    },
    {
      "id": "55141",
      "cp": "",
      "ville": "Casalciprano",
      "adresse": "Frosolone f.valle Bifern Sn 86010",
      "brand": "Esso",
      "lat": 41.5784583,
      "lng": 14.5166722,
      "fuels": {
        "sp95": 1.829,
        "gazole": 1.919,
        "gplc": 0.799
      }
    },
    {
      "id": "40655",
      "cp": "",
      "ville": "Castelmauro",
      "adresse": "Corso Italia  86031",
      "brand": "Api-Ip",
      "lat": 41.8330636148123,
      "lng": 14.713562652468681,
      "fuels": {
        "sp95": 1.849,
        "gazole": 1.939
      }
    },
    {
      "id": "29919",
      "cp": "",
      "ville": "Castropignano",
      "adresse": "sp139 Fossaltina  86040",
      "brand": "Api-Ip",
      "lat": 41.64115860315683,
      "lng": 14.583220034837723,
      "fuels": {
        "sp95": 1.869,
        "gazole": 1.989
      }
    },
    {
      "id": "55764",
      "cp": "",
      "ville": "Cercemaggiore",
      "adresse": "Pesco Cupo 16 86012",
      "brand": "Bianco Carburanti",
      "lat": 40.7011328,
      "lng": 14.7914752,
      "fuels": {
        "sp95": 1.799,
        "gazole": 2.099
      }
    },
    {
      "id": "30272",
      "cp": "",
      "ville": "Cercemaggiore",
      "adresse": "Via Ugo La Malfa s.n.c. 86012",
      "brand": "Pompe Bianche",
      "lat": 41.47112997770709,
      "lng": 14.71799835562706,
      "fuels": {
        "sp95": 2.159,
        "gazole": 2.209
      }
    },
    {
      "id": "49693",
      "cp": "",
      "ville": "Colle D'Anchise",
      "adresse": "647 Fondo Valle Del biferno, km. 2,5, Nord - 86020",
      "brand": "New Energy",
      "lat": 41.490266397311274,
      "lng": 14.536140612780763,
      "fuels": {
        "sp95": 1.889,
        "gazole": 1.989,
        "e85": 1.449,
        "gplc": 0.779
      }
    },
    {
      "id": "51079",
      "cp": "",
      "ville": "Colletorto",
      "adresse": "Aldo Moro 40-46 86044",
      "brand": "Pompe Bianche",
      "lat": 41.657019063127954,
      "lng": 14.96598803452598,
      "fuels": {
        "sp95": 1.869,
        "gazole": 1.939
      }
    },
    {
      "id": "60246",
      "cp": "",
      "ville": "Colletorto",
      "adresse": "Corso Vittorio Emanuele Snc 86040",
      "brand": "Pompe Bianche",
      "lat": 41.66165,
      "lng": 14.96773,
      "fuels": {
        "sp95": 1.856,
        "gazole": 1.925
      }
    },
    {
      "id": "49125",
      "cp": "",
      "ville": "Ferrazzano",
      "adresse": "sp165 Gildonese km4 c.da Piane Snc 86010",
      "brand": "Petrol Gamma",
      "lat": 41.517581993553186,
      "lng": 14.710765182971949,
      "fuels": {
        "sp95": 1.897,
        "gazole": 1.997
      }
    },
    {
      "id": "49234",
      "cp": "",
      "ville": "Fossalto",
      "adresse": "s.p. Fossaltina Bivio Fossalto  86020",
      "brand": "Pompe Bianche",
      "lat": 41.67542172770525,
      "lng": 14.550189365591324,
      "fuels": {
        "sp95": 1.839,
        "gazole": 1.929
      }
    },
    {
      "id": "20823",
      "cp": "",
      "ville": "Gambatesa",
      "adresse": "645 Fondo Valle Del tappino, km. 22+900, Gambatesa - 86013",
      "brand": "Esso",
      "lat": 41.53439497832944,
      "lng": 14.884641319513321,
      "fuels": {
        "sp95": 1.799,
        "gazole": 1.909
      }
    },
    {
      "id": "51929",
      "cp": "",
      "ville": "Gambatesa",
      "adresse": "Fondo Valle Tappino  86013",
      "brand": "Tamoil",
      "lat": 41.52452319154891,
      "lng": 14.93206645105056,
      "fuels": {
        "sp95": 1.839,
        "gazole": 1.929
      }
    },
    {
      "id": "59069",
      "cp": "",
      "ville": "Guglionesi",
      "adresse": "Statale 483 Km 18+450 Snc 86034",
      "brand": "Agip Eni",
      "lat": 41.9221,
      "lng": 14.9178,
      "fuels": {
        "sp95": 1.829,
        "gazole": 1.929
      }
    },
    {
      "id": "30063",
      "cp": "",
      "ville": "Guglionesi",
      "adresse": "Via Ss 647 Bifernina km. 72+800 0 86034, Guglionesi (cb)  76034",
      "brand": "Api-Ip",
      "lat": 41.917606200498845,
      "lng": 14.96301144361496,
      "fuels": {
        "sp95": 1.817,
        "gazole": 1.917
      }
    },
    {
      "id": "44480",
      "cp": "",
      "ville": "Guglionesi",
      "adresse": "Viale r.margherita Snc 86034",
      "brand": "Tamoil",
      "lat": 41.91252065353366,
      "lng": 14.915182724122587,
      "fuels": {
        "sp95": 1.879,
        "gazole": 1.979
      }
    },
    {
      "id": "48952",
      "cp": "",
      "ville": "Jelsi",
      "adresse": "s.s. 17 Km 246+691  86015",
      "brand": "Tamoil",
      "lat": 41.51778296478805,
      "lng": 14.79929085434152,
      "fuels": {
        "sp95": 1.829,
        "gazole": 1.919
      }
    },
    {
      "id": "40426",
      "cp": "",
      "ville": "Larino",
      "adresse": "Largo Garibaldi  86035",
      "brand": "Api-Ip",
      "lat": 41.79715366465477,
      "lng": 14.911605566740036,
      "fuels": {
        "sp95": 1.939,
        "gazole": 2.019
      }
    },
    {
      "id": "10212",
      "cp": "",
      "ville": "Larino",
      "adresse": "Piazza Adelmo Romano  86035",
      "brand": "Agip Eni",
      "lat": 41.80014681281972,
      "lng": 14.917757213115692,
      "fuels": {
        "sp95": 1.824,
        "gazole": 1.924
      }
    },
    {
      "id": "22328",
      "cp": "",
      "ville": "Larino",
      "adresse": "Via Luigi Sturzo  86035",
      "brand": "Esso",
      "lat": 41.80332796681053,
      "lng": 14.91818368434906,
      "fuels": {
        "sp95": 1.819,
        "gazole": 1.919
      }
    },
    {
      "id": "35382",
      "cp": "",
      "ville": "Lucito",
      "adresse": "647 Fondo Valle Del biferno, km. 40+800, Termoli  86030",
      "brand": "Pompe Bianche",
      "lat": 41.72514124768233,
      "lng": 14.72598060965538,
      "fuels": {
        "sp95": 1.856,
        "gazole": 1.935
      }
    },
    {
      "id": "4367",
      "cp": "",
      "ville": "Lucito",
      "adresse": "Statale 647 Fondo Valle Del biferno, km. 34+600, dir. Campobasso - 86030",
      "brand": "Agip Eni",
      "lat": 41.70122081694034,
      "lng": 14.668223261833191,
      "fuels": {
        "sp95": 1.868,
        "gazole": 1.989,
        "gplc": 0.799
      }
    },
    {
      "id": "34062",
      "cp": "",
      "ville": "Lupara",
      "adresse": "Statale 647 Fondo Valle Del biferno, km. 47+740, dir. Campobasso  86030",
      "brand": "Pompe Bianche",
      "lat": 41.76591252619729,
      "lng": 14.77501206099987,
      "fuels": {
        "sp95": 1.839,
        "gazole": 1.939,
        "gplc": 0.799
      }
    },
    {
      "id": "59616",
      "cp": "",
      "ville": "Montagano",
      "adresse": "s.p. Ingotte Km 11+9100 Snc 86023",
      "brand": "Agip Eni",
      "lat": 41.64668769371517,
      "lng": 14.637492519079606,
      "fuels": {
        "sp95": 1.829,
        "gazole": 1.919
      }
    },
    {
      "id": "60251",
      "cp": "",
      "ville": "Montelongo",
      "adresse": "Strada Comunale Mulino Snc   86040",
      "brand": "Pompe Bianche",
      "lat": 41.73705,
      "lng": 14.95034,
      "fuels": {
        "sp95": 1.835,
        "gazole": 1.925,
        "gplc": 0.778
      }
    },
    {
      "id": "47661",
      "cp": "",
      "ville": "Montenero Di Bisaccia",
      "adresse": "a14 Bologna-Bari-taranto, km. 458,60, Nord - 86036",
      "brand": "Agip Eni",
      "lat": 42.04762613157266,
      "lng": 14.813809093254076,
      "fuels": {
        "sp95": 1.888,
        "gazole": 2.018,
        "gplc": 0.869
      }
    },
    {
      "id": "62738",
      "cp": "",
      "ville": "Montenero Di Bisaccia",
      "adresse": "a14 Bologna-Bari-taranto, km. 458,60, Nord - 86036",
      "brand": "Agip Eni",
      "lat": 42.04762613157266,
      "lng": 14.813809093254076,
      "fuels": {
        "gazole": 1.979
      }
    },
    {
      "id": "37289",
      "cp": "",
      "ville": "Montenero Di Bisaccia",
      "adresse": "Autostrada a14 Bologna-Bari-taranto, km. 458+600, dir. Sud - 86036",
      "brand": "Tamoil",
      "lat": 42.04658383499255,
      "lng": 14.814132750034332,
      "fuels": {
        "sp95": 1.899,
        "gazole": 1.999,
        "gplc": 0.899
      }
    },
    {
      "id": "62725",
      "cp": "",
      "ville": "Montenero Di Bisaccia",
      "adresse": "Autostrada a14 Bologna-Bari-taranto, km. 458+600, dir. Sud - 86036",
      "brand": "Tamoil",
      "lat": 42.04658383499255,
      "lng": 14.814132750034332,
      "fuels": {
        "gazole": 1.899
      }
    },
    {
      "id": "62843",
      "cp": "",
      "ville": "Montenero Di Bisaccia",
      "adresse": "Contrada Padula",
      "brand": "Api-Ip",
      "lat": 42.06196,
      "lng": 14.77805,
      "fuels": {
        "sp95": 1.699,
        "gazole": 1.799
      }
    },
    {
      "id": "27308",
      "cp": "",
      "ville": "Montenero Di Bisaccia",
      "adresse": "Via f. Baracca 31 86036",
      "brand": "Esso",
      "lat": 41.96598398436598,
      "lng": 14.779400825500488,
      "fuels": {
        "sp95": 1.809,
        "gazole": 1.909
      }
    },
    {
      "id": "62836",
      "cp": "",
      "ville": "Palata",
      "adresse": "Calvario 0 86037",
      "brand": "Api-Ip",
      "lat": 41.88758193357444,
      "lng": 14.78470241377255,
      "fuels": {
        "sp95": 1.889,
        "gazole": 1.989
      }
    },
    {
      "id": "49236",
      "cp": "",
      "ville": "Palata",
      "adresse": "s.p. 2+200 Bivio Santa Giusta   86037",
      "brand": "Pompe Bianche",
      "lat": 41.87857603158057,
      "lng": 14.808053523302078,
      "fuels": {
        "sp95": 1.839,
        "gazole": 1.929
      }
    },
    {
      "id": "6303",
      "cp": "",
      "ville": "Petacciato",
      "adresse": "Statale 16 adriatica, km. 530+110, dir. Sud - 86038",
      "brand": "Agip Eni",
      "lat": 42.041133610987615,
      "lng": 14.832084774971008,
      "fuels": {
        "sp95": 1.809,
        "gazole": 1.909
      }
    },
    {
      "id": "55937",
      "cp": "",
      "ville": "Petrella Tifernina",
      "adresse": "Vittorio Emanuele Iii Sn 86024",
      "brand": "Pompe Bianche",
      "lat": 41.6913026,
      "lng": 14.6950995,
      "fuels": {
        "sp95": 1.739,
        "gazole": 2.099
      }
    },
    {
      "id": "58967",
      "cp": "",
      "ville": "Portocannone",
      "adresse": "Sp 40 - Via Garibaldi Snc 86045",
      "brand": "Tamoil",
      "lat": 41.917287,
      "lng": 15.00953,
      "fuels": {
        "sp95": 1.819,
        "gazole": 1.919
      }
    },
    {
      "id": "16019",
      "cp": "",
      "ville": "Riccia",
      "adresse": "c.da Streppone Sn 86016",
      "brand": "Petrol Gamma",
      "lat": 41.45876280012019,
      "lng": 14.811254739761353,
      "fuels": {
        "sp95": 1.926,
        "gazole": 1.994
      }
    },
    {
      "id": "60249",
      "cp": "",
      "ville": "Riccia",
      "adresse": "s.s. 12 Km 68   86016",
      "brand": "Pompe Bianche",
      "lat": 41.48314,
      "lng": 14.83181,
      "fuels": {
        "sp95": 1.826,
        "gazole": 1.915
      }
    },
    {
      "id": "32040",
      "cp": "",
      "ville": "Riccia",
      "adresse": "Statale 212 Della Val fortore, km. 57+150, dir. Riccia - 86016",
      "brand": "Esso",
      "lat": 41.47349621544184,
      "lng": 14.838420152664185,
      "fuels": {
        "sp95": 1.839,
        "gazole": 1.929,
        "gplc": 0.849
      }
    },
    {
      "id": "58520",
      "cp": "",
      "ville": "Ripalimosani",
      "adresse": "Viale Unità D'Italia 16  86025",
      "brand": "Pompe Bianche",
      "lat": 41.59086894490776,
      "lng": 14.669061109700197,
      "fuels": {
        "sp95": 1.879,
        "gazole": 1.959,
        "gplc": 0.849
      }
    },
    {
      "id": "58958",
      "cp": "",
      "ville": "Roccavivara",
      "adresse": "ss650",
      "brand": "Pompe Bianche",
      "lat": 41.8465423,
      "lng": 14.5869444,
      "fuels": {
        "sp95": 1.819,
        "gazole": 1.919
      }
    },
    {
      "id": "53977",
      "cp": "",
      "ville": "Salcito",
      "adresse": "Strada Statale 747 Km 17+350  86026",
      "brand": "Petrol Gamma",
      "lat": 41.731254760987525,
      "lng": 14.527138140539533,
      "fuels": {
        "sp95": 2.031,
        "gazole": 2.155,
        "gplc": 0.89
      }
    },
    {
      "id": "60403",
      "cp": "",
      "ville": "San Giacomo Degli Schiavoni",
      "adresse": "Via Solagne Snc 86030",
      "brand": "Pompe Bianche",
      "lat": 41.96234,
      "lng": 14.94481,
      "fuels": {
        "sp95": 1.819,
        "gazole": 1.889
      }
    },
    {
      "id": "47906",
      "cp": "",
      "ville": "San Giuliano Del Sannio",
      "adresse": "Contrada Tartaglione 0 86010",
      "brand": "Pompe Bianche",
      "lat": 41.4560925280975,
      "lng": 14.644013658895506,
      "fuels": {
        "sp95": 1.899,
        "gazole": 1.929
      }
    },
    {
      "id": "34202",
      "cp": "",
      "ville": "San Giuliano Di Puglia",
      "adresse": "Contrada Colle Monte Snc 86040",
      "brand": "Pompe Bianche",
      "lat": 41.69338335806305,
      "lng": 14.957920610904694,
      "fuels": {
        "sp95": 1.929,
        "gazole": 1.899
      }
    },
    {
      "id": "6304",
      "cp": "",
      "ville": "San Martino In Pensilis",
      "adresse": "Contrada Arenale Snc 86046",
      "brand": "Agip Eni",
      "lat": 41.878299507342724,
      "lng": 15.016989399119552,
      "fuels": {
        "sp95": 1.829,
        "gazole": 1.929
      }
    },
    {
      "id": "30151",
      "cp": "",
      "ville": "San Martino In Pensilis",
      "adresse": "Via Marina Snc 86046",
      "brand": "Tamoil",
      "lat": 41.87051823616412,
      "lng": 15.01107513140414,
      "fuels": {
        "sp95": 1.829,
        "gazole": 1.929
      }
    },
    {
      "id": "59999",
      "cp": "",
      "ville": "San Massimo",
      "adresse": "Ss 17 Km 201  Snc 86027",
      "brand": "Pompe Bianche",
      "lat": 41.510359,
      "lng": 14.4364587,
      "fuels": {
        "sp95": 1.628,
        "gazole": 1.605
      }
    },
    {
      "id": "52511",
      "cp": "",
      "ville": "San Polo Matese",
      "adresse": "17 Dell'Appennino Abruzzese E Appulo sannitica, km. 211+155, Cb/Is - 86020",
      "brand": "Agip Eni",
      "lat": 41.4737975924844,
      "lng": 14.519543235573943,
      "fuels": {
        "sp95": 1.824,
        "gazole": 1.914
      }
    },
    {
      "id": "42552",
      "cp": "",
      "ville": "Santa Croce Di Magliano",
      "adresse": "Via Principe Di Piemonte  17b 86047",
      "brand": "Tamoil",
      "lat": 41.71141664540002,
      "lng": 14.987380357829352,
      "fuels": {
        "sp95": 1.839,
        "gazole": 1.929
      }
    },
    {
      "id": "51567",
      "cp": "",
      "ville": "Santa Croce Di Magliano",
      "adresse": "Via Principe Di Piemonte Snc 86047",
      "brand": "Retitalia",
      "lat": 41.71122170376458,
      "lng": 14.986572393485176,
      "fuels": {
        "sp95": 1.859,
        "gazole": 1.949
      }
    },
    {
      "id": "60721",
      "cp": "",
      "ville": "Sepino",
      "adresse": "s.p. 50 Via Colli  Snc 86017",
      "brand": "Pompe Bianche",
      "lat": 41.42063,
      "lng": 14.61654,
      "fuels": {
        "sp95": 1.888,
        "gazole": 1.988
      }
    },
    {
      "id": "49456",
      "cp": "",
      "ville": "Termoli",
      "adresse": "16 adriatica, km. 548, Nord - 86039",
      "brand": "Interpetrol",
      "lat": 41.96914965983584,
      "lng": 15.014198272635948,
      "fuels": {
        "sp95": 1.818,
        "gazole": 1.888,
        "gplc": 0.629
      }
    },
    {
      "id": "49220",
      "cp": "",
      "ville": "Termoli",
      "adresse": "87 sannitica, km. 215+890, Sud  86039",
      "brand": "Pompe Bianche",
      "lat": 41.93458433833193,
      "lng": 14.986481522246011,
      "fuels": {
        "sp95": 1.849,
        "gazole": 1.949,
        "gplc": 0.769
      }
    },
    {
      "id": "62064",
      "cp": "",
      "ville": "Termoli",
      "adresse": "87 sannitica, km. 215+890, Sud  86039",
      "brand": "Api-Ip",
      "lat": 41.93458433833193,
      "lng": 14.986481522246011,
      "fuels": {
        "gplc": 0.769
      }
    },
    {
      "id": "60817",
      "cp": "",
      "ville": "Termoli",
      "adresse": "Acacie Snc 86039",
      "brand": "Ecofuel",
      "lat": 41.972233524606885,
      "lng": 15.004119944524765,
      "fuels": {
        "sp95": 1.818,
        "gazole": 1.898,
        "e85": 1.45,
        "gplc": 0.777
      }
    },
    {
      "id": "31338",
      "cp": "",
      "ville": "Termoli",
      "adresse": "Autostrada a14 Bologna-Bari-taranto, km. -, dir. Est - 86039",
      "brand": "Tamoil",
      "lat": 41.998471389858594,
      "lng": 14.978136420249939,
      "fuels": {
        "sp95": 1.879,
        "gazole": 2.009,
        "gplc": 0.779
      }
    },
    {
      "id": "4554",
      "cp": "",
      "ville": "Termoli",
      "adresse": "Contrada Pantano Alto Snc 86039",
      "brand": "Ecofuel",
      "lat": 41.970117419836036,
      "lng": 15.003867596387858,
      "fuels": {
        "e85": 1.398
      }
    },
    {
      "id": "62381",
      "cp": "",
      "ville": "Termoli",
      "adresse": "Corsica 64 86039",
      "brand": "Pompe Bianche",
      "lat": 42.01232,
      "lng": 14.93226,
      "fuels": {
        "sp95": 1.859,
        "gazole": 1.959
      }
    },
    {
      "id": "56766",
      "cp": "",
      "ville": "Termoli",
      "adresse": "Martiri Della Resistenza 67 86039",
      "brand": "Agip Eni",
      "lat": 41.99959705891982,
      "lng": 14.985384127933509,
      "fuels": {
        "sp95": 1.829,
        "gazole": 1.919
      }
    },
    {
      "id": "57473",
      "cp": "",
      "ville": "Termoli",
      "adresse": "ss16 Km 547+545  86039",
      "brand": "Esso",
      "lat": 41.9758993,
      "lng": 15.010568,
      "fuels": {
        "sp95": 1.819,
        "gazole": 1.899
      }
    },
    {
      "id": "34146",
      "cp": "",
      "ville": "Termoli",
      "adresse": "Statale 16 adriatica, km. 539+180, dir. Vasto - 86039",
      "brand": "Esso",
      "lat": 42.01360674402188,
      "lng": 14.93483953177929,
      "fuels": {
        "sp95": 1.829,
        "gazole": 1.939
      }
    },
    {
      "id": "30009",
      "cp": "",
      "ville": "Termoli",
      "adresse": "Statale 87 sannitica, km. 218+743, dir. Campobasso - 86039",
      "brand": "q8",
      "lat": 41.95931836895771,
      "lng": 14.993066266179085,
      "fuels": {
        "sp95": 1.829,
        "gazole": 1.909,
        "e85": 1.444,
        "gplc": 0.769
      }
    },
    {
      "id": "9762",
      "cp": "",
      "ville": "Termoli",
      "adresse": "Via Corsica 62 86039",
      "brand": "Agip Eni",
      "lat": 41.993526972991226,
      "lng": 14.997866749763489,
      "fuels": {
        "sp95": 1.829,
        "gazole": 1.919
      }
    },
    {
      "id": "49004",
      "cp": "",
      "ville": "Termoli",
      "adresse": "Via Corsica Snc 86039",
      "brand": "Pompe Bianche",
      "lat": 41.98324563936003,
      "lng": 15.00510303333796,
      "fuels": {
        "sp95": 1.818,
        "gazole": 1.888
      }
    },
    {
      "id": "7100",
      "cp": "",
      "ville": "Termoli",
      "adresse": "Viale s. Francesco 14 86039",
      "brand": "Agip Eni",
      "lat": 41.98500630108447,
      "lng": 14.990528225898743,
      "fuels": {
        "sp95": 1.829,
        "gazole": 1.919
      }
    },
    {
      "id": "30073",
      "cp": "",
      "ville": "Torella Del Sannio",
      "adresse": "Via Garibaldi Snc 86028",
      "brand": "Api-Ip",
      "lat": 41.63650224920385,
      "lng": 14.519182294607162,
      "fuels": {
        "sp95": 1.979,
        "gazole": 2.079
      }
    },
    {
      "id": "39310",
      "cp": "",
      "ville": "Toro",
      "adresse": "Contrada Vicenne  86018",
      "brand": "Pompe Bianche",
      "lat": 41.56503299603491,
      "lng": 14.783497899770737,
      "fuels": {
        "gplc": 0.849
      }
    },
    {
      "id": "60248",
      "cp": "",
      "ville": "Toro",
      "adresse": "ss645 12 86018",
      "brand": "Pompe Bianche",
      "lat": 41.5677371,
      "lng": 14.8018637,
      "fuels": {
        "sp95": 1.824,
        "gazole": 1.918
      }
    },
    {
      "id": "26617",
      "cp": "",
      "ville": "Trivento",
      "adresse": "Piazza Fontana 4 86029",
      "brand": "Tamoil",
      "lat": 41.78075721234641,
      "lng": 14.551730040101575,
      "fuels": {
        "sp95": 1.899,
        "gazole": 1.999
      }
    },
    {
      "id": "48947",
      "cp": "",
      "ville": "Trivento",
      "adresse": "s.s. 747 km. 27+900  102 86029",
      "brand": "Agip Eni",
      "lat": 41.79355957982183,
      "lng": 14.565411560466002,
      "fuels": {
        "sp95": 1.825,
        "gazole": 1.914,
        "gplc": 0.742
      }
    },
    {
      "id": "48498",
      "cp": "",
      "ville": "Trivento",
      "adresse": "Via Iconicella Snc 86029",
      "brand": "Agip Eni",
      "lat": 41.769975001836634,
      "lng": 14.545071728836074,
      "fuels": {
        "sp95": 2.015,
        "gazole": 2.128
      }
    },
    {
      "id": "50954",
      "cp": "",
      "ville": "Ururi",
      "adresse": "sp167 km4,3 c.da Creta Bianca Snc 86049",
      "brand": "Petrol Gamma",
      "lat": 41.81716965732094,
      "lng": 14.986512362956995,
      "fuels": {
        "sp95": 1.999,
        "gazole": 2.129
      }
    },
    {
      "id": "59242",
      "cp": "",
      "ville": "Vinchiaturo",
      "adresse": "Ss 158 Km 49+120",
      "brand": "Agip Eni",
      "lat": 41.46726,
      "lng": 14.55973,
      "fuels": {
        "sp95": 1.829,
        "gazole": 1.909
      }
    }
  ]
}