{
  "code": "CN",
  "name": "Cuneo",
  "regionCode": "PIE",
  "regionName": "Piemonte",
  "asOf": "2026-07-19T07:34:44.524Z",
  "source": "https://www.mimit.gov.it/it/open-data/elenco-dataset/2032336-dataset-prezzi-carburanti",
  "stationCount": 304,
  "fuels": {
    "gazole": {
      "count": 304,
      "mean": 2.0918,
      "median": 2.099,
      "min": 1.624,
      "max": 2.224
    },
    "sp95": {
      "count": 300,
      "mean": 1.9314,
      "median": 1.929,
      "min": 1.635,
      "max": 2.129
    },
    "e85": {
      "count": 6,
      "mean": 1.6555,
      "median": 1.692,
      "min": 1.499,
      "max": 1.799
    },
    "gplc": {
      "count": 66,
      "mean": 0.7383,
      "median": 0.7315,
      "min": 0.679,
      "max": 0.899
    }
  },
  "stations": [
    {
      "id": "50307",
      "cp": "",
      "ville": "Alba",
      "adresse": "231 Di Santa vittoria, km. 28,230, Cuneo - 12051",
      "brand": "Api-Ip",
      "lat": 44.714999314709914,
      "lng": 8.041754949954763,
      "fuels": {
        "sp95": 1.939,
        "gazole": 2.129
      }
    },
    {
      "id": "39366",
      "cp": "",
      "ville": "Alba",
      "adresse": "Corso Asti  1 12051",
      "brand": "Api-Ip",
      "lat": 44.70979620650219,
      "lng": 8.026525229215622,
      "fuels": {
        "sp95": 1.919,
        "gazole": 2.129
      }
    },
    {
      "id": "50816",
      "cp": "",
      "ville": "Alba",
      "adresse": "Corso Asti Snc 12051, Alba (cn) 13/1 12051",
      "brand": "Conad",
      "lat": 44.721849492698475,
      "lng": 8.037247516532883,
      "fuels": {
        "sp95": 1.858,
        "gazole": 1.998,
        "gplc": 0.688
      }
    },
    {
      "id": "57586",
      "cp": "",
      "ville": "Alba",
      "adresse": "Corso Canale 26/B  12051",
      "brand": "q8",
      "lat": 44.7130676,
      "lng": 8.0219525,
      "fuels": {
        "sp95": 1.939,
        "gazole": 2.159
      }
    },
    {
      "id": "59885",
      "cp": "",
      "ville": "Alba",
      "adresse": "Corso Europa 87  12051",
      "brand": "Pompe Bianche",
      "lat": 44.68729521549808,
      "lng": 8.01036234462738,
      "fuels": {
        "sp95": 1.899,
        "gazole": 2.089,
        "e85": 1.699,
        "gplc": 0.725
      }
    },
    {
      "id": "24806",
      "cp": "",
      "ville": "Alba",
      "adresse": "Corso Europa Angolo Via Pio V  12051",
      "brand": "Api-Ip",
      "lat": 44.693686652957126,
      "lng": 8.023799999999937,
      "fuels": {
        "sp95": 1.969,
        "gazole": 2.109
      }
    },
    {
      "id": "61271",
      "cp": "",
      "ville": "Alba",
      "adresse": "Corso m. Coppino 54  12051",
      "brand": "Agip Eni",
      "lat": 44.700165,
      "lng": 8.040336,
      "fuels": {
        "sp95": 1.949,
        "gazole": 2.059
      }
    },
    {
      "id": "62684",
      "cp": "",
      "ville": "Alba",
      "adresse": "Corso Piave 70  12051",
      "brand": "Tamoil",
      "lat": 44.69189429314715,
      "lng": 8.023399915899638,
      "fuels": {
        "sp95": 1.959,
        "gazole": 2.099
      }
    },
    {
      "id": "57789",
      "cp": "",
      "ville": "Alba",
      "adresse": "Localita Biglini ss231 km31+387 12051",
      "brand": "Api-Ip",
      "lat": 44.704402,
      "lng": 7.985826,
      "fuels": {
        "sp95": 1.919,
        "gazole": 2.079
      }
    },
    {
      "id": "61823",
      "cp": "",
      "ville": "Alba",
      "adresse": "Piazza Cristo Re 15 12051",
      "brand": "Api-Ip",
      "lat": 44.69479594087929,
      "lng": 8.031726793439447,
      "fuels": {
        "sp95": 1.949,
        "gazole": 2.139
      }
    },
    {
      "id": "39471",
      "cp": "",
      "ville": "Alba",
      "adresse": "Piazza Garibaldi 5 12051",
      "brand": "Esso",
      "lat": 44.70264654006256,
      "lng": 8.032732017730268,
      "fuels": {
        "sp95": 1.899,
        "gazole": 2.099
      }
    },
    {
      "id": "61339",
      "cp": "",
      "ville": "Alba",
      "adresse": "Piera Cillario 1 12051",
      "brand": "Agip Eni",
      "lat": 44.70192,
      "lng": 8.02905,
      "fuels": {
        "sp95": 1.949,
        "gazole": 2.059
      }
    },
    {
      "id": "30621",
      "cp": "",
      "ville": "Alba",
      "adresse": "Ss 231 km. 28,120  12051",
      "brand": "Api-Ip",
      "lat": 44.71632477768202,
      "lng": 8.04368658895487,
      "fuels": {
        "sp95": 1.919,
        "gazole": 2.109
      }
    },
    {
      "id": "4759",
      "cp": "",
      "ville": "Alba",
      "adresse": "Via Ognissanti 13 12051",
      "brand": "Api-Ip",
      "lat": 44.6957015,
      "lng": 8.021420299999999,
      "fuels": {
        "sp95": 1.984,
        "gazole": 2.124,
        "gplc": 0.735
      }
    },
    {
      "id": "62949",
      "cp": "",
      "ville": "Alba",
      "adresse": "Via Ognissanti 52  12051",
      "brand": "q8",
      "lat": 44.695060086649306,
      "lng": 8.014591477298163,
      "fuels": {
        "sp95": 1.949,
        "gazole": 2.129
      }
    },
    {
      "id": "33260",
      "cp": "",
      "ville": "Alba",
      "adresse": "Via Via Garibaldi loc. Gallo Grinzane Sn 12051, Alba (cn) 6/Bis 12051",
      "brand": "Pompe Bianche",
      "lat": 44.66397278444117,
      "lng": 7.981817071094497,
      "fuels": {
        "sp95": 1.944,
        "gazole": 2.124
      }
    },
    {
      "id": "52812",
      "cp": "",
      "ville": "Bagnasco",
      "adresse": "Via ss.28 km.64+000  - Via Nazionale Sn 12071, Bagnasco (cn) Sn 12071",
      "brand": "Dis-Car",
      "lat": 44.31354551612112,
      "lng": 8.048579927587877,
      "fuels": {
        "sp95": 1.919,
        "gazole": 2.099,
        "gplc": 0.739
      }
    },
    {
      "id": "52118",
      "cp": "",
      "ville": "Bagnolo Piemonte",
      "adresse": "Via Barge 80/A 12031",
      "brand": "Esso",
      "lat": 44.74900735921536,
      "lng": 7.317012126175224,
      "fuels": {
        "sp95": 1.959,
        "gazole": 2.139
      }
    },
    {
      "id": "32347",
      "cp": "",
      "ville": "Bagnolo Piemonte",
      "adresse": "Via Bibbiana 6 12031",
      "brand": "Api-Ip",
      "lat": 44.76716381831404,
      "lng": 7.310010728836005,
      "fuels": {
        "sp95": 1.949,
        "gazole": 2.119
      }
    },
    {
      "id": "19710",
      "cp": "",
      "ville": "Barbaresco",
      "adresse": "Strada Pertinace 27 12050",
      "brand": "Kerotris",
      "lat": 44.70251145626948,
      "lng": 8.064023840208506,
      "fuels": {
        "sp95": 1.948,
        "gazole": 2.098
      }
    },
    {
      "id": "62337",
      "cp": "",
      "ville": "Barge",
      "adresse": "Cuneo 24/B 12032",
      "brand": "Api-Ip",
      "lat": 44.7496902,
      "lng": 7.4077668,
      "fuels": {
        "sp95": 1.939,
        "gazole": 2.129
      }
    },
    {
      "id": "53775",
      "cp": "",
      "ville": "Barge",
      "adresse": "San Martino s.p. Str Prov 29 Km",
      "brand": "Agip Eni",
      "lat": 44.729755,
      "lng": 7.338554,
      "fuels": {
        "sp95": 1.929,
        "gazole": 2.059,
        "gplc": 0.734
      }
    },
    {
      "id": "48695",
      "cp": "",
      "ville": "Beinette",
      "adresse": "Via Martiri 98 12081",
      "brand": "Api-Ip",
      "lat": 44.369173154803626,
      "lng": 7.632966041564942,
      "fuels": {
        "sp95": 1.939,
        "gazole": 2.129
      }
    },
    {
      "id": "43299",
      "cp": "",
      "ville": "Beinette",
      "adresse": "Via Via Mondovi' 88 12081, Beinette (cn) 88 12081",
      "brand": "Saced",
      "lat": 44.375949254376316,
      "lng": 7.6775872711639295,
      "fuels": {
        "sp95": 1.938,
        "gazole": 2.138,
        "gplc": 0.698
      }
    },
    {
      "id": "41099",
      "cp": "",
      "ville": "Bene Vagienna",
      "adresse": "Via Trinita 19 12041",
      "brand": "Tamoil",
      "lat": 44.541074297201845,
      "lng": 7.824596464633942,
      "fuels": {
        "sp95": 1.899,
        "gazole": 2.099
      }
    },
    {
      "id": "13987",
      "cp": "",
      "ville": "Bene Vagienna",
      "adresse": "Viale Marconi 8 12041",
      "brand": "Api-Ip",
      "lat": 44.54348275713066,
      "lng": 7.828608771827703,
      "fuels": {
        "sp95": 1.939,
        "gazole": 2.159
      }
    },
    {
      "id": "15510",
      "cp": "",
      "ville": "Benevello",
      "adresse": "s.p.429 Savona-Alba Km 72+725, Localita' Manera 2/A 12050",
      "brand": "Api-Ip",
      "lat": 44.634497383563485,
      "lng": 8.111162334680557,
      "fuels": {
        "sp95": 1.939,
        "gazole": 2.159
      }
    },
    {
      "id": "58148",
      "cp": "",
      "ville": "Bernezzo",
      "adresse": "Cuneo 30 12010",
      "brand": "Api-Ip",
      "lat": 44.385712,
      "lng": 7.4416126,
      "fuels": {
        "sp95": 1.939,
        "gazole": 2.129
      }
    },
    {
      "id": "40018",
      "cp": "",
      "ville": "Bernezzo",
      "adresse": "Via Frazione San Rocco Via Valle Grana 16 12010, Bernezzo (cn) 16 12010",
      "brand": "Saced",
      "lat": 44.397320731420436,
      "lng": 7.4819885194301605,
      "fuels": {
        "sp95": 1.938,
        "gazole": 2.138,
        "gplc": 0.698
      }
    },
    {
      "id": "60283",
      "cp": "",
      "ville": "Borgo San Dalmazzo",
      "adresse": "Corso Barale 32 12011",
      "brand": "Agip Eni",
      "lat": 44.33300099017218,
      "lng": 7.490110978565965,
      "fuels": {
        "sp95": 1.944,
        "gazole": 2.054
      }
    },
    {
      "id": "11549",
      "cp": "",
      "ville": "Borgo San Dalmazzo",
      "adresse": "ss.20 km. 81+258 S/N 12011",
      "brand": "q8",
      "lat": 44.351106400846156,
      "lng": 7.508047521114349,
      "fuels": {
        "sp95": 1.899,
        "gazole": 2.049
      }
    },
    {
      "id": "60136",
      "cp": "",
      "ville": "Borgo San Dalmazzo",
      "adresse": "Via Cuneo 84/86 12011",
      "brand": "Conad",
      "lat": 44.34793246511676,
      "lng": 7.505641579627991,
      "fuels": {
        "sp95": 1.879,
        "gazole": 2.039,
        "gplc": 0.699
      }
    },
    {
      "id": "55088",
      "cp": "",
      "ville": "Borgo San Dalmazzo",
      "adresse": "Via Giacomo Matteotti 5 12011",
      "brand": "Esso",
      "lat": 44.3149332,
      "lng": 7.4781618,
      "fuels": {
        "sp95": 1.899,
        "gazole": 2.099
      }
    },
    {
      "id": "57107",
      "cp": "",
      "ville": "Borgo San Dalmazzo",
      "adresse": "Via Nizza  42 12011",
      "brand": "Europam",
      "lat": 44.32587862420849,
      "lng": 7.48394052410588,
      "fuels": {
        "sp95": 1.927,
        "gazole": 2.027
      }
    },
    {
      "id": "41069",
      "cp": "",
      "ville": "Borgo San Dalmazzo",
      "adresse": "Via Nizza 20 12011",
      "brand": "Agip Eni",
      "lat": 44.326433129854834,
      "lng": 7.485368740683725,
      "fuels": {
        "sp95": 1.944,
        "gazole": 2.074
      }
    },
    {
      "id": "20705",
      "cp": "",
      "ville": "Borgo San Dalmazzo",
      "adresse": "Via Rocchiuso 4 12011",
      "brand": "Pompe Bianche",
      "lat": 44.326639560129124,
      "lng": 7.489856779575348,
      "fuels": {
        "sp95": 1.895,
        "gazole": 2.075
      }
    },
    {
      "id": "26393",
      "cp": "",
      "ville": "Bosia",
      "adresse": "loc. Campetto- str. Provinciale 1 12050",
      "brand": "Pompe Bianche",
      "lat": 44.61177539346822,
      "lng": 8.147213100614408,
      "fuels": {
        "sp95": 1.953,
        "gazole": 2.153
      }
    },
    {
      "id": "38756",
      "cp": "",
      "ville": "Bossolasco",
      "adresse": "Circonvallazione Provinciale S/N 12060",
      "brand": "Tamoil",
      "lat": 44.528794268773474,
      "lng": 8.050009980797768,
      "fuels": {
        "sp95": 1.949,
        "gazole": 2.099
      }
    },
    {
      "id": "48102",
      "cp": "",
      "ville": "Boves",
      "adresse": "Corso Trieste . 12012",
      "brand": "Api-Ip",
      "lat": 44.33007008146895,
      "lng": 7.5516983411168015,
      "fuels": {
        "sp95": 1.939,
        "gazole": 2.139
      }
    },
    {
      "id": "40159",
      "cp": "",
      "ville": "Boves",
      "adresse": "Via Professor Mario Martini 12 12012",
      "brand": "Api-Ip",
      "lat": 44.34710160910958,
      "lng": 7.54624543484033,
      "fuels": {
        "sp95": 1.939,
        "gazole": 2.129,
        "gplc": 0.709
      }
    },
    {
      "id": "13316",
      "cp": "",
      "ville": "Boves",
      "adresse": "Via Via Santuario 18/C 12012, Boves (cn) 18c 12012",
      "brand": "Saced",
      "lat": 44.33607337534874,
      "lng": 7.533851712942123,
      "fuels": {
        "sp95": 1.938,
        "gazole": 2.138
      }
    },
    {
      "id": "48523",
      "cp": "",
      "ville": "Bra",
      "adresse": "231 Di Santa vittoria, km. 42+180, Cuneo - 12042",
      "brand": "Agip Eni",
      "lat": 44.69380895335833,
      "lng": 7.858541046627061,
      "fuels": {
        "sp95": 1.975,
        "gazole": 2.104
      }
    },
    {
      "id": "46784",
      "cp": "",
      "ville": "Bra",
      "adresse": "a6 Torino-savona, km. 29.776, Nord - 12042",
      "brand": "q8",
      "lat": 44.704758581313314,
      "lng": 7.7636108322453765,
      "fuels": {
        "sp95": 1.998,
        "gazole": 2.198,
        "gplc": 0.898
      }
    },
    {
      "id": "62713",
      "cp": "",
      "ville": "Bra",
      "adresse": "a6 Torino-savona, km. 29.776, Nord - 12042",
      "brand": "q8",
      "lat": 44.704758581313314,
      "lng": 7.7636108322453765,
      "fuels": {
        "gazole": 2.099
      }
    },
    {
      "id": "29342",
      "cp": "",
      "ville": "Bra",
      "adresse": "Piazza Giolitti  82 12042",
      "brand": "q8",
      "lat": 44.696589409917586,
      "lng": 7.845040142327889,
      "fuels": {
        "sp95": 1.969,
        "gazole": 2.089
      }
    },
    {
      "id": "41831",
      "cp": "",
      "ville": "Bra",
      "adresse": "Strada Statale 702, km. 3+589,50 dir. Bra  12042",
      "brand": "Pompe Bianche",
      "lat": 44.684753364598976,
      "lng": 7.829067707061768,
      "fuels": {
        "sp95": 1.929,
        "gazole": 2.019,
        "gplc": 0.739
      }
    },
    {
      "id": "58954",
      "cp": "",
      "ville": "Bra",
      "adresse": "Via Cuneo  ang. Via Rosselli  136",
      "brand": "Agip Eni",
      "lat": 44.68507,
      "lng": 7.8501353,
      "fuels": {
        "sp95": 1.949,
        "gazole": 2.079
      }
    },
    {
      "id": "4966",
      "cp": "",
      "ville": "Bra",
      "adresse": "Via Don Orione 118 12942",
      "brand": "Socogas",
      "lat": 44.712858991781495,
      "lng": 7.834268510341644,
      "fuels": {
        "sp95": 1.939,
        "gazole": 2.149,
        "gplc": 0.729
      }
    },
    {
      "id": "28394",
      "cp": "",
      "ville": "Bra",
      "adresse": "Via Don Orione 138 12042",
      "brand": "Api-Ip",
      "lat": 44.71785768559509,
      "lng": 7.827424854040146,
      "fuels": {
        "sp95": 1.949,
        "gazole": 2.119
      }
    },
    {
      "id": "40590",
      "cp": "",
      "ville": "Bra",
      "adresse": "Via Don Orione 18 12042",
      "brand": "Agip Eni",
      "lat": 44.709902896073714,
      "lng": 7.8391371232787606,
      "fuels": {
        "sp95": 1.949,
        "gazole": 2.079
      }
    },
    {
      "id": "33421",
      "cp": "",
      "ville": "Bra",
      "adresse": "Via l.einaudi - fraz.pollenzo  12042",
      "brand": "Europam",
      "lat": 44.6860791060954,
      "lng": 7.893958389759064,
      "fuels": {
        "sp95": 1.927,
        "gazole": 2.067
      }
    },
    {
      "id": "55519",
      "cp": "",
      "ville": "Bra",
      "adresse": "Via Vittorio Emanuele Ii 7  12042",
      "brand": "Europam",
      "lat": 44.7016296,
      "lng": 7.8457274,
      "fuels": {
        "sp95": 1.947,
        "gazole": 2.077
      }
    },
    {
      "id": "37099",
      "cp": "",
      "ville": "Brossasco",
      "adresse": "Via Provinciale  4 12020",
      "brand": "Api-Ip",
      "lat": 44.56929837446154,
      "lng": 7.363504022650886,
      "fuels": {
        "sp95": 1.969,
        "gazole": 2.139
      }
    },
    {
      "id": "52128",
      "cp": "",
      "ville": "Busca",
      "adresse": "589 Dei Laghi Di avigliana, km. 147, Busca - 12022",
      "brand": "Api-Ip",
      "lat": 44.53841883568332,
      "lng": 7.486561237283529,
      "fuels": {
        "sp95": 1.939,
        "gazole": 2.129,
        "gplc": 0.709
      }
    },
    {
      "id": "52547",
      "cp": "",
      "ville": "Busca",
      "adresse": "c.so Giovanni Xxiii  12022",
      "brand": "Agip Eni",
      "lat": 44.50740609957786,
      "lng": 7.48658479070612,
      "fuels": {
        "sp95": 1.949,
        "gazole": 2.079
      }
    },
    {
      "id": "20153",
      "cp": "",
      "ville": "Busca",
      "adresse": "Corso Romita 61 12022",
      "brand": "Esso",
      "lat": 44.522390555671926,
      "lng": 7.479046136140823,
      "fuels": {
        "sp95": 1.959,
        "gazole": 2.099
      }
    },
    {
      "id": "60275",
      "cp": "",
      "ville": "Busca",
      "adresse": "Via Laghi Di Avigliana Snc 12022",
      "brand": "Pompe Bianche",
      "lat": 44.51625,
      "lng": 7.47662,
      "fuels": {
        "sp95": 1.925,
        "gazole": 2.034
      }
    },
    {
      "id": "53264",
      "cp": "",
      "ville": "Camerana",
      "adresse": "prov. n. 439km 23+518 Snc 12072",
      "brand": "Api-Ip",
      "lat": 44.44616,
      "lng": 8.14068,
      "fuels": {
        "sp95": 1.989,
        "gazole": 2.159
      }
    },
    {
      "id": "62471",
      "cp": "",
      "ville": "Canale",
      "adresse": "Alba 46 12043",
      "brand": "Esso",
      "lat": 44.79315097058092,
      "lng": 7.998990957204743,
      "fuels": {
        "sp95": 1.929,
        "gazole": 2.089
      }
    },
    {
      "id": "10104",
      "cp": "",
      "ville": "Canale",
      "adresse": "Strada Regionale 29  12043",
      "brand": "Api-Ip",
      "lat": 44.78881705714008,
      "lng": 8.00281047821045,
      "fuels": {
        "sp95": 1.869,
        "gazole": 2.059
      }
    },
    {
      "id": "35889",
      "cp": "",
      "ville": "Caraglio",
      "adresse": "Cesare Battisti 51 12023",
      "brand": "Agip Eni",
      "lat": 44.41754618958462,
      "lng": 7.433831574239775,
      "fuels": {
        "sp95": 1.959,
        "gazole": 2.069
      }
    },
    {
      "id": "11547",
      "cp": "",
      "ville": "Caraglio",
      "adresse": "Via c.battisti - ss. 22 86 12023",
      "brand": "q8",
      "lat": 44.414988504756714,
      "lng": 7.436464373016406,
      "fuels": {
        "sp95": 1.999,
        "gazole": 2.129
      }
    },
    {
      "id": "37186",
      "cp": "",
      "ville": "Caraglio",
      "adresse": "Via Centallo  19 12023",
      "brand": "Dis-Car",
      "lat": 44.42478395155908,
      "lng": 7.44167223572731,
      "fuels": {
        "sp95": 1.969,
        "gazole": 2.169,
        "gplc": 0.739
      }
    },
    {
      "id": "17541",
      "cp": "",
      "ville": "Caraglio",
      "adresse": "Via Divisione Cuneese  12023",
      "brand": "Api-Ip",
      "lat": 44.40861866301707,
      "lng": 7.442344129085541,
      "fuels": {
        "sp95": 1.889,
        "gazole": 1.989
      }
    },
    {
      "id": "54002",
      "cp": "",
      "ville": "Caramagna Piemonte",
      "adresse": "Reale 130 12030",
      "brand": "Api-Ip",
      "lat": 44.78398369642803,
      "lng": 7.730178905419936,
      "fuels": {
        "sp95": 1.949,
        "gazole": 2.119
      }
    },
    {
      "id": "46986",
      "cp": "",
      "ville": "Carrù",
      "adresse": "Strada Provinciale Clavesana 59 12061",
      "brand": "Sia Fuel",
      "lat": 44.48388142751854,
      "lng": 7.892170940303799,
      "fuels": {
        "sp95": 1.945,
        "gazole": 2.139,
        "e85": 1.685
      }
    },
    {
      "id": "60534",
      "cp": "",
      "ville": "Carrù",
      "adresse": "Via Circonvallazione s.p.no9 km. 7+940  9",
      "brand": "Agip Eni",
      "lat": 44.4815,
      "lng": 7.871233,
      "fuels": {
        "sp95": 1.934,
        "gazole": 2.059
      }
    },
    {
      "id": "48675",
      "cp": "",
      "ville": "Carrù",
      "adresse": "Viale Vittorio Veneto 70 12061",
      "brand": "Api-Ip",
      "lat": 44.478356745987185,
      "lng": 7.869748065673718,
      "fuels": {
        "sp95": 1.919,
        "gazole": 2.099
      }
    },
    {
      "id": "59593",
      "cp": "",
      "ville": "Casalgrasso",
      "adresse": "663 km.10+810 Snc 12030",
      "brand": "Api-Ip",
      "lat": 44.81479628950558,
      "lng": 7.619416296165453,
      "fuels": {
        "sp95": 1.889,
        "gazole": 2.129
      }
    },
    {
      "id": "59599",
      "cp": "",
      "ville": "Casalgrasso",
      "adresse": "Torino 91 12035",
      "brand": "Esso",
      "lat": 44.823005176972714,
      "lng": 7.62569523797914,
      "fuels": {
        "sp95": 1.939,
        "gazole": 2.099
      }
    },
    {
      "id": "47451",
      "cp": "",
      "ville": "Castagnito",
      "adresse": "231 Di Santa vittoria, km. km.23+200, Santa Vittoria - 12050",
      "brand": "Api-Ip",
      "lat": 44.743862693420226,
      "lng": 8.058531788566054,
      "fuels": {
        "sp95": 1.929,
        "gazole": 2.099,
        "gplc": 0.699
      }
    },
    {
      "id": "38994",
      "cp": "",
      "ville": "Casteldelfino",
      "adresse": "Via Circonvallazione 6 12020",
      "brand": "Pompe Bianche",
      "lat": 44.590117858642735,
      "lng": 7.068687455365989,
      "fuels": {
        "sp95": 1.88,
        "gazole": 1.98
      }
    },
    {
      "id": "59937",
      "cp": "",
      "ville": "Cavallermaggiore",
      "adresse": "Statale 20 12030",
      "brand": "Itala Petroli",
      "lat": 44.718459,
      "lng": 7.686198,
      "fuels": {
        "sp95": 1.959,
        "gazole": 2.129,
        "gplc": 0.728
      }
    },
    {
      "id": "59173",
      "cp": "",
      "ville": "Cavallermaggiore",
      "adresse": "Via Cuneo 22 12030",
      "brand": "Agip Eni",
      "lat": 44.699145184846756,
      "lng": 7.684624235151669,
      "fuels": {
        "sp95": 1.904,
        "gazole": 1.999
      }
    },
    {
      "id": "61776",
      "cp": "",
      "ville": "Centallo",
      "adresse": "Localita' Pedaggio Sottano s.s. 231 Km 74 + 559   12044",
      "brand": "Pompe Bianche",
      "lat": 44.464,
      "lng": 7.63173,
      "fuels": {
        "sp95": 1.899,
        "gazole": 2.059,
        "gplc": 0.699
      }
    },
    {
      "id": "61483",
      "cp": "",
      "ville": "Centallo",
      "adresse": "San Quirico 615/Bis 12044",
      "brand": "Api-Ip",
      "lat": 44.49026971380268,
      "lng": 7.5777351957114965,
      "fuels": {
        "sp95": 1.939,
        "gazole": 2.129
      }
    },
    {
      "id": "58147",
      "cp": "",
      "ville": "Centallo",
      "adresse": "Vittorio Emanuele Ii 38 12044",
      "brand": "Api-Ip",
      "lat": 44.500298070455216,
      "lng": 7.585699037565519,
      "fuels": {
        "sp95": 1.929,
        "gazole": 2.119
      }
    },
    {
      "id": "51542",
      "cp": "",
      "ville": "Ceresole Alba",
      "adresse": "s.p. 10 km.21+225  12040",
      "brand": "Api-Ip",
      "lat": 44.80318283734893,
      "lng": 7.801283411045059,
      "fuels": {
        "sp95": 1.929,
        "gazole": 2.149,
        "gplc": 0.749
      }
    },
    {
      "id": "30839",
      "cp": "",
      "ville": "Ceresole Alba",
      "adresse": "Via Carmagnola 8 12040",
      "brand": "Europam",
      "lat": 44.802300704306276,
      "lng": 7.81138594841002,
      "fuels": {
        "sp95": 1.927,
        "gazole": 2.057
      }
    },
    {
      "id": "30838",
      "cp": "",
      "ville": "Cervasca",
      "adresse": "Via Borgo San Dalmazzo 21 12010",
      "brand": "Api-Ip",
      "lat": 44.3802037714067,
      "lng": 7.4705746267225095,
      "fuels": {
        "sp95": 1.979,
        "gazole": 2.119
      }
    },
    {
      "id": "59175",
      "cp": "",
      "ville": "Cervere",
      "adresse": "Via Bra 24 12040",
      "brand": "Agip Eni",
      "lat": 44.63877990104924,
      "lng": 7.792146483513647,
      "fuels": {
        "sp95": 1.904,
        "gazole": 1.999
      }
    },
    {
      "id": "55835",
      "cp": "",
      "ville": "Cervere",
      "adresse": "Via Fossano 32 12040",
      "brand": "Europam",
      "lat": 44.5411843,
      "lng": 7.7710643,
      "fuels": {
        "sp95": 1.939,
        "gazole": 2.139
      }
    },
    {
      "id": "4938",
      "cp": "",
      "ville": "Ceva",
      "adresse": "Sp 225 51 12073",
      "brand": "Tamoil",
      "lat": 44.376316089557044,
      "lng": 8.037598729133606,
      "fuels": {
        "sp95": 1.899,
        "gazole": 2.099,
        "gplc": 0.749
      }
    },
    {
      "id": "33376",
      "cp": "",
      "ville": "Ceva",
      "adresse": "Statale 28 Del Colle Di nava, km. 53,47, dir. Mondovì - 12073",
      "brand": "Agip Eni",
      "lat": 44.38791057483739,
      "lng": 8.033965677022934,
      "fuels": {
        "sp95": 1.949,
        "gazole": 2.079
      }
    },
    {
      "id": "59592",
      "cp": "",
      "ville": "Ceva",
      "adresse": "Via Giuseppe Romita 17  12073",
      "brand": "Api-Ip",
      "lat": 44.386275,
      "lng": 8.0211317,
      "fuels": {
        "sp95": 1.919,
        "gazole": 2.099
      }
    },
    {
      "id": "34125",
      "cp": "",
      "ville": "Ceva",
      "adresse": "Via Via Consolata 79 12073, Ceva (cn) 72 12073",
      "brand": "Socogas",
      "lat": 44.38740414871915,
      "lng": 8.044181720237702,
      "fuels": {
        "sp95": 1.929,
        "gazole": 2.069,
        "gplc": 0.799
      }
    },
    {
      "id": "52815",
      "cp": "",
      "ville": "Cherasco",
      "adresse": "Frazione Roreto Strada Statale 662 Km 1 + 212 S/N 12062, Cherasco (cn) +212 S/N 12062",
      "brand": "Dis-Car",
      "lat": 44.66782759012737,
      "lng": 7.817266222143542,
      "fuels": {
        "sp95": 1.915,
        "gazole": 2.099,
        "gplc": 0.715
      }
    },
    {
      "id": "56617",
      "cp": "",
      "ville": "Cherasco",
      "adresse": "s.p.58 km.12+077 S/N - 12051",
      "brand": "Tamoil",
      "lat": 44.650770613161896,
      "lng": 7.867714005772406,
      "fuels": {
        "sp95": 1.899,
        "gazole": 2.099
      }
    },
    {
      "id": "54213",
      "cp": "",
      "ville": "Cherasco",
      "adresse": "sp. 661 km. 26+240 - c.so Einaudi 14",
      "brand": "Tamoil",
      "lat": 44.6450767,
      "lng": 7.85850809,
      "fuels": {
        "sp95": 1.949,
        "gazole": 2.069
      }
    },
    {
      "id": "18253",
      "cp": "",
      "ville": "Cherasco",
      "adresse": "Strada Provinciale 662, Km 2+244  12062",
      "brand": "q8",
      "lat": 44.666466021813584,
      "lng": 7.805456221103668,
      "fuels": {
        "sp95": 1.889,
        "gazole": 2.129,
        "gplc": 0.729
      }
    },
    {
      "id": "12648",
      "cp": "",
      "ville": "Cherasco",
      "adresse": "Strada Provinciale Fondovalle 12 Km 0+680  12062",
      "brand": "Pompe Bianche",
      "lat": 44.64581754587524,
      "lng": 7.866538166999817,
      "fuels": {
        "sp95": 1.939,
        "gazole": 2.099,
        "e85": 1.699,
        "gplc": 0.739
      }
    },
    {
      "id": "12646",
      "cp": "",
      "ville": "Cherasco",
      "adresse": "Via Bergoglio 25 12062",
      "brand": "Pompe Bianche",
      "lat": 44.66718557034076,
      "lng": 7.852113246917725,
      "fuels": {
        "sp95": 1.879,
        "gazole": 2.019
      }
    },
    {
      "id": "46096",
      "cp": "",
      "ville": "Chiusa Di Pesio",
      "adresse": "Via Provinciale Beinette 17 12013",
      "brand": "Europam",
      "lat": 44.32852008973817,
      "lng": 7.669884574224284,
      "fuels": {
        "sp95": 1.957,
        "gazole": 2.097
      }
    },
    {
      "id": "42053",
      "cp": "",
      "ville": "Cortemilia",
      "adresse": "29 Del Colle Di cadibona, km. 89+950, Cuneo 48 12074",
      "brand": "Api-Ip",
      "lat": 44.58405666374605,
      "lng": 8.191838328241715,
      "fuels": {
        "sp95": 1.959,
        "gazole": 2.099
      }
    },
    {
      "id": "25012",
      "cp": "",
      "ville": "Cortemilia",
      "adresse": "Corso Divisioni Alpine 193 12074",
      "brand": "Pompe Bianche",
      "lat": 44.57297915825567,
      "lng": 8.20094458758831,
      "fuels": {
        "sp95": 2.018,
        "gazole": 2.168,
        "gplc": 0.828
      }
    },
    {
      "id": "32174",
      "cp": "",
      "ville": "Cortemilia",
      "adresse": "Via Piazza Savona Sn 12074, Cortemilia (cn) Sn 12074",
      "brand": "Dis-Car",
      "lat": 44.5778752326311,
      "lng": 8.196327381946276,
      "fuels": {
        "sp95": 1.915,
        "gazole": 2.095
      }
    },
    {
      "id": "32372",
      "cp": "",
      "ville": "Cuneo",
      "adresse": "c.so Monviso 31 12100",
      "brand": "Api-Ip",
      "lat": 44.382434504935645,
      "lng": 7.531951720237771,
      "fuels": {
        "sp95": 1.969,
        "gazole": 2.129
      }
    },
    {
      "id": "58902",
      "cp": "",
      "ville": "Cuneo",
      "adresse": "Corso a. De Gasperi 72 12100",
      "brand": "Api-Ip",
      "lat": 44.37229534292166,
      "lng": 7.521890998474112,
      "fuels": {
        "sp95": 1.919,
        "gazole": 2.099,
        "gplc": 0.697
      }
    },
    {
      "id": "48449",
      "cp": "",
      "ville": "Cuneo",
      "adresse": "Corso Francia 236 12100",
      "brand": "Agip Eni",
      "lat": 44.35627118996407,
      "lng": 7.513515231213392,
      "fuels": {
        "sp95": 1.909,
        "gazole": 2.024
      }
    },
    {
      "id": "62059",
      "cp": "",
      "ville": "Cuneo",
      "adresse": "Corso Francia 48/B 12100",
      "brand": "Esso",
      "lat": 44.3689636,
      "lng": 7.5355662,
      "fuels": {
        "sp95": 1.919,
        "gazole": 2.099
      }
    },
    {
      "id": "60276",
      "cp": "",
      "ville": "Cuneo",
      "adresse": "Corso Iv Novembre 20  12100",
      "brand": "Pompe Bianche",
      "lat": 44.3891191,
      "lng": 7.5394957,
      "fuels": {
        "sp95": 1.635,
        "gazole": 1.624
      }
    },
    {
      "id": "59511",
      "cp": "",
      "ville": "Cuneo",
      "adresse": "Corso Monviso 4  12100",
      "brand": "Europam",
      "lat": 44.3850912,
      "lng": 7.5348169,
      "fuels": {
        "sp95": 1.917,
        "gazole": 2.067
      }
    },
    {
      "id": "11546",
      "cp": "",
      "ville": "Cuneo",
      "adresse": "Corso Nizza S/N 12100",
      "brand": "q8",
      "lat": 44.37921693990181,
      "lng": 7.537520699405604,
      "fuels": {
        "sp95": 1.959,
        "gazole": 2.089
      }
    },
    {
      "id": "61242",
      "cp": "",
      "ville": "Cuneo",
      "adresse": "Discesa Bellavista  12100",
      "brand": "Socogas",
      "lat": 44.3944411,
      "lng": 7.54815478,
      "fuels": {
        "sp95": 1.939,
        "gazole": 2.099,
        "gplc": 0.709
      }
    },
    {
      "id": "52669",
      "cp": "",
      "ville": "Cuneo",
      "adresse": "Francia 20 12100",
      "brand": "Agip Eni",
      "lat": 44.37464836499394,
      "lng": 7.532462512489331,
      "fuels": {
        "sp95": 1.944,
        "gazole": 2.054
      }
    },
    {
      "id": "59137",
      "cp": "",
      "ville": "Cuneo",
      "adresse": "fraz. Madonna Dell'Olmo Via Torino  135 00",
      "brand": "Agip Eni",
      "lat": 44.41241,
      "lng": 7.552894,
      "fuels": {
        "sp95": 1.929,
        "gazole": 2.079,
        "e85": 1.552,
        "gplc": 0.754
      }
    },
    {
      "id": "60444",
      "cp": "",
      "ville": "Cuneo",
      "adresse": "loc. Tetto garetto, Via Savona  82",
      "brand": "Agip Eni",
      "lat": 44.389244,
      "lng": 7.5788417,
      "fuels": {
        "sp95": 1.929,
        "gazole": 2.079
      }
    },
    {
      "id": "50556",
      "cp": "",
      "ville": "Cuneo",
      "adresse": "Piazza Torino 1 12100",
      "brand": "Agip Eni",
      "lat": 44.39554428079672,
      "lng": 7.554247248971144,
      "fuels": {
        "sp95": 1.864,
        "gazole": 1.964
      }
    },
    {
      "id": "43871",
      "cp": "",
      "ville": "Cuneo",
      "adresse": "sp21 Cuneo Boves 1+260 12100",
      "brand": "Esso",
      "lat": 44.38068816889851,
      "lng": 7.558678075432113,
      "fuels": {
        "sp95": 1.896,
        "gazole": 2.099
      }
    },
    {
      "id": "52790",
      "cp": "",
      "ville": "Cuneo",
      "adresse": "Torino 1 12100",
      "brand": "Dis-Car",
      "lat": 44.39585187075976,
      "lng": 7.554946180487048,
      "fuels": {
        "sp95": 1.919,
        "gazole": 2.099
      }
    },
    {
      "id": "53966",
      "cp": "",
      "ville": "Cuneo",
      "adresse": "Torino 238a/B/C 12100",
      "brand": "Api-Ip",
      "lat": 44.42595740763378,
      "lng": 7.556512355804443,
      "fuels": {
        "sp95": 1.919,
        "gazole": 2.099,
        "gplc": 0.749
      }
    },
    {
      "id": "62470",
      "cp": "",
      "ville": "Cuneo",
      "adresse": "Torino 94 12100",
      "brand": "Esso",
      "lat": 44.409309343090676,
      "lng": 7.552303304419867,
      "fuels": {
        "sp95": 1.839,
        "gazole": 1.929
      }
    },
    {
      "id": "52822",
      "cp": "",
      "ville": "Cuneo",
      "adresse": "Torre Acceglio Sn 12100",
      "brand": "Dis-Car",
      "lat": 44.38678228565071,
      "lng": 7.569515939855944,
      "fuels": {
        "sp95": 1.919,
        "gazole": 2.099
      }
    },
    {
      "id": "48104",
      "cp": "",
      "ville": "Cuneo",
      "adresse": "Via Bisalta 34 12100",
      "brand": "Api-Ip",
      "lat": 44.387051000123,
      "lng": 7.559351000123,
      "fuels": {
        "sp95": 1.939,
        "gazole": 2.129
      }
    },
    {
      "id": "37489",
      "cp": "",
      "ville": "Cuneo",
      "adresse": "Via Cascina Colombaro 26/A 12100",
      "brand": "Enercoop",
      "lat": 44.378166101041806,
      "lng": 7.523350864648819,
      "fuels": {
        "sp95": 1.875,
        "gazole": 2.079,
        "gplc": 0.699
      }
    },
    {
      "id": "23863",
      "cp": "",
      "ville": "Cuneo",
      "adresse": "Via Del Passatore 222 12100",
      "brand": "Pompe Bianche",
      "lat": 44.43178812930369,
      "lng": 7.506279176914404,
      "fuels": {
        "sp95": 1.899,
        "gazole": 1.999
      }
    },
    {
      "id": "7291",
      "cp": "",
      "ville": "Cuneo",
      "adresse": "Via Dell'Automobile Club C/O c.c. Grand'A Sn 12100",
      "brand": "q8",
      "lat": 44.423482127152454,
      "lng": 7.554105073213577,
      "fuels": {
        "sp95": 1.899,
        "gazole": 2.049,
        "gplc": 0.749
      }
    },
    {
      "id": "10531",
      "cp": "",
      "ville": "Cuneo",
      "adresse": "Via f.lli Ceirano 100 12100",
      "brand": "Centro Calor",
      "lat": 44.42627078494638,
      "lng": 7.563630938529968,
      "fuels": {
        "sp95": 1.929,
        "gazole": 2.109
      }
    },
    {
      "id": "37781",
      "cp": "",
      "ville": "Cuneo",
      "adresse": "Via fraz. Ronchi - Area Miac  - Via Bra 77 12100, Cuneo (cn) 77 12100",
      "brand": "Saced",
      "lat": 44.42972682740882,
      "lng": 7.567491307854652,
      "fuels": {
        "sp95": 1.938,
        "gazole": 2.138
      }
    },
    {
      "id": "50287",
      "cp": "",
      "ville": "Cuneo",
      "adresse": "Via Margarita 8 12100",
      "brand": "Auchan",
      "lat": 44.3936188247127,
      "lng": 7.585062914707486,
      "fuels": {
        "sp95": 1.834,
        "gazole": 1.929
      }
    },
    {
      "id": "51415",
      "cp": "",
      "ville": "Cuneo",
      "adresse": "Via Roncata 108  12100",
      "brand": "Socogas",
      "lat": 44.398596,
      "lng": 7.5370154,
      "fuels": {
        "sp95": 1.959,
        "gazole": 2.099,
        "gplc": 0.769
      }
    },
    {
      "id": "53997",
      "cp": "",
      "ville": "Cuneo",
      "adresse": "Via s.p.n.3 Al km.0,359 Per Castelletto Stura Sn 12100, Cuneo (cn) 44  12100",
      "brand": "Api-Ip",
      "lat": 44.3947849,
      "lng": 7.56493392,
      "fuels": {
        "sp95": 1.919,
        "gazole": 2.099
      }
    },
    {
      "id": "55774",
      "cp": "",
      "ville": "Cuneo",
      "adresse": "Via s.s.20 Al km.74+463 Via Torino  19 12100",
      "brand": "q8",
      "lat": 44.4002302,
      "lng": 7.54090055,
      "fuels": {
        "sp95": 1.939,
        "gazole": 2.045,
        "gplc": 0.749
      }
    },
    {
      "id": "37990",
      "cp": "",
      "ville": "Cuneo",
      "adresse": "Via Savona 50 12100",
      "brand": "q8",
      "lat": 44.391067586722095,
      "lng": 7.5703535824959545,
      "fuels": {
        "sp95": 1.919,
        "gazole": 2.109
      }
    },
    {
      "id": "63111",
      "cp": "",
      "ville": "Cuneo",
      "adresse": "Via Torino  12100",
      "brand": "Esso",
      "lat": 44.40920070700169,
      "lng": 7.552448581974332,
      "fuels": {
        "sp95": 1.919,
        "gazole": 2.099
      }
    },
    {
      "id": "43501",
      "cp": "",
      "ville": "Cuneo",
      "adresse": "Via torino, 61  12100",
      "brand": "Europam",
      "lat": 44.40443339527487,
      "lng": 7.545756329447727,
      "fuels": {
        "sp95": 1.917,
        "gazole": 2.037
      }
    },
    {
      "id": "56337",
      "cp": "",
      "ville": "Cuneo",
      "adresse": "Via Valle Maira 72 12100",
      "brand": "Api-Ip",
      "lat": 44.39479,
      "lng": 7.52907,
      "fuels": {
        "sp95": 1.986,
        "gazole": 2.146
      }
    },
    {
      "id": "62354",
      "cp": "",
      "ville": "Cuneo",
      "adresse": "Via Valle Po 42  12100",
      "brand": "Api-Ip",
      "lat": 44.4149816,
      "lng": 7.5499968,
      "fuels": {
        "sp95": 1.919,
        "gazole": 2.049
      }
    },
    {
      "id": "36162",
      "cp": "",
      "ville": "Cuneo",
      "adresse": "Viadotto Soleri 1 12100",
      "brand": "Agip Eni",
      "lat": 44.39145225864856,
      "lng": 7.542913556098938,
      "fuels": {
        "sp95": 1.944,
        "gazole": 2.074
      }
    },
    {
      "id": "40485",
      "cp": "",
      "ville": "Demonte",
      "adresse": "Piazza Renzo Spada 23 12014",
      "brand": "Europam",
      "lat": 44.31469074330076,
      "lng": 7.294538570535451,
      "fuels": {
        "sp95": 1.947,
        "gazole": 2.057
      }
    },
    {
      "id": "35148",
      "cp": "",
      "ville": "Demonte",
      "adresse": "Via Maggiore Borello 36 12014",
      "brand": "Pompe Bianche",
      "lat": 44.31608175866428,
      "lng": 7.305584663368222,
      "fuels": {
        "sp95": 1.947,
        "gazole": 2.057
      }
    },
    {
      "id": "58812",
      "cp": "",
      "ville": "Diano D'Alba",
      "adresse": "Corso Cortemilia 4 12055",
      "brand": "Api-Ip",
      "lat": 44.67393271544781,
      "lng": 8.039803504943848,
      "fuels": {
        "sp95": 1.969,
        "gazole": 2.089
      }
    },
    {
      "id": "11552",
      "cp": "",
      "ville": "Diano D'Alba",
      "adresse": "ss. 29 km. 65+805 S/N 12055",
      "brand": "q8",
      "lat": 44.651825695591164,
      "lng": 8.052379041910172,
      "fuels": {
        "sp95": 1.989,
        "gazole": 2.059
      }
    },
    {
      "id": "11554",
      "cp": "",
      "ville": "Dogliani",
      "adresse": "Via Torino 8 12063",
      "brand": "q8",
      "lat": 44.53608903427382,
      "lng": 7.936050295829773,
      "fuels": {
        "sp95": 1.939,
        "gazole": 2.089
      }
    },
    {
      "id": "13363",
      "cp": "",
      "ville": "Dronero",
      "adresse": "Cuneo 41 12025",
      "brand": "Api-Ip",
      "lat": 44.454682683165814,
      "lng": 7.384887188673019,
      "fuels": {
        "sp95": 1.939,
        "gazole": 2.119
      }
    },
    {
      "id": "39612",
      "cp": "",
      "ville": "Dronero",
      "adresse": "Via Provinciale Busca 14 12025",
      "brand": "Agip Eni",
      "lat": 44.46945644964491,
      "lng": 7.369548592531146,
      "fuels": {
        "sp95": 1.945,
        "gazole": 2.054
      }
    },
    {
      "id": "54870",
      "cp": "",
      "ville": "Farigliano",
      "adresse": "str. Provinciale Delle Langhe 9 12060",
      "brand": "Socogas",
      "lat": 44.50616336575898,
      "lng": 7.899930091242173,
      "fuels": {
        "sp95": 1.959,
        "gazole": 2.149,
        "gplc": 0.769
      }
    },
    {
      "id": "20992",
      "cp": "",
      "ville": "Feisoglio",
      "adresse": "Via Via Firenze -s.p. 31 Km 0 + 536 31 12050, Feisoglio (cn) 31 12050",
      "brand": "Saced",
      "lat": 44.5454271631702,
      "lng": 8.105630949139595,
      "fuels": {
        "sp95": 1.998,
        "gazole": 2.158
      }
    },
    {
      "id": "46826",
      "cp": "",
      "ville": "Fossano",
      "adresse": "a6 Torino-savona, km. 47,8, Sud - 12045",
      "brand": "q8",
      "lat": 44.54863217333317,
      "lng": 7.784761054211117,
      "fuels": {
        "sp95": 1.976,
        "gazole": 2.132
      }
    },
    {
      "id": "46783",
      "cp": "",
      "ville": "Fossano",
      "adresse": "a6 Torino-savona, km. 78, Est - 12045",
      "brand": "Sarni Oil",
      "lat": 44.549179647262946,
      "lng": 7.7857239309496435,
      "fuels": {
        "sp95": 1.998,
        "gazole": 2.189
      }
    },
    {
      "id": "62712",
      "cp": "",
      "ville": "Fossano",
      "adresse": "a6 Torino-savona, km. 78, Est - 12045",
      "brand": "Sarni Oil",
      "lat": 44.549179647262946,
      "lng": 7.7857239309496435,
      "fuels": {
        "gazole": 2.098
      }
    },
    {
      "id": "21002",
      "cp": "",
      "ville": "Fossano",
      "adresse": "Circonvallazione 31 12045",
      "brand": "Api-Ip",
      "lat": 44.547801197520265,
      "lng": 7.711724060713209,
      "fuels": {
        "sp95": 1.929,
        "gazole": 2.029
      }
    },
    {
      "id": "62518",
      "cp": "",
      "ville": "Fossano",
      "adresse": "Regina Elena s.s.231 km60+233 Snc 12045",
      "brand": "Agip Eni",
      "lat": 44.56164718354282,
      "lng": 7.7402913587012785,
      "fuels": {
        "sp95": 1.944,
        "gazole": 2.054
      }
    },
    {
      "id": "37545",
      "cp": "",
      "ville": "Fossano",
      "adresse": "Sp 165 Fossano - Marene  12045",
      "brand": "Api-Ip",
      "lat": 44.59973528330508,
      "lng": 7.733960882524116,
      "fuels": {
        "sp95": 1.989,
        "gazole": 2.109
      }
    },
    {
      "id": "62596",
      "cp": "",
      "ville": "Fossano",
      "adresse": "ss.28. Via Torino  37",
      "brand": "Agip Eni",
      "lat": 44.55701,
      "lng": 7.7118635,
      "fuels": {
        "sp95": 2.129,
        "gazole": 2.224
      }
    },
    {
      "id": "15023",
      "cp": "",
      "ville": "Fossano",
      "adresse": "Via Ceresolia 1 12045",
      "brand": "Pompe Bianche",
      "lat": 44.5547316050886,
      "lng": 7.712951320209413,
      "fuels": {
        "sp95": 1.899,
        "gazole": 2.039,
        "gplc": 0.729
      }
    },
    {
      "id": "44916",
      "cp": "",
      "ville": "Fossano",
      "adresse": "Via Cuneo  25 12045",
      "brand": "Agip Eni",
      "lat": 44.542440000123,
      "lng": 7.719824000123,
      "fuels": {
        "sp95": 1.949,
        "gazole": 2.079
      }
    },
    {
      "id": "20821",
      "cp": "",
      "ville": "Fossano",
      "adresse": "Via Cuneo 12 12045",
      "brand": "Europam",
      "lat": 44.54375143433947,
      "lng": 7.720565646886826,
      "fuels": {
        "sp95": 1.899,
        "gazole": 2.159
      }
    },
    {
      "id": "20369",
      "cp": "",
      "ville": "Fossano",
      "adresse": "Via Cuneo 23 12045",
      "brand": "Esso",
      "lat": 44.54290968980079,
      "lng": 7.720530374205055,
      "fuels": {
        "sp95": 1.899,
        "gazole": 2.099
      }
    },
    {
      "id": "47523",
      "cp": "",
      "ville": "Fossano",
      "adresse": "Via Cuneo 28 12045",
      "brand": "Tamoil",
      "lat": 44.541544000123,
      "lng": 7.718858000123,
      "fuels": {
        "sp95": 1.929,
        "gazole": 2.139
      }
    },
    {
      "id": "48100",
      "cp": "",
      "ville": "Fossano",
      "adresse": "Via Dell'Aeroporto (mellea) 2 12045",
      "brand": "Api-Ip",
      "lat": 44.540431647162194,
      "lng": 7.61251536454103,
      "fuels": {
        "sp95": 1.939,
        "gazole": 2.129
      }
    },
    {
      "id": "54976",
      "cp": "",
      "ville": "Fossano",
      "adresse": "Via Villafalletto 29/A  12045",
      "brand": "Esso",
      "lat": 44.5462999,
      "lng": 7.70810008,
      "fuels": {
        "sp95": 1.945,
        "gazole": 2.059,
        "gplc": 0.749
      }
    },
    {
      "id": "11550",
      "cp": "",
      "ville": "Fossano",
      "adresse": "Viale Regina Elena ss.231 63 12045",
      "brand": "q8",
      "lat": 44.56126942280287,
      "lng": 7.739332186508136,
      "fuels": {
        "sp95": 1.959,
        "gazole": 2.089
      }
    },
    {
      "id": "61778",
      "cp": "",
      "ville": "Frabosa Sottana",
      "adresse": "Via Gosi  12083",
      "brand": "Pompe Bianche",
      "lat": 44.34001080693093,
      "lng": 7.7777213364929265,
      "fuels": {
        "sp95": 1.889,
        "gazole": 2.029
      }
    },
    {
      "id": "11300",
      "cp": "",
      "ville": "Frabosa Sottana",
      "adresse": "Via Iv Novembre 1 12083",
      "brand": "Api-Ip",
      "lat": 44.30184770009087,
      "lng": 7.797337174415588,
      "fuels": {
        "sp95": 1.929,
        "gazole": 2.099
      }
    },
    {
      "id": "46749",
      "cp": "",
      "ville": "Gaiola",
      "adresse": "21 Della maddalena, km. 7+174, Gaiola - 12010",
      "brand": "Api-Ip",
      "lat": 44.332836080488015,
      "lng": 7.403558045625687,
      "fuels": {
        "sp95": 1.959,
        "gazole": 2.159
      }
    },
    {
      "id": "52243",
      "cp": "",
      "ville": "Garessio",
      "adresse": "28 Del Colle Di nava, km. 76+850, Torino - 12075",
      "brand": "Agip Eni",
      "lat": 44.20897911773272,
      "lng": 8.015127225794968,
      "fuels": {
        "sp95": 1.944,
        "gazole": 2.054
      }
    },
    {
      "id": "16869",
      "cp": "",
      "ville": "Garessio",
      "adresse": "Via Nazionale A Valle 25 12075",
      "brand": "Api-Ip",
      "lat": 44.2141651456405,
      "lng": 8.014251440763474,
      "fuels": {
        "sp95": 1.949,
        "gazole": 2.139
      }
    },
    {
      "id": "11553",
      "cp": "",
      "ville": "Genola",
      "adresse": "Via Marconi 48 C/O Cc Iper Bennet 48 12040",
      "brand": "q8",
      "lat": 44.59223935991894,
      "lng": 7.659507840871811,
      "fuels": {
        "sp95": 1.929,
        "gazole": 2.069
      }
    },
    {
      "id": "11555",
      "cp": "",
      "ville": "Govone",
      "adresse": "s.s. 231 km. 16+590 S/N 12040",
      "brand": "q8",
      "lat": 44.7925532969788,
      "lng": 8.111442915344242,
      "fuels": {
        "sp95": 1.949,
        "gazole": 2.069
      }
    },
    {
      "id": "11557",
      "cp": "",
      "ville": "Guarene",
      "adresse": "Corso Asti 82 12050",
      "brand": "q8",
      "lat": 44.73253680756105,
      "lng": 8.048505890703154,
      "fuels": {
        "sp95": 1.879,
        "gazole": 2.059
      }
    },
    {
      "id": "46149",
      "cp": "",
      "ville": "La Morra",
      "adresse": "Via Richieri 38 12064",
      "brand": "Europam",
      "lat": 44.64363851640148,
      "lng": 7.930246901801638,
      "fuels": {
        "sp95": 1.947,
        "gazole": 2.047
      }
    },
    {
      "id": "52533",
      "cp": "",
      "ville": "Lagnasco",
      "adresse": "Via Circonvallazione 3 12030",
      "brand": "Api-Ip",
      "lat": 44.62962816621577,
      "lng": 7.560582607984543,
      "fuels": {
        "sp95": 1.939,
        "gazole": 2.129
      }
    },
    {
      "id": "48103",
      "cp": "",
      "ville": "Lequio Tanaro",
      "adresse": "Via Fondovalle 19 12060",
      "brand": "Api-Ip",
      "lat": 44.56895449047516,
      "lng": 7.901057116567598,
      "fuels": {
        "sp95": 1.939,
        "gazole": 2.129
      }
    },
    {
      "id": "38136",
      "cp": "",
      "ville": "Levice",
      "adresse": "Via loc. s. Bernardo Provinciale 439 - km.9+714 S/N 12070, Levice (cn)  12070",
      "brand": "Saced",
      "lat": 44.544647226942764,
      "lng": 8.139118999242783,
      "fuels": {
        "sp95": 1.998,
        "gazole": 2.158
      }
    },
    {
      "id": "62165",
      "cp": "",
      "ville": "Limone Piemonte",
      "adresse": "Corso Nizza 40  12015",
      "brand": "Europam",
      "lat": 44.1926202,
      "lng": 7.5707811,
      "fuels": {
        "sp95": 1.897,
        "gazole": 2.117
      }
    },
    {
      "id": "38404",
      "cp": "",
      "ville": "Limone Piemonte",
      "adresse": "Via Circonvallazione 6 12015",
      "brand": "Europam",
      "lat": 44.19980467786609,
      "lng": 7.575132250785828,
      "fuels": {
        "sp95": 1.897,
        "gazole": 2.117
      }
    },
    {
      "id": "52817",
      "cp": "",
      "ville": "Magliano Alfieri",
      "adresse": "Via ss.231 km.21+800 - fraz. s.antonio - Corso Marconi 7 12050, Magliano Alfieri (cn) 7 12050",
      "brand": "Dis-Car",
      "lat": 44.754800928644045,
      "lng": 8.068846698904405,
      "fuels": {
        "sp95": 1.919,
        "gazole": 2.099
      }
    },
    {
      "id": "34242",
      "cp": "",
      "ville": "Magliano Alpi",
      "adresse": "Via Autostrada  26 12060",
      "brand": "Europam",
      "lat": 44.46032923141427,
      "lng": 7.821782385844472,
      "fuels": {
        "sp95": 1.897,
        "gazole": 2.097
      }
    },
    {
      "id": "10526",
      "cp": "",
      "ville": "Magliano Alpi",
      "adresse": "Via Autostrada 48 12060",
      "brand": "Centro Calor",
      "lat": 44.46456982429472,
      "lng": 7.830163098484604,
      "fuels": {
        "sp95": 1.919,
        "gazole": 2.099
      }
    },
    {
      "id": "10191",
      "cp": "",
      "ville": "Magliano Alpi",
      "adresse": "Via d. Rossi 51 12060",
      "brand": "Pompe Bianche",
      "lat": 44.4468559625341,
      "lng": 7.775849834776167,
      "fuels": {
        "sp95": 1.89,
        "gazole": 2.09
      }
    },
    {
      "id": "52816",
      "cp": "",
      "ville": "Magliano Alpi",
      "adresse": "Via Via Col Di Nava 22 12060, Magliano Alpi (cn) 22 12060",
      "brand": "Dis-Car",
      "lat": 44.451825231597766,
      "lng": 7.782676454687487,
      "fuels": {
        "sp95": 1.915,
        "gazole": 2.095
      }
    },
    {
      "id": "39501",
      "cp": "",
      "ville": "Mango",
      "adresse": "Via Circonvallazione 31 12056",
      "brand": "Api-Ip",
      "lat": 44.686863056617895,
      "lng": 8.148646205663681,
      "fuels": {
        "sp95": 1.999,
        "gazole": 2.099
      }
    },
    {
      "id": "19875",
      "cp": "",
      "ville": "Manta",
      "adresse": "589 Dei Laghi Di avigliana, km. 66,8, Saluzzo 2 12030",
      "brand": "Api-Ip",
      "lat": 44.607695966123295,
      "lng": 7.484964317582694,
      "fuels": {
        "sp95": 1.939,
        "gazole": 2.129
      }
    },
    {
      "id": "33899",
      "cp": "",
      "ville": "Marene",
      "adresse": "Statale 662 Di savigliano, km. 7.715, dir. Bra - 12030",
      "brand": "Api-Ip",
      "lat": 44.658408452198756,
      "lng": 7.742172181606293,
      "fuels": {
        "sp95": 1.929,
        "gazole": 2.039,
        "gplc": 0.744
      }
    },
    {
      "id": "49511",
      "cp": "",
      "ville": "Marene",
      "adresse": "Via Savigliano 18 12030",
      "brand": "Api-Ip",
      "lat": 44.662434183999956,
      "lng": 7.70887483710114,
      "fuels": {
        "sp95": 1.949,
        "gazole": 2.119
      }
    },
    {
      "id": "50242",
      "cp": "",
      "ville": "Martiniana Po",
      "adresse": "Via Circonvallazione 1 12030",
      "brand": "Petrolnafta",
      "lat": 44.62837329959057,
      "lng": 7.36303329467773,
      "fuels": {
        "sp95": 1.908,
        "gazole": 2.068
      }
    },
    {
      "id": "20515",
      "cp": "",
      "ville": "Melle",
      "adresse": "Provinciale 2 12020",
      "brand": "Api-Ip",
      "lat": 44.56165128998625,
      "lng": 7.310541719198227,
      "fuels": {
        "sp95": 1.845,
        "gazole": 1.938
      }
    },
    {
      "id": "61885",
      "cp": "",
      "ville": "Monasterolo Di Savigliano",
      "adresse": "Provinciale 166km 3 785 Sn 12030",
      "brand": "Api-Ip",
      "lat": 44.680806524075415,
      "lng": 7.625040541248311,
      "fuels": {
        "sp95": 1.959,
        "gazole": 2.169,
        "gplc": 0.699
      }
    },
    {
      "id": "39084",
      "cp": "",
      "ville": "Monchiero",
      "adresse": "Via Borgonuovo 13/B 12060",
      "brand": "Europam",
      "lat": 44.57307459862489,
      "lng": 7.9170054912672185,
      "fuels": {
        "sp95": 1.907,
        "gazole": 2.077
      }
    },
    {
      "id": "58255",
      "cp": "",
      "ville": "Mondovì",
      "adresse": "Autostrada a6 Torino-savona,  km. 64, dir. Nord 12084",
      "brand": "Esso",
      "lat": 44.39826,
      "lng": 7.816348,
      "fuels": {
        "sp95": 2.038,
        "gazole": 2.199,
        "gplc": 0.899
      }
    },
    {
      "id": "62711",
      "cp": "",
      "ville": "Mondovì",
      "adresse": "Autostrada a6 Torino-savona,  km. 64, dir. Nord 12084",
      "brand": "Esso",
      "lat": 44.39826,
      "lng": 7.816348,
      "fuels": {
        "gazole": 2.179
      }
    },
    {
      "id": "57870",
      "cp": "",
      "ville": "Mondovì",
      "adresse": "Delle Langhe 16 12084",
      "brand": "Tamoil",
      "lat": 44.3977732635945,
      "lng": 7.822740508326742,
      "fuels": {
        "sp95": 1.899,
        "gazole": 2.099
      }
    },
    {
      "id": "12764",
      "cp": "",
      "ville": "Mondovì",
      "adresse": "Piazza Mondovicino 202 12084",
      "brand": "Pompe Bianche",
      "lat": 44.42064735984841,
      "lng": 7.850171327590942,
      "fuels": {
        "sp95": 1.928,
        "gazole": 2.142
      }
    },
    {
      "id": "44658",
      "cp": "",
      "ville": "Mondovì",
      "adresse": "s.s 28 Al km. 33+603 S/N 12084",
      "brand": "Tamoil",
      "lat": 44.362341112856726,
      "lng": 7.833567101163908,
      "fuels": {
        "sp95": 1.929,
        "gazole": 2.069,
        "e85": 1.499
      }
    },
    {
      "id": "58276",
      "cp": "",
      "ville": "Mondovì",
      "adresse": "sp5",
      "brand": "Api-Ip",
      "lat": 44.36642457602117,
      "lng": 7.797086405493161,
      "fuels": {
        "sp95": 1.909,
        "gazole": 2.099
      }
    },
    {
      "id": "60150",
      "cp": "",
      "ville": "Mondovì",
      "adresse": "Tangenziale Di Mondovì  12084",
      "brand": "Saced",
      "lat": 44.4172376,
      "lng": 7.8253594,
      "fuels": {
        "sp95": 1.938,
        "gazole": 2.138
      }
    },
    {
      "id": "48587",
      "cp": "",
      "ville": "Mondovì",
      "adresse": "Via Carboneri  82 12084",
      "brand": "Tamoil",
      "lat": 44.384512045610315,
      "lng": 7.832644671620197,
      "fuels": {
        "sp95": 1.899,
        "gazole": 2.099
      }
    },
    {
      "id": "21783",
      "cp": "",
      "ville": "Mondovì",
      "adresse": "Via Cuneo 107 12084",
      "brand": "Api-Ip",
      "lat": 44.41161189085924,
      "lng": 7.788379937410355,
      "fuels": {
        "sp95": 1.999,
        "gazole": 2.129,
        "gplc": 0.795
      }
    },
    {
      "id": "61824",
      "cp": "",
      "ville": "Mondovì",
      "adresse": "Via Cuneo 6 12084",
      "brand": "Api-Ip",
      "lat": 44.39713524486488,
      "lng": 7.813607820065814,
      "fuels": {
        "sp95": 1.919,
        "gazole": 2.139
      }
    },
    {
      "id": "57938",
      "cp": "",
      "ville": "Mondovì",
      "adresse": "Via Cuneo 78/G 12084",
      "brand": "Agip Eni",
      "lat": 44.40597667019804,
      "lng": 7.806840937959287,
      "fuels": {
        "sp95": 1.909,
        "gazole": 2.024
      }
    },
    {
      "id": "7098",
      "cp": "",
      "ville": "Mondovì",
      "adresse": "Via Cuneo 79 12084",
      "brand": "Esso",
      "lat": 44.410995128456825,
      "lng": 7.802504249662775,
      "fuels": {
        "sp95": 1.939,
        "gazole": 2.099
      }
    },
    {
      "id": "62597",
      "cp": "",
      "ville": "Mondovì",
      "adresse": "Via Della Cornice  33",
      "brand": "Agip Eni",
      "lat": 44.391903,
      "lng": 7.818327,
      "fuels": {
        "sp95": 1.929,
        "gazole": 2.059
      }
    },
    {
      "id": "62940",
      "cp": "",
      "ville": "Mondovì",
      "adresse": "Via Delle Langhe 46  12084",
      "brand": "Agip Eni",
      "lat": 44.4022357,
      "lng": 7.828587899999999,
      "fuels": {
        "sp95": 1.929,
        "gazole": 2.079
      }
    },
    {
      "id": "60274",
      "cp": "",
      "ville": "Mondovì",
      "adresse": "Via Delle Langhe 56  12084",
      "brand": "Pompe Bianche",
      "lat": 44.4039296,
      "lng": 7.8303256,
      "fuels": {
        "sp95": 1.838,
        "gazole": 1.933
      }
    },
    {
      "id": "58620",
      "cp": "",
      "ville": "Mondovì",
      "adresse": "Via Delle Langhe 7 12084",
      "brand": "q8",
      "lat": 44.398432,
      "lng": 7.823794,
      "fuels": {
        "sp95": 1.929,
        "gazole": 2.099,
        "gplc": 0.769
      }
    },
    {
      "id": "60273",
      "cp": "",
      "ville": "Mondovì",
      "adresse": "Via g. b. Quadrone 13  12084",
      "brand": "Pompe Bianche",
      "lat": 44.3946616,
      "lng": 7.8188649,
      "fuels": {
        "sp95": 1.745,
        "gazole": 1.986
      }
    },
    {
      "id": "7402",
      "cp": "",
      "ville": "Mondovì",
      "adresse": "Via Monregalese  33 12084",
      "brand": "Api-Ip",
      "lat": 44.39792076601225,
      "lng": 7.750496216864008,
      "fuels": {
        "sp95": 1.929,
        "gazole": 2.119
      }
    },
    {
      "id": "61825",
      "cp": "",
      "ville": "Mondovì",
      "adresse": "Via Torino 44/D 12084",
      "brand": "Api-Ip",
      "lat": 44.40350820518675,
      "lng": 7.813491383823918,
      "fuels": {
        "sp95": 1.919,
        "gazole": 2.139
      }
    },
    {
      "id": "46340",
      "cp": "",
      "ville": "Monforte D'Alba",
      "adresse": "Via Monchiero 35  12065",
      "brand": "Europam",
      "lat": 44.58572248602273,
      "lng": 7.961842955703446,
      "fuels": {
        "sp95": 1.917,
        "gazole": 2.107
      }
    },
    {
      "id": "63202",
      "cp": "",
      "ville": "Montà",
      "adresse": "loc.san Martino Nisocco 21 12046",
      "brand": "Europam",
      "lat": 44.8248097,
      "lng": 7.9406621,
      "fuels": {
        "sp95": 1.887,
        "gazole": 2.077
      }
    },
    {
      "id": "49628",
      "cp": "",
      "ville": "Montà",
      "adresse": "Manzoni 38 12046",
      "brand": "Agip Eni",
      "lat": 44.8171,
      "lng": 7.953316,
      "fuels": {
        "sp95": 1.909,
        "gazole": 2.024
      }
    },
    {
      "id": "54961",
      "cp": "",
      "ville": "Montà",
      "adresse": "Regionale 29 Km 39 402 Sn 12046",
      "brand": "Api-Ip",
      "lat": 44.82805699199064,
      "lng": 7.933673936262129,
      "fuels": {
        "sp95": 1.899,
        "gazole": 2.099
      }
    },
    {
      "id": "37287",
      "cp": "",
      "ville": "Montanera",
      "adresse": "Via Circonvallazione 5 12040",
      "brand": "Api-Ip",
      "lat": 44.45633646796895,
      "lng": 7.663991153240204,
      "fuels": {
        "sp95": 1.939,
        "gazole": 2.119,
        "gplc": 0.709
      }
    },
    {
      "id": "46698",
      "cp": "",
      "ville": "Monteu Roero",
      "adresse": "fraz. Tre Rivi 80 12040",
      "brand": "Tamoil",
      "lat": 44.778113423634196,
      "lng": 7.964081822090179,
      "fuels": {
        "sp95": 1.929,
        "gazole": 2.089
      }
    },
    {
      "id": "10532",
      "cp": "",
      "ville": "Montezemolo",
      "adresse": "s.p.6 Via Padre Secco 32 12070",
      "brand": "Centro Calor",
      "lat": 44.375695857027594,
      "lng": 8.140580093115204,
      "fuels": {
        "sp95": 1.929,
        "gazole": 2.099
      }
    },
    {
      "id": "53376",
      "cp": "",
      "ville": "Moretta",
      "adresse": "Pollano 6 12033",
      "brand": "Agip Eni",
      "lat": 44.76375,
      "lng": 7.54279,
      "fuels": {
        "sp95": 1.949,
        "gazole": 2.079
      }
    },
    {
      "id": "48092",
      "cp": "",
      "ville": "Moretta",
      "adresse": "Via Cuneo 70 12033",
      "brand": "Api-Ip",
      "lat": 44.748034703245324,
      "lng": 7.52987802028656,
      "fuels": {
        "sp95": 1.939,
        "gazole": 2.129
      }
    },
    {
      "id": "54663",
      "cp": "",
      "ville": "Morozzo",
      "adresse": "Cuneo 22/A 12040",
      "brand": "Esso",
      "lat": 44.384256,
      "lng": 7.8184448,
      "fuels": {
        "sp95": 1.919,
        "gazole": 2.079,
        "gplc": 0.749
      }
    },
    {
      "id": "61046",
      "cp": "",
      "ville": "Morozzo",
      "adresse": "Via Mondovì 52 12040",
      "brand": "Costantin",
      "lat": 44.424556,
      "lng": 7.722248,
      "fuels": {
        "sp95": 1.897,
        "gazole": 2.077
      }
    },
    {
      "id": "20994",
      "cp": "",
      "ville": "Murazzano",
      "adresse": "Via sp.n.661 Al km.59+352 S/N 12060, Murazzano (cn) Snc 12060",
      "brand": "Saced",
      "lat": 44.47181961810538,
      "lng": 8.02234299480915,
      "fuels": {
        "sp95": 1.998,
        "gazole": 2.158
      }
    },
    {
      "id": "24417",
      "cp": "",
      "ville": "Narzole",
      "adresse": "Regione Cornetti 130 12068",
      "brand": "Restiani",
      "lat": 44.574882658162224,
      "lng": 7.851299418965937,
      "fuels": {
        "sp95": 1.91,
        "gazole": 2.08
      }
    },
    {
      "id": "62385",
      "cp": "",
      "ville": "Narzole",
      "adresse": "Via Cavour 184 12068",
      "brand": "Tamoil",
      "lat": 44.59993287329921,
      "lng": 7.870097032540881,
      "fuels": {
        "sp95": 1.899,
        "gazole": 2.099
      }
    },
    {
      "id": "28714",
      "cp": "",
      "ville": "Neive",
      "adresse": "Corso Scagliola 72 12057",
      "brand": "Europam",
      "lat": 44.7254085851457,
      "lng": 8.120461746032674,
      "fuels": {
        "sp95": 1.927,
        "gazole": 2.077
      }
    },
    {
      "id": "52819",
      "cp": "",
      "ville": "Niella Tanaro",
      "adresse": "Via Via Lesegno Angolo Via Rocca Ciglie' S/N 12060, Niella Tanaro (cn) Sn 12060",
      "brand": "Dis-Car",
      "lat": 44.406376347227116,
      "lng": 7.9353263341430536,
      "fuels": {
        "sp95": 1.919,
        "gazole": 2.099,
        "gplc": 0.739
      }
    },
    {
      "id": "50260",
      "cp": "",
      "ville": "Novello",
      "adresse": "Via Giordano 54 12060",
      "brand": "Api-Ip",
      "lat": 44.5900901423332,
      "lng": 7.928002856233429,
      "fuels": {
        "sp95": 1.919,
        "gazole": 2.129
      }
    },
    {
      "id": "44077",
      "cp": "",
      "ville": "Nucetto",
      "adresse": "Via Nazionale 101 12073",
      "brand": "Agip Eni",
      "lat": 44.33751632635856,
      "lng": 8.05726104662699,
      "fuels": {
        "sp95": 1.909,
        "gazole": 2.024
      }
    },
    {
      "id": "34960",
      "cp": "",
      "ville": "Ormea",
      "adresse": "Statale 28 Del Colle Di nava, km. 89, dir. Imperia - 12078",
      "brand": "Agip Eni",
      "lat": 44.14774853920096,
      "lng": 7.909984248457363,
      "fuels": {
        "sp95": 1.944,
        "gazole": 2.059
      }
    },
    {
      "id": "54309",
      "cp": "",
      "ville": "Paesana",
      "adresse": "Via Nazionale 20 12034, Paesana (cn) 20 12034",
      "brand": "Petrolnafta",
      "lat": 44.6776335,
      "lng": 7.27843192,
      "fuels": {
        "sp95": 1.908,
        "gazole": 2.068
      }
    },
    {
      "id": "49061",
      "cp": "",
      "ville": "Paesana",
      "adresse": "Via Roma  12034",
      "brand": "Europam",
      "lat": 44.68465713947324,
      "lng": 7.276457434358616,
      "fuels": {
        "sp95": 1.887,
        "gazole": 2.037
      }
    },
    {
      "id": "43177",
      "cp": "",
      "ville": "Peveragno",
      "adresse": "Via Lorenzo Ambrosino 13 12016",
      "brand": "Api-Ip",
      "lat": 44.329751535415596,
      "lng": 7.624272305782711,
      "fuels": {
        "sp95": 1.959,
        "gazole": 2.139
      }
    },
    {
      "id": "63074",
      "cp": "",
      "ville": "Peveragno",
      "adresse": "Via San Giovanni  5 12016",
      "brand": "Pompe Bianche",
      "lat": 44.330762160773986,
      "lng": 7.611309759009601,
      "fuels": {
        "sp95": 1.829,
        "gazole": 1.899
      }
    },
    {
      "id": "59695",
      "cp": "",
      "ville": "Pianfei",
      "adresse": "Via Cuneo 75 12080",
      "brand": "Interpetrol",
      "lat": 44.375908,
      "lng": 7.700555,
      "fuels": {
        "sp95": 1.889,
        "gazole": 2.039
      }
    },
    {
      "id": "11551",
      "cp": "",
      "ville": "Piasco",
      "adresse": "Via Dante 10 12026",
      "brand": "q8",
      "lat": 44.56432801251746,
      "lng": 7.455374694442753,
      "fuels": {
        "sp95": 1.959,
        "gazole": 2.069
      }
    },
    {
      "id": "58155",
      "cp": "",
      "ville": "Piasco",
      "adresse": "Via Europa 22  12026",
      "brand": "Api-Ip",
      "lat": 44.57319716764691,
      "lng": 7.461315393447876,
      "fuels": {
        "sp95": 1.969,
        "gazole": 2.149
      }
    },
    {
      "id": "54746",
      "cp": "",
      "ville": "Pocapaglia",
      "adresse": "San Martino 38/A 12060",
      "brand": "Api-Ip",
      "lat": 44.695142326604106,
      "lng": 7.902240612102491,
      "fuels": {
        "sp95": 1.919,
        "gazole": 2.149
      }
    },
    {
      "id": "53079",
      "cp": "",
      "ville": "Prazzo",
      "adresse": "Via Nazionale 24 12028",
      "brand": "Api-Ip",
      "lat": 44.484824266825115,
      "lng": 7.0663953181729084,
      "fuels": {
        "sp95": 1.979,
        "gazole": 2.149
      }
    },
    {
      "id": "47693",
      "cp": "",
      "ville": "Priero",
      "adresse": "a6 Torino-savona, km. 84.00, Savona - 12070",
      "brand": "Sarni Oil",
      "lat": 44.371813000123,
      "lng": 8.0763520000123,
      "fuels": {
        "sp95": 1.999,
        "gazole": 2.179,
        "gplc": 0.898
      }
    },
    {
      "id": "62715",
      "cp": "",
      "ville": "Priero",
      "adresse": "a6 Torino-savona, km. 84.00, Savona - 12070",
      "brand": "Sarni Oil",
      "lat": 44.371813000123,
      "lng": 8.0763520000123,
      "fuels": {
        "gazole": 2.099
      }
    },
    {
      "id": "11390",
      "cp": "",
      "ville": "Priola",
      "adresse": "Statale 28 Del Colle Di nava, km. 72+540, dir. Imperia - 12070",
      "brand": "Api-Ip",
      "lat": 44.24403533409806,
      "lng": 8.021800991201417,
      "fuels": {
        "sp95": 1.989,
        "gazole": 2.109
      }
    },
    {
      "id": "55095",
      "cp": "",
      "ville": "Racconigi",
      "adresse": "s.s. 20 Km 24  12035",
      "brand": "Socogas",
      "lat": 44.8121621,
      "lng": 7.69896617,
      "fuels": {
        "sp95": 1.939,
        "gazole": 2.099,
        "gplc": 0.759
      }
    },
    {
      "id": "10438",
      "cp": "",
      "ville": "Racconigi",
      "adresse": "Statale 20 Del Colle Di Tenda E Di Valle roja, km. 20, dir. Cuneo - 12035",
      "brand": "q8",
      "lat": 44.774113220022905,
      "lng": 7.680172920227051,
      "fuels": {
        "sp95": 1.929,
        "gazole": 2.149
      }
    },
    {
      "id": "59598",
      "cp": "",
      "ville": "Racconigi",
      "adresse": "Tiziano Vecellio 1 12035",
      "brand": "Esso",
      "lat": 44.752543,
      "lng": 7.6762811,
      "fuels": {
        "sp95": 1.959,
        "gazole": 2.099
      }
    },
    {
      "id": "30928",
      "cp": "",
      "ville": "Racconigi",
      "adresse": "Via Principe Di Piemonte 110 12035",
      "brand": "Api-Ip",
      "lat": 44.758066669514115,
      "lng": 7.6748664723872935,
      "fuels": {
        "sp95": 1.949,
        "gazole": 2.169,
        "gplc": 0.759
      }
    },
    {
      "id": "56036",
      "cp": "",
      "ville": "Racconigi",
      "adresse": "Via Umberto I 188 12035, Racconigi (cn) 188 12035",
      "brand": "Api-Ip",
      "lat": 44.78318,
      "lng": 7.6806,
      "fuels": {
        "sp95": 1.929,
        "gazole": 2.129
      }
    },
    {
      "id": "59619",
      "cp": "",
      "ville": "Revello",
      "adresse": "sp26 km. 6+224  12036",
      "brand": "Api-Ip",
      "lat": 44.65734,
      "lng": 7.40374,
      "fuels": {
        "sp95": 1.929,
        "gazole": 2.179,
        "gplc": 0.719
      }
    },
    {
      "id": "21342",
      "cp": "",
      "ville": "Revello",
      "adresse": "Valle Po 15 12036",
      "brand": "Petrolnafta",
      "lat": 44.6515598595561,
      "lng": 7.384612203704819,
      "fuels": {
        "sp95": 1.908,
        "gazole": 2.068
      }
    },
    {
      "id": "26239",
      "cp": "",
      "ville": "Revello",
      "adresse": "Via Saluzzo 71 12036",
      "brand": "Agip Eni",
      "lat": 44.65708452352095,
      "lng": 7.3946166722897715,
      "fuels": {
        "sp95": 1.909,
        "gazole": 2.014
      }
    },
    {
      "id": "35122",
      "cp": "",
      "ville": "Rifreddo",
      "adresse": "Via Provinciale 23 12030",
      "brand": "Dalle Petroli",
      "lat": 44.64769809176585,
      "lng": 7.346340233135265,
      "fuels": {
        "sp95": 1.904,
        "gazole": 2.094,
        "gplc": 0.714
      }
    },
    {
      "id": "21823",
      "cp": "",
      "ville": "Robilante",
      "adresse": "Umberto I 51 12017",
      "brand": "Europam",
      "lat": 44.29692892630826,
      "lng": 7.509041606151641,
      "fuels": {
        "sp95": 1.947,
        "gazole": 2.027
      }
    },
    {
      "id": "48096",
      "cp": "",
      "ville": "Roccaforte Mondovì",
      "adresse": "Via Divisione Cuneense 17 12088",
      "brand": "Api-Ip",
      "lat": 44.32254913900652,
      "lng": 7.745873236770649,
      "fuels": {
        "sp95": 1.939,
        "gazole": 2.129
      }
    },
    {
      "id": "13314",
      "cp": "",
      "ville": "Roddi",
      "adresse": "Via d.d. Castelli str.prov 7  12060",
      "brand": "Api-Ip",
      "lat": 44.683333384071204,
      "lng": 7.944137156009674,
      "fuels": {
        "sp95": 1.919,
        "gazole": 2.169,
        "gplc": 0.719
      }
    },
    {
      "id": "60325",
      "cp": "",
      "ville": "Rodello",
      "adresse": "Via s. Rocco  12050",
      "brand": "Pompe Bianche",
      "lat": 44.61374954947976,
      "lng": 8.067503886434547,
      "fuels": {
        "sp95": 1.899,
        "gazole": 2.089
      }
    },
    {
      "id": "31765",
      "cp": "",
      "ville": "Sale Delle Langhe",
      "adresse": "Strada Provinciale 430 Km 1+976  12070",
      "brand": "Pompe Bianche",
      "lat": 44.37543592687127,
      "lng": 8.066077367166145,
      "fuels": {
        "sp95": 1.949,
        "gazole": 2.099,
        "gplc": 0.747
      }
    },
    {
      "id": "20990",
      "cp": "",
      "ville": "Sale San Giovanni",
      "adresse": "Via fraz. Gamellona 10 12070, Sale San Giovanni (cn) 10 12070",
      "brand": "Saced",
      "lat": 44.42411925084774,
      "lng": 8.095527067780495,
      "fuels": {
        "sp95": 1.998,
        "gazole": 2.158
      }
    },
    {
      "id": "32373",
      "cp": "",
      "ville": "Saluzzo",
      "adresse": "Corso Matteotti  12037",
      "brand": "Api-Ip",
      "lat": 44.6523152646602,
      "lng": 7.496364373016377,
      "fuels": {
        "sp95": 1.959,
        "gazole": 2.149
      }
    },
    {
      "id": "10002",
      "cp": "",
      "ville": "Saluzzo",
      "adresse": "Corso Roma 52 12037",
      "brand": "Agip Eni",
      "lat": 44.64079845424145,
      "lng": 7.4980156153442294,
      "fuels": {
        "sp95": 1.949,
        "gazole": 2.059
      }
    },
    {
      "id": "55560",
      "cp": "",
      "ville": "Saluzzo",
      "adresse": "Cuneo 20 12037",
      "brand": "q8",
      "lat": 44.6349061,
      "lng": 7.4967713,
      "fuels": {
        "sp95": 1.909,
        "gazole": 2.109,
        "gplc": 0.745
      }
    },
    {
      "id": "61361",
      "cp": "",
      "ville": "Saluzzo",
      "adresse": "Della Croce 43/A 12037",
      "brand": "Esso",
      "lat": 44.65458167394024,
      "lng": 7.488260668182374,
      "fuels": {
        "sp95": 1.999,
        "gazole": 2.099
      }
    },
    {
      "id": "60277",
      "cp": "",
      "ville": "Saluzzo",
      "adresse": "Piazza Cesare battista, 3 - Saluzzo (cn)\t 3  12037",
      "brand": "Pompe Bianche",
      "lat": 44.64671,
      "lng": 7.49309,
      "fuels": {
        "sp95": 1.925,
        "gazole": 2.034
      }
    },
    {
      "id": "52366",
      "cp": "",
      "ville": "Saluzzo",
      "adresse": "Regione Torrazza 23/B 12037",
      "brand": "Costantin",
      "lat": 44.668398529866565,
      "lng": 7.510026072942132,
      "fuels": {
        "sp95": 1.879,
        "gazole": 1.959,
        "gplc": 0.739
      }
    },
    {
      "id": "21782",
      "cp": "",
      "ville": "Saluzzo",
      "adresse": "Statale 662 Di savigliano, km. 26+827, dir. Savigliano  12037",
      "brand": "Api-Ip",
      "lat": 44.64766180938942,
      "lng": 7.517415330019844,
      "fuels": {
        "sp95": 1.999,
        "gazole": 2.129,
        "gplc": 0.775
      }
    },
    {
      "id": "10537",
      "cp": "",
      "ville": "Saluzzo",
      "adresse": "Strada Provinciale 161 km.1,335  12037",
      "brand": "Centro Calor",
      "lat": 44.627079824171894,
      "lng": 7.5074440240859985,
      "fuels": {
        "sp95": 1.909,
        "gazole": 2.109,
        "gplc": 0.729
      }
    },
    {
      "id": "42324",
      "cp": "",
      "ville": "Saluzzo",
      "adresse": "Via Cuneo 12 12037",
      "brand": "Europam",
      "lat": 44.63795960475292,
      "lng": 7.497928887605667,
      "fuels": {
        "sp95": 1.917,
        "gazole": 2.097
      }
    },
    {
      "id": "17747",
      "cp": "",
      "ville": "Saluzzo",
      "adresse": "Via Revello 32, 12037 - -",
      "brand": "Api-Ip",
      "lat": 44.647259151518796,
      "lng": 7.474364882969667,
      "fuels": {
        "sp95": 1.939,
        "gazole": 2.129
      }
    },
    {
      "id": "39195",
      "cp": "",
      "ville": "Saluzzo",
      "adresse": "Via Torino Km 1 . 12037",
      "brand": "Agip Eni",
      "lat": 44.65683232961754,
      "lng": 7.498897835612297,
      "fuels": {
        "sp95": 1.949,
        "gazole": 2.059
      }
    },
    {
      "id": "60855",
      "cp": "",
      "ville": "Sampeyre",
      "adresse": "Cavour 25 12020",
      "brand": "Api-Ip",
      "lat": 44.579048294546105,
      "lng": 7.184590852924973,
      "fuels": {
        "sp95": 1.959,
        "gazole": 2.149
      }
    },
    {
      "id": "41239",
      "cp": "",
      "ville": "Sampeyre",
      "adresse": "Strada Provinciale Val Varaita  12020",
      "brand": "Europam",
      "lat": 44.57838425089345,
      "lng": 7.186511680483818,
      "fuels": {
        "sp95": 1.937,
        "gazole": 2.077
      }
    },
    {
      "id": "48101",
      "cp": "",
      "ville": "San Damiano Macra",
      "adresse": "Via Roma 1 12029",
      "brand": "Api-Ip",
      "lat": 44.488234000123,
      "lng": 7.256908000123,
      "fuels": {
        "sp95": 1.959,
        "gazole": 2.139
      }
    },
    {
      "id": "20013",
      "cp": "",
      "ville": "San Michele Mondovì",
      "adresse": "Nazionale 19 12080",
      "brand": "Api-Ip",
      "lat": 44.37361899399984,
      "lng": 7.9137396812438965,
      "fuels": {
        "sp95": 1.999,
        "gazole": 2.169
      }
    },
    {
      "id": "13294",
      "cp": "",
      "ville": "San Michele Mondovì",
      "adresse": "Via Torre 10 12080",
      "brand": "Api-Ip",
      "lat": 44.36838645076741,
      "lng": 7.901057526469231,
      "fuels": {
        "sp95": 1.924,
        "gazole": 2.099
      }
    },
    {
      "id": "24226",
      "cp": "",
      "ville": "Sanfrè",
      "adresse": "Via Circonvallazione  12040",
      "brand": "q8",
      "lat": 44.74904299687565,
      "lng": 7.803429859524499,
      "fuels": {
        "sp95": 1.939,
        "gazole": 2.069
      }
    },
    {
      "id": "10282",
      "cp": "",
      "ville": "Sanfrè",
      "adresse": "Via Circonvallazione 40, 12040  12040",
      "brand": "Tamoil",
      "lat": 44.752188077051215,
      "lng": 7.8001844558091555,
      "fuels": {
        "sp95": 1.899,
        "gazole": 2.129
      }
    },
    {
      "id": "16465",
      "cp": "",
      "ville": "Sanfront",
      "adresse": "Valle Po 32 12030",
      "brand": "q8",
      "lat": 44.64811833277396,
      "lng": 7.3218874633312225,
      "fuels": {
        "sp95": 1.909,
        "gazole": 2.159
      }
    },
    {
      "id": "53263",
      "cp": "",
      "ville": "Sant'Albano Stura",
      "adresse": "Circonvallazione P Barbero 19 12040",
      "brand": "Api-Ip",
      "lat": 44.50698,
      "lng": 7.72787,
      "fuels": {
        "sp95": 1.859,
        "gazole": 2.059
      }
    },
    {
      "id": "7275",
      "cp": "",
      "ville": "Santa Vittoria D'Alba",
      "adresse": "ss231 31 12069",
      "brand": "q8",
      "lat": 44.69336274615164,
      "lng": 7.93996076190183,
      "fuels": {
        "sp95": 1.918,
        "gazole": 2.058,
        "gplc": 0.679
      }
    },
    {
      "id": "24271",
      "cp": "",
      "ville": "Santa Vittoria D'Alba",
      "adresse": "Statale 231 Di Santa vittoria, km. 37+338, dir. Est - -",
      "brand": "Agip Eni",
      "lat": 44.69411071146274,
      "lng": 7.913358807563782,
      "fuels": {
        "sp95": 1.884,
        "gazole": 1.984
      }
    },
    {
      "id": "61388",
      "cp": "",
      "ville": "Santa Vittoria D'Alba",
      "adresse": "Statale 231 Km 34+300 200 12069",
      "brand": "Agip Eni",
      "lat": 44.6963438,
      "lng": 7.9504162,
      "fuels": {
        "sp95": 1.944,
        "gazole": 2.054,
        "gplc": 0.704
      }
    },
    {
      "id": "17335",
      "cp": "",
      "ville": "Santo Stefano Belbo",
      "adresse": "Via Stazione  12058",
      "brand": "Agip Eni",
      "lat": 44.714510404137776,
      "lng": 8.236463069915771,
      "fuels": {
        "sp95": 1.944,
        "gazole": 2.074
      }
    },
    {
      "id": "21249",
      "cp": "",
      "ville": "Savigliano",
      "adresse": "Cervino 17 12038",
      "brand": "Europam",
      "lat": 44.652428276314026,
      "lng": 7.653553868647805,
      "fuels": {
        "sp95": 1.919,
        "gazole": 2.039
      }
    },
    {
      "id": "11548",
      "cp": "",
      "ville": "Savigliano",
      "adresse": "Corso Indipendenza 8 12038",
      "brand": "q8",
      "lat": 44.64358212482175,
      "lng": 7.658087611198425,
      "fuels": {
        "sp95": 1.899,
        "gazole": 2.059
      }
    },
    {
      "id": "53536",
      "cp": "",
      "ville": "Savigliano",
      "adresse": "Liguria 1 12038",
      "brand": "Agip Eni",
      "lat": 44.63848,
      "lng": 7.66237,
      "fuels": {
        "sp95": 1.929,
        "gazole": 2.079
      }
    },
    {
      "id": "51939",
      "cp": "",
      "ville": "Savigliano",
      "adresse": "s.p. n°20 Km 48+480 Snc 12038",
      "brand": "Api-Ip",
      "lat": 44.60610545057373,
      "lng": 7.661668082764659,
      "fuels": {
        "sp95": 1.899,
        "gazole": 2.099,
        "gplc": 0.699
      }
    },
    {
      "id": "56863",
      "cp": "",
      "ville": "Savigliano",
      "adresse": "Saluzzo 65 12038",
      "brand": "Conad",
      "lat": 44.64645880015935,
      "lng": 7.66293476562498,
      "fuels": {
        "sp95": 1.888,
        "gazole": 2.048,
        "gplc": 0.688
      }
    },
    {
      "id": "53661",
      "cp": "",
      "ville": "Savigliano",
      "adresse": "Torino 148 12038",
      "brand": "Api-Ip",
      "lat": 44.65200528304694,
      "lng": 7.655990111663087,
      "fuels": {
        "sp95": 2.079,
        "gazole": 2.139
      }
    },
    {
      "id": "60765",
      "cp": "",
      "ville": "Savigliano",
      "adresse": "Via Alba 44/A 12038",
      "brand": "Esso",
      "lat": 44.65015,
      "lng": 7.684966,
      "fuels": {
        "sp95": 1.949,
        "gazole": 2.099,
        "gplc": 0.709
      }
    },
    {
      "id": "18500",
      "cp": "",
      "ville": "Savigliano",
      "adresse": "Via Bisalta 7 12038",
      "brand": "Europam",
      "lat": 44.647329785617664,
      "lng": 7.650681246032718,
      "fuels": {
        "sp95": 1.939,
        "gazole": 2.049
      }
    },
    {
      "id": "10536",
      "cp": "",
      "ville": "Savigliano",
      "adresse": "Via Cuneo 46/A 12038",
      "brand": "Centro Calor",
      "lat": 44.626062829649186,
      "lng": 7.665626297869835,
      "fuels": {
        "sp95": 1.909,
        "gazole": 2.099,
        "gplc": 0.699
      }
    },
    {
      "id": "61978",
      "cp": "",
      "ville": "Savigliano",
      "adresse": "Via Saluzzo 134  12038",
      "brand": "Retitalia",
      "lat": 44.6484294,
      "lng": 7.630129999999999,
      "fuels": {
        "sp95": 1.939,
        "gazole": 2.099
      }
    },
    {
      "id": "61145",
      "cp": "",
      "ville": "Savigliano",
      "adresse": "Via Saluzzo 41  12038",
      "brand": "Europam",
      "lat": 44.648098210321635,
      "lng": 7.65199873046877,
      "fuels": {
        "sp95": 1.917,
        "gazole": 2.047
      }
    },
    {
      "id": "10528",
      "cp": "",
      "ville": "Scarnafigi",
      "adresse": "Strada Moretta 1 12030",
      "brand": "Centro Calor",
      "lat": 44.684481773193966,
      "lng": 7.571523058930552,
      "fuels": {
        "sp95": 1.909,
        "gazole": 2.109,
        "gplc": 0.729
      }
    },
    {
      "id": "18666",
      "cp": "",
      "ville": "Serravalle Langhe",
      "adresse": "Via Provinciale A 9   12050",
      "brand": "Pompe Bianche",
      "lat": 44.55738291348972,
      "lng": 8.059901225236116,
      "fuels": {
        "sp95": 1.978,
        "gazole": 1.998
      }
    },
    {
      "id": "27866",
      "cp": "",
      "ville": "Sommariva Del Bosco",
      "adresse": "Strada Provinciale 661  Km 40+087 12048",
      "brand": "Europam",
      "lat": 44.77696411477647,
      "lng": 7.778972089290619,
      "fuels": {
        "sp95": 1.889,
        "gazole": 1.999
      }
    },
    {
      "id": "60038",
      "cp": "",
      "ville": "Sommariva Del Bosco",
      "adresse": "Via Torino 176  12048",
      "brand": "Economysrl",
      "lat": 44.786359386561806,
      "lng": 7.773933015615371,
      "fuels": {
        "sp95": 1.898,
        "gazole": 2.099
      }
    },
    {
      "id": "30406",
      "cp": "",
      "ville": "Sommariva Perno",
      "adresse": "Localita' Piano 6 12040",
      "brand": "Agip Eni",
      "lat": 44.74823586361386,
      "lng": 7.897720187902451,
      "fuels": {
        "sp95": 1.959,
        "gazole": 2.199
      }
    },
    {
      "id": "36842",
      "cp": "",
      "ville": "Tarantasca",
      "adresse": "Via Circonvallazione 44 12020",
      "brand": "Esso",
      "lat": 44.4892593957523,
      "lng": 7.542379796504974,
      "fuels": {
        "sp95": 1.939,
        "gazole": 2.099,
        "gplc": 0.749
      }
    },
    {
      "id": "13169",
      "cp": "",
      "ville": "Torre San Giorgio",
      "adresse": "663 Di saluzzo, km. 8, Torino  12030",
      "brand": "Api-Ip",
      "lat": 44.73584543505405,
      "lng": 7.527591229013865,
      "fuels": {
        "sp95": 1.899,
        "gazole": 2.019
      }
    },
    {
      "id": "30092",
      "cp": "",
      "ville": "Trinità",
      "adresse": "Statale 28 Del Colle Di nava, km. 15+057, dir. Fossano - 12049",
      "brand": "Api-Ip",
      "lat": 44.50386303960896,
      "lng": 7.757577449083328,
      "fuels": {
        "sp95": 1.939,
        "gazole": 2.159
      }
    },
    {
      "id": "55180",
      "cp": "",
      "ville": "Valdieri",
      "adresse": "Caduti In Guerra 23 12010",
      "brand": "Api-Ip",
      "lat": 44.27216736096132,
      "lng": 7.396045124511739,
      "fuels": {
        "sp95": 1.899,
        "gazole": 2.099
      }
    },
    {
      "id": "48097",
      "cp": "",
      "ville": "Valgrana",
      "adresse": "Via Caraglio 12 12020",
      "brand": "Api-Ip",
      "lat": 44.41265158399384,
      "lng": 7.382667765460207,
      "fuels": {
        "sp95": 1.939,
        "gazole": 2.129
      }
    },
    {
      "id": "43724",
      "cp": "",
      "ville": "Venasca",
      "adresse": "Piazza Martiri  34 12020",
      "brand": "Europam",
      "lat": 44.56231051072716,
      "lng": 7.396516093254149,
      "fuels": {
        "sp95": 1.937,
        "gazole": 2.077
      }
    },
    {
      "id": "60278",
      "cp": "",
      "ville": "Venasca",
      "adresse": "Piazza Martiri 17  12020",
      "brand": "Pompe Bianche",
      "lat": 44.5621634,
      "lng": 7.3968654,
      "fuels": {
        "sp95": 1.925,
        "gazole": 2.034
      }
    },
    {
      "id": "44854",
      "cp": "",
      "ville": "Vernante",
      "adresse": "20 Del Colle Di Tenda E Di Valle roja, km. 95,922, Sud  12019",
      "brand": "Api-Ip",
      "lat": 44.242809751330235,
      "lng": 7.534777893406272,
      "fuels": {
        "sp95": 1.897,
        "gazole": 2.137
      }
    },
    {
      "id": "22620",
      "cp": "",
      "ville": "Verzuolo",
      "adresse": "Statale 589 Dei Laghi Di avigliana, km. 69+015, dir. Cuneo  12039",
      "brand": "Api-Ip",
      "lat": 44.58916517672735,
      "lng": 7.4842007048316646,
      "fuels": {
        "sp95": 1.999,
        "gazole": 2.129
      }
    },
    {
      "id": "59113",
      "cp": "",
      "ville": "Verzuolo",
      "adresse": "Via Provinciale Saluzzo 6 12039",
      "brand": "Esso",
      "lat": 44.6032089,
      "lng": 7.483362,
      "fuels": {
        "sp95": 1.999,
        "gazole": 2.099
      }
    },
    {
      "id": "18352",
      "cp": "",
      "ville": "Verzuolo",
      "adresse": "Via Villafalletto 156/E 12039",
      "brand": "Api-Ip",
      "lat": 44.592327222509276,
      "lng": 7.5221385061740875,
      "fuels": {
        "sp95": 1.949,
        "gazole": 2.169
      }
    },
    {
      "id": "10236",
      "cp": "",
      "ville": "Vezza D'Alba",
      "adresse": "Regione Casino  1 12040",
      "brand": "q8",
      "lat": 44.755493167473155,
      "lng": 8.00341933965683,
      "fuels": {
        "sp95": 1.929,
        "gazole": 2.129,
        "gplc": 0.699
      }
    },
    {
      "id": "10535",
      "cp": "",
      "ville": "Vezza D'Alba",
      "adresse": "Via Torino 77 Bis 12040",
      "brand": "Centro Calor",
      "lat": 44.77042358429457,
      "lng": 8.008709996938705,
      "fuels": {
        "sp95": 1.929,
        "gazole": 2.119,
        "gplc": 0.699
      }
    },
    {
      "id": "44560",
      "cp": "",
      "ville": "Vicoforte",
      "adresse": "28 Del Colle Di nava, km. 25, Sud",
      "brand": "Agip Eni",
      "lat": 44.36014963781018,
      "lng": 7.855520826469615,
      "fuels": {
        "sp95": 1.924,
        "gazole": 2.074
      }
    },
    {
      "id": "48098",
      "cp": "",
      "ville": "Vignolo",
      "adresse": "Via Cuneo 50/B 12010",
      "brand": "Api-Ip",
      "lat": 44.36638217478452,
      "lng": 7.486210495823853,
      "fuels": {
        "sp95": 1.939,
        "gazole": 2.129
      }
    },
    {
      "id": "56677",
      "cp": "",
      "ville": "Villafalletto",
      "adresse": "25 km12 527 Snc 12020",
      "brand": "Centro Calor",
      "lat": 44.53598146551689,
      "lng": 7.547574505611405,
      "fuels": {
        "sp95": 1.929,
        "gazole": 2.029,
        "gplc": 0.729
      }
    },
    {
      "id": "48995",
      "cp": "",
      "ville": "Villafalletto",
      "adresse": "Via Circonvallazione Est 18/A 12020",
      "brand": "Agip Eni",
      "lat": 44.55523702757342,
      "lng": 7.541339099407196,
      "fuels": {
        "sp95": 1.957,
        "gazole": 2.041,
        "e85": 1.799,
        "gplc": 0.743
      }
    },
    {
      "id": "24518",
      "cp": "",
      "ville": "Villanova Mondovì",
      "adresse": "Via Mondovi' 40/42 12089",
      "brand": "Api-Ip",
      "lat": 44.35129627915337,
      "lng": 7.778715938329697,
      "fuels": {
        "sp95": 1.989,
        "gazole": 2.119
      }
    },
    {
      "id": "8648",
      "cp": "",
      "ville": "Vinadio",
      "adresse": "Piazza Vittorio Veneto  12010",
      "brand": "Api-Ip",
      "lat": 44.30669951544824,
      "lng": 7.173406771207965,
      "fuels": {
        "sp95": 1.959,
        "gazole": 2.079
      }
    }
  ]
}