{
  "code": "CZ",
  "name": "Catanzaro",
  "regionCode": "CAL",
  "regionName": "Calabria",
  "asOf": "2026-07-16T18:46:45.253Z",
  "source": "https://www.mimit.gov.it/it/open-data/elenco-dataset/2032336-dataset-prezzi-carburanti",
  "stationCount": 145,
  "fuels": {
    "gazole": {
      "count": 145,
      "mean": 2.0309,
      "median": 2.029,
      "min": 1.917,
      "max": 2.299
    },
    "sp95": {
      "count": 145,
      "mean": 1.9115,
      "median": 1.899,
      "min": 1.857,
      "max": 2.097
    },
    "e85": {
      "count": 3,
      "mean": 1.783,
      "median": 1.75,
      "min": 1.65,
      "max": 1.949
    },
    "gplc": {
      "count": 22,
      "mean": 0.7655,
      "median": 0.754,
      "min": 0.712,
      "max": 0.919
    }
  },
  "stations": [
    {
      "id": "12748",
      "cp": "",
      "ville": "Badolato",
      "adresse": "Statale 106 jonica, km. 150+150, dir. Nord - 88060",
      "brand": "Tamoil",
      "lat": 38.57609881442261,
      "lng": 16.566035720487662,
      "fuels": {
        "sp95": 1.929,
        "gazole": 2.069
      }
    },
    {
      "id": "60422",
      "cp": "",
      "ville": "Belcastro",
      "adresse": "Ss 106 Km 211+815 Belcastro Sn 88050",
      "brand": "Api-Ip",
      "lat": 38.941828,
      "lng": 16.8878733,
      "fuels": {
        "sp95": 1.929,
        "gazole": 2.039,
        "gplc": 0.782
      }
    },
    {
      "id": "10924",
      "cp": "",
      "ville": "Borgia",
      "adresse": "Via Del Popolo 2 88021",
      "brand": "Api-Ip",
      "lat": 38.825418475064616,
      "lng": 16.505458852718448,
      "fuels": {
        "sp95": 1.919,
        "gazole": 2.029
      }
    },
    {
      "id": "58725",
      "cp": "",
      "ville": "Botricello",
      "adresse": "Nazionale 440 88070",
      "brand": "Api-Ip",
      "lat": 38.930349,
      "lng": 16.837381,
      "fuels": {
        "sp95": 1.909,
        "gazole": 1.999
      }
    },
    {
      "id": "55313",
      "cp": "",
      "ville": "Botricello",
      "adresse": "Nazionale Ss 106 km210-949 Snc 88070",
      "brand": "Pompe Bianche",
      "lat": 38.937760834779155,
      "lng": 16.86789131147615,
      "fuels": {
        "sp95": 1.889,
        "gazole": 1.999
      }
    },
    {
      "id": "52501",
      "cp": "",
      "ville": "Botricello",
      "adresse": "Ss 106 Km 214+700  88070",
      "brand": "Agip Eni",
      "lat": 38.93439822195318,
      "lng": 16.853259248721987,
      "fuels": {
        "sp95": 1.909,
        "gazole": 2.009,
        "gplc": 0.769
      }
    },
    {
      "id": "56983",
      "cp": "",
      "ville": "Botricello",
      "adresse": "ss. 106 km. 209+582",
      "brand": "Tamoil",
      "lat": 38.9339382,
      "lng": 16.8518179,
      "fuels": {
        "sp95": 1.929,
        "gazole": 2.029
      }
    },
    {
      "id": "60586",
      "cp": "",
      "ville": "Botricello",
      "adresse": "Strada Statale 106 Snc 88070",
      "brand": "Esso",
      "lat": 38.93153,
      "lng": 16.84241,
      "fuels": {
        "sp95": 1.899,
        "gazole": 1.999
      }
    },
    {
      "id": "41664",
      "cp": "",
      "ville": "Caraffa Di Catanzaro",
      "adresse": "loc. Fontana Vecchia s.p. 49 Sc 88050",
      "brand": "Esso",
      "lat": 38.878528435482266,
      "lng": 16.4918652176857,
      "fuels": {
        "sp95": 1.899,
        "gazole": 1.999
      }
    },
    {
      "id": "43502",
      "cp": "",
      "ville": "Cardinale",
      "adresse": "Provinciale Per Cardinale Snc 88062",
      "brand": "Tamoil",
      "lat": 38.644989313082014,
      "lng": 16.38479929447749,
      "fuels": {
        "sp95": 1.899,
        "gazole": 2.059
      }
    },
    {
      "id": "47101",
      "cp": "",
      "ville": "Carlopoli",
      "adresse": "Via Regina Elena Snc 88040",
      "brand": "q8",
      "lat": 39.05570791656681,
      "lng": 16.45516930300622,
      "fuels": {
        "sp95": 1.899,
        "gazole": 2.059
      }
    },
    {
      "id": "61337",
      "cp": "",
      "ville": "Catanzaro",
      "adresse": "Dei tulipani, loc. Cava Snc 88100",
      "brand": "Tamoil",
      "lat": 38.9092182,
      "lng": 16.6014238,
      "fuels": {
        "sp95": 1.929,
        "gazole": 2.049,
        "gplc": 0.719
      }
    },
    {
      "id": "37126",
      "cp": "",
      "ville": "Catanzaro",
      "adresse": "Emilia Snc 88100",
      "brand": "Tamoil",
      "lat": 38.84292153863622,
      "lng": 16.647450774908066,
      "fuels": {
        "sp95": 1.919,
        "gazole": 2.029
      }
    },
    {
      "id": "24803",
      "cp": "",
      "ville": "Catanzaro",
      "adresse": "Europa 51/G 88100",
      "brand": "Api-Ip",
      "lat": 38.88215631562125,
      "lng": 16.55577152967453,
      "fuels": {
        "sp95": 1.889,
        "gazole": 1.999,
        "e85": 1.65,
        "gplc": 0.745
      }
    },
    {
      "id": "56825",
      "cp": "",
      "ville": "Catanzaro",
      "adresse": "Garibaldi  88100",
      "brand": "Retitalia",
      "lat": 38.81743009089195,
      "lng": 16.610767291617265,
      "fuels": {
        "sp95": 1.939,
        "gazole": 2.099
      }
    },
    {
      "id": "62832",
      "cp": "",
      "ville": "Catanzaro",
      "adresse": "Località Germaneto  88100",
      "brand": "Esso",
      "lat": 38.86183,
      "lng": 16.56762,
      "fuels": {
        "sp95": 1.899,
        "gazole": 1.999,
        "gplc": 0.725
      }
    },
    {
      "id": "29328",
      "cp": "",
      "ville": "Catanzaro",
      "adresse": "Lucrezia Della Valle Sn 88100",
      "brand": "Agip Eni",
      "lat": 38.89750991,
      "lng": 16.59183414,
      "fuels": {
        "sp95": 1.929,
        "gazole": 2.029
      }
    },
    {
      "id": "42338",
      "cp": "",
      "ville": "Catanzaro",
      "adresse": "Piave Snc 88100",
      "brand": "Tamoil",
      "lat": 38.91329860312572,
      "lng": 16.585792150891507,
      "fuels": {
        "sp95": 1.909,
        "gazole": 2.029
      }
    },
    {
      "id": "52488",
      "cp": "",
      "ville": "Catanzaro",
      "adresse": "Ss 19 (via Degli Angioini 114)  88100",
      "brand": "Agip Eni",
      "lat": 38.88918571695367,
      "lng": 16.602765199618123,
      "fuels": {
        "sp95": 1.929,
        "gazole": 2.029
      }
    },
    {
      "id": "23265",
      "cp": "",
      "ville": "Catanzaro",
      "adresse": "ss.106 Viale Crotone  88100",
      "brand": "q8",
      "lat": 38.830354899395374,
      "lng": 16.628143171793,
      "fuels": {
        "sp95": 1.919,
        "gazole": 2.039
      }
    },
    {
      "id": "55553",
      "cp": "",
      "ville": "Catanzaro",
      "adresse": "Tommaso Campanella Sn 88100",
      "brand": "Esso",
      "lat": 38.90890574695705,
      "lng": 16.574778707927646,
      "fuels": {
        "sp95": 1.929,
        "gazole": 2.039
      }
    },
    {
      "id": "61358",
      "cp": "",
      "ville": "Catanzaro",
      "adresse": "v.le Degli Angioini 92  88100",
      "brand": "Itala Petroli",
      "lat": 38.89153426626612,
      "lng": 16.602671376149317,
      "fuels": {
        "sp95": 1.919,
        "gazole": 2.029
      }
    },
    {
      "id": "34377",
      "cp": "",
      "ville": "Catanzaro",
      "adresse": "Via Alessandro Turco 79 88100",
      "brand": "Agip Eni",
      "lat": 38.91008015886016,
      "lng": 16.5864148901436,
      "fuels": {
        "sp95": 1.939,
        "gazole": 2.054
      }
    },
    {
      "id": "26264",
      "cp": "",
      "ville": "Catanzaro",
      "adresse": "Via Crotone 114 88100",
      "brand": "Agip Eni",
      "lat": 38.82859248408386,
      "lng": 16.623807607583444,
      "fuels": {
        "sp95": 1.929,
        "gazole": 2.029
      }
    },
    {
      "id": "38611",
      "cp": "",
      "ville": "Catanzaro",
      "adresse": "Via Emilia Snc 88100",
      "brand": "Energas",
      "lat": 38.849151760565995,
      "lng": 16.643621921539307,
      "fuels": {
        "sp95": 1.889,
        "gazole": 1.999,
        "gplc": 0.719
      }
    },
    {
      "id": "61528",
      "cp": "",
      "ville": "Catanzaro",
      "adresse": "Via Fiume Busento Snc 88100",
      "brand": "Pompe Bianche",
      "lat": 38.8714482,
      "lng": 16.6048629,
      "fuels": {
        "sp95": 1.899,
        "gazole": 2.049
      }
    },
    {
      "id": "12742",
      "cp": "",
      "ville": "Catanzaro",
      "adresse": "Via Lucrezia Della Valle 144 - -",
      "brand": "Esso",
      "lat": 38.89975083713823,
      "lng": 16.58865675330162,
      "fuels": {
        "sp95": 1.899,
        "gazole": 2.029
      }
    },
    {
      "id": "50393",
      "cp": "",
      "ville": "Catanzaro",
      "adresse": "Via Lucrezia Della Valle 21 88100",
      "brand": "Api-Ip",
      "lat": 38.88614034078176,
      "lng": 16.597368283158467,
      "fuels": {
        "sp95": 1.899,
        "gazole": 1.989,
        "e85": 1.949
      }
    },
    {
      "id": "60229",
      "cp": "",
      "ville": "Catanzaro",
      "adresse": "Via Nazionale Catanzaro Km 380 88110",
      "brand": "Esso",
      "lat": 38.83084447,
      "lng": 16.60892955,
      "fuels": {
        "sp95": 1.899,
        "gazole": 2.029
      }
    },
    {
      "id": "23442",
      "cp": "",
      "ville": "Catanzaro",
      "adresse": "Via Vincenzo De Filippis 2 88100",
      "brand": "Api-Ip",
      "lat": 38.90270078814904,
      "lng": 16.58247647207486,
      "fuels": {
        "sp95": 1.889,
        "gazole": 1.999
      }
    },
    {
      "id": "58375",
      "cp": "",
      "ville": "Catanzaro",
      "adresse": "Viadotto Fiumarella -Via Gioacchino Da Fiore  Snc",
      "brand": "Agip Eni",
      "lat": 38.905407,
      "lng": 16.580915,
      "fuels": {
        "sp95": 1.929,
        "gazole": 2.029
      }
    },
    {
      "id": "19327",
      "cp": "",
      "ville": "Catanzaro",
      "adresse": "Viale Cassiodoro snc, 88100 - -",
      "brand": "Esso",
      "lat": 38.86995713329988,
      "lng": 16.606563180685043,
      "fuels": {
        "sp95": 1.896,
        "gazole": 2.036
      }
    },
    {
      "id": "31831",
      "cp": "",
      "ville": "Catanzaro",
      "adresse": "Viale Crotone - s.s. 106 Km 189,200  88100",
      "brand": "Api-Ip",
      "lat": 38.84559268846795,
      "lng": 16.65505364418027,
      "fuels": {
        "sp95": 1.889,
        "gazole": 1.999
      }
    },
    {
      "id": "23116",
      "cp": "",
      "ville": "Catanzaro",
      "adresse": "Viale De Filippis  88100",
      "brand": "Api-Ip",
      "lat": 38.90162933869928,
      "lng": 16.58344868584436,
      "fuels": {
        "sp95": 1.889,
        "gazole": 1.999
      }
    },
    {
      "id": "11979",
      "cp": "",
      "ville": "Catanzaro",
      "adresse": "Viale De Filippis 4, 88100",
      "brand": "Esso",
      "lat": 38.902039027966765,
      "lng": 16.583087146282196,
      "fuels": {
        "sp95": 1.889,
        "gazole": 2.029
      }
    },
    {
      "id": "6733",
      "cp": "",
      "ville": "Catanzaro",
      "adresse": "Viale De Filippis 56 88100",
      "brand": "q8",
      "lat": 38.89898356605743,
      "lng": 16.583634298776587,
      "fuels": {
        "sp95": 1.899,
        "gazole": 2.029
      }
    },
    {
      "id": "57360",
      "cp": "",
      "ville": "Catanzaro",
      "adresse": "Viale Europa  88100",
      "brand": "Esso",
      "lat": 38.84178607689023,
      "lng": 16.585052477508558,
      "fuels": {
        "sp95": 1.877,
        "gazole": 1.977
      }
    },
    {
      "id": "19580",
      "cp": "",
      "ville": "Catanzaro",
      "adresse": "Viale Isonzo 222/C 88063",
      "brand": "Agip Eni",
      "lat": 38.85670651043394,
      "lng": 16.606315076351166,
      "fuels": {
        "sp95": 1.929,
        "gazole": 2.029,
        "gplc": 0.712
      }
    },
    {
      "id": "27032",
      "cp": "",
      "ville": "Catanzaro",
      "adresse": "Viale Magna Grecia (loc Santa maria) 73 88060",
      "brand": "Api-Ip",
      "lat": 38.85400417752465,
      "lng": 16.610724139881086,
      "fuels": {
        "sp95": 1.899,
        "gazole": 2.009
      }
    },
    {
      "id": "49743",
      "cp": "",
      "ville": "Catanzaro",
      "adresse": "Viale Pio X 238 88100",
      "brand": "Api-Ip",
      "lat": 38.928088715678584,
      "lng": 16.58000829176622,
      "fuels": {
        "sp95": 1.899,
        "gazole": 2.009
      }
    },
    {
      "id": "40271",
      "cp": "",
      "ville": "Chiaravalle Centrale",
      "adresse": "Località Tripomelingi Sp 171/2  88064",
      "brand": "Pompe Bianche",
      "lat": 38.695557649810574,
      "lng": 16.404787302017212,
      "fuels": {
        "sp95": 1.899,
        "gazole": 2.059
      }
    },
    {
      "id": "23477",
      "cp": "",
      "ville": "Chiaravalle Centrale",
      "adresse": "Via Mario Ceravolo Strada Provinciale Chiaravalle Centrale - Argusto  88064",
      "brand": "Agip Eni",
      "lat": 38.6817602610687,
      "lng": 16.427855640649796,
      "fuels": {
        "sp95": 1.924,
        "gazole": 2.024
      }
    },
    {
      "id": "25588",
      "cp": "",
      "ville": "Cortale",
      "adresse": "Salvo D'Acquisto Snc 88020",
      "brand": "Tamoil",
      "lat": 38.83788122082199,
      "lng": 16.411445819380674,
      "fuels": {
        "sp95": 1.948,
        "gazole": 2.116
      }
    },
    {
      "id": "46110",
      "cp": "",
      "ville": "Curinga",
      "adresse": "Madre Vincenzina Frijia Sn 88022",
      "brand": "Tamoil",
      "lat": 38.828199548494595,
      "lng": 16.313595068717177,
      "fuels": {
        "sp95": 1.949,
        "gazole": 2.049
      }
    },
    {
      "id": "32643",
      "cp": "",
      "ville": "Curinga",
      "adresse": "Strada prov.le 167/3 Snc 88022",
      "brand": "Pompe Bianche",
      "lat": 38.82474795155418,
      "lng": 16.282246614561586,
      "fuels": {
        "sp95": 1.929,
        "gazole": 2.019
      }
    },
    {
      "id": "23260",
      "cp": "",
      "ville": "Curinga",
      "adresse": "Strada Statale 18 Km 384  88022",
      "brand": "Tamoil",
      "lat": 38.849686518555984,
      "lng": 16.244414001703262,
      "fuels": {
        "sp95": 1.949,
        "gazole": 2.049,
        "gplc": 0.739
      }
    },
    {
      "id": "15241",
      "cp": "",
      "ville": "Decollatura",
      "adresse": "Via Umberto I  88041",
      "brand": "Api-Ip",
      "lat": 39.04760219992089,
      "lng": 16.355454102158546,
      "fuels": {
        "sp95": 1.899,
        "gazole": 1.989
      }
    },
    {
      "id": "6726",
      "cp": "",
      "ville": "Falerna",
      "adresse": "s.s. 18 Km 391+130  imp.q8 Snc 88040",
      "brand": "q8",
      "lat": 38.98492492166622,
      "lng": 16.14006457301639,
      "fuels": {
        "sp95": 1.919,
        "gazole": 2.039
      }
    },
    {
      "id": "16974",
      "cp": "",
      "ville": "Falerna",
      "adresse": "Statale 18 Tirrena inferiore, km. 386, dir. Falerna Scalo - 88042",
      "brand": "Esso",
      "lat": 38.995906835828,
      "lng": 16.13329142332077,
      "fuels": {
        "sp95": 1.939,
        "gazole": 2.029,
        "gplc": 0.849
      }
    },
    {
      "id": "6742",
      "cp": "",
      "ville": "Feroleto Antico",
      "adresse": "C/O Centro comm.le 2mari Snc 88040",
      "brand": "q8",
      "lat": 38.90160986732309,
      "lng": 16.34840726852417,
      "fuels": {
        "sp95": 1.919,
        "gazole": 2.079
      }
    },
    {
      "id": "62533",
      "cp": "",
      "ville": "Feroleto Antico",
      "adresse": "Localita' Dipodi s.n.c. 88040",
      "brand": "Pompe Bianche",
      "lat": 38.92851754074639,
      "lng": 16.361171407192987,
      "fuels": {
        "sp95": 1.874,
        "gazole": 1.984
      }
    },
    {
      "id": "54348",
      "cp": "",
      "ville": "Feroleto Antico",
      "adresse": "ss280",
      "brand": "Agip Eni",
      "lat": 38.903736,
      "lng": 16.355427,
      "fuels": {
        "sp95": 1.909,
        "gazole": 2.009,
        "gplc": 0.739
      }
    },
    {
      "id": "30681",
      "cp": "",
      "ville": "Gasperina",
      "adresse": "Via Antonio Gramsci s.p. Per Squillace  88060",
      "brand": "Tamoil",
      "lat": 38.74044998895002,
      "lng": 16.50471031665802,
      "fuels": {
        "sp95": 1.899,
        "gazole": 2.059
      }
    },
    {
      "id": "19053",
      "cp": "",
      "ville": "Girifalco",
      "adresse": "Via Como  2 D 88024",
      "brand": "q8",
      "lat": 38.82364685095094,
      "lng": 16.420503512303185,
      "fuels": {
        "sp95": 1.899,
        "gazole": 2.129
      }
    },
    {
      "id": "55253",
      "cp": "",
      "ville": "Girifalco",
      "adresse": "Via Nazionale Per Borgia s.n. 88024",
      "brand": "Esso",
      "lat": 38.82775147390302,
      "lng": 16.437030136585236,
      "fuels": {
        "sp95": 1.919,
        "gazole": 2.099,
        "gplc": 0.799
      }
    },
    {
      "id": "43727",
      "cp": "",
      "ville": "Gizzeria",
      "adresse": "18 Km 363+200 Sn 88040",
      "brand": "Tamoil",
      "lat": 38.96841117079657,
      "lng": 16.149963635582026,
      "fuels": {
        "sp95": 1.949,
        "gazole": 2.029
      }
    },
    {
      "id": "39110",
      "cp": "",
      "ville": "Gizzeria",
      "adresse": "Localita' Comunelli Snc 88040",
      "brand": "Pompe Bianche",
      "lat": 38.94974233551213,
      "lng": 16.21283233165741,
      "fuels": {
        "sp95": 1.945,
        "gazole": 1.995
      }
    },
    {
      "id": "9846",
      "cp": "",
      "ville": "Gizzeria",
      "adresse": "Ss 18 Km 399 + 630  88040",
      "brand": "q8",
      "lat": 38.93903727799015,
      "lng": 16.203291714191437,
      "fuels": {
        "sp95": 1.919,
        "gazole": 2.029
      }
    },
    {
      "id": "7421",
      "cp": "",
      "ville": "Gizzeria",
      "adresse": "Statale 18 Tirrena inferiore, km. 400+960, dir. Gizzeria Lido  88040",
      "brand": "Agip Eni",
      "lat": 38.931192496265865,
      "lng": 16.214310228824615,
      "fuels": {
        "sp95": 1.929,
        "gazole": 2.029
      }
    },
    {
      "id": "53822",
      "cp": "",
      "ville": "Guardavalle",
      "adresse": "a. Giordano Snc 88065",
      "brand": "Api-Ip",
      "lat": 38.5053718,
      "lng": 16.5000912,
      "fuels": {
        "sp95": 1.929,
        "gazole": 2.029
      }
    },
    {
      "id": "5740",
      "cp": "",
      "ville": "Guardavalle",
      "adresse": "Via Nazionale Ss 106 Snc 88065",
      "brand": "Api-Ip",
      "lat": 38.48765365474171,
      "lng": 16.577972173690796,
      "fuels": {
        "sp95": 1.929,
        "gazole": 2.029,
        "gplc": 0.789
      }
    },
    {
      "id": "21252",
      "cp": "",
      "ville": "Lamezia Terme",
      "adresse": "280 Dei Due mari, km. 5,96, Lamezia Catanzaro  88046",
      "brand": "Esso",
      "lat": 38.90807455513591,
      "lng": 16.322357654571533,
      "fuels": {
        "sp95": 1.869,
        "gazole": 2.039,
        "gplc": 0.749
      }
    },
    {
      "id": "50678",
      "cp": "",
      "ville": "Lamezia Terme",
      "adresse": "a. Perugini Snc 88046",
      "brand": "Esso",
      "lat": 38.95742872569022,
      "lng": 16.287292918370465,
      "fuels": {
        "sp95": 1.899,
        "gazole": 2.099
      }
    },
    {
      "id": "33198",
      "cp": "",
      "ville": "Lamezia Terme",
      "adresse": "Autostrada a2 Autostrada Del mediterraneo,  km. 317,511, dir. Sud 88040",
      "brand": "Esso",
      "lat": 38.9293192557986,
      "lng": 16.23706877231598,
      "fuels": {
        "sp95": 1.969,
        "gazole": 2.099
      }
    },
    {
      "id": "3526",
      "cp": "",
      "ville": "Lamezia Terme",
      "adresse": "Autostrada a3 Salerno-Reggio calabria, km. 317.511, dir. Nord - -",
      "brand": "Agip Eni",
      "lat": 38.93004825394379,
      "lng": 16.236682534217834,
      "fuels": {
        "sp95": 2.019,
        "gazole": 2.119,
        "gplc": 0.919
      }
    },
    {
      "id": "27577",
      "cp": "",
      "ville": "Lamezia Terme",
      "adresse": "c.da Capizzaglie Snc 88046",
      "brand": "Tamoil",
      "lat": 38.95995940540557,
      "lng": 16.309268474578857,
      "fuels": {
        "sp95": 1.899,
        "gazole": 2.019
      }
    },
    {
      "id": "47174",
      "cp": "",
      "ville": "Lamezia Terme",
      "adresse": "c.da Carra' Cosentino Snc 88046",
      "brand": "Fstation",
      "lat": 38.93162224081038,
      "lng": 16.286072107137198,
      "fuels": {
        "sp95": 1.897,
        "gazole": 2.017
      }
    },
    {
      "id": "59905",
      "cp": "",
      "ville": "Lamezia Terme",
      "adresse": "Del Progresso 22 88046",
      "brand": "Agip Eni",
      "lat": 38.96582874092098,
      "lng": 16.323907481384257,
      "fuels": {
        "sp95": 1.919,
        "gazole": 1.989
      }
    },
    {
      "id": "39325",
      "cp": "",
      "ville": "Lamezia Terme",
      "adresse": "Del Progresso Snc 88046",
      "brand": "Tamoil",
      "lat": 38.94289839782541,
      "lng": 16.331773549318314,
      "fuels": {
        "sp95": 1.899,
        "gazole": 2.019
      }
    },
    {
      "id": "54704",
      "cp": "",
      "ville": "Lamezia Terme",
      "adresse": "Ex ss. 18 km. 37+546 - Via Delle Terme",
      "brand": "Tamoil",
      "lat": 38.960564,
      "lng": 16.2673665,
      "fuels": {
        "sp95": 1.899,
        "gazole": 2.019
      }
    },
    {
      "id": "56744",
      "cp": "",
      "ville": "Lamezia Terme",
      "adresse": "f. D'Amico  Aereoporto Snc 88046",
      "brand": "Fstation",
      "lat": 38.91191485030759,
      "lng": 16.247609853744507,
      "fuels": {
        "sp95": 1.897,
        "gazole": 2.017,
        "gplc": 0.769
      }
    },
    {
      "id": "50450",
      "cp": "",
      "ville": "Lamezia Terme",
      "adresse": "Leanza ss280 88046",
      "brand": "Lukoil",
      "lat": 38.9109172283863,
      "lng": 16.311891674995422,
      "fuels": {
        "sp95": 1.895,
        "gazole": 2.035,
        "gplc": 0.765
      }
    },
    {
      "id": "50822",
      "cp": "",
      "ville": "Lamezia Terme",
      "adresse": "Localita' Montesano Via Pasquale Cerra 5 88046",
      "brand": "Pompe Bianche",
      "lat": 38.92474162308554,
      "lng": 16.28392217300172,
      "fuels": {
        "sp95": 1.879,
        "gazole": 2.029,
        "gplc": 0.759
      }
    },
    {
      "id": "44929",
      "cp": "",
      "ville": "Lamezia Terme",
      "adresse": "Marconi Sn 88046",
      "brand": "Tamoil",
      "lat": 38.967676512760974,
      "lng": 16.3000193558197,
      "fuels": {
        "sp95": 1.899,
        "gazole": 2.019
      }
    },
    {
      "id": "26484",
      "cp": "",
      "ville": "Lamezia Terme",
      "adresse": "Piazza Borelli 1 88046",
      "brand": "Api-Ip",
      "lat": 38.97103499376419,
      "lng": 16.313810795545578,
      "fuels": {
        "sp95": 1.889,
        "gazole": 1.979
      }
    },
    {
      "id": "45636",
      "cp": "",
      "ville": "Lamezia Terme",
      "adresse": "Pietro Caligiuri Sn 88046",
      "brand": "Tamoil",
      "lat": 38.93312254414874,
      "lng": 16.28760557116391,
      "fuels": {
        "sp95": 1.899,
        "gazole": 2.019
      }
    },
    {
      "id": "52482",
      "cp": "",
      "ville": "Lamezia Terme",
      "adresse": "s.s. 280 - Bivio Aeroporto  88046",
      "brand": "Agip Eni",
      "lat": 38.912974685884,
      "lng": 16.258324222849485,
      "fuels": {
        "sp95": 1.909,
        "gazole": 2.009
      }
    },
    {
      "id": "59781",
      "cp": "",
      "ville": "Lamezia Terme",
      "adresse": "ss18 Km 380+436 Localita Santa Venere Servacasa Snc 88046",
      "brand": "Fstation",
      "lat": 38.88495012678521,
      "lng": 16.25592067837715,
      "fuels": {
        "sp95": 1.897,
        "gazole": 2.017
      }
    },
    {
      "id": "22675",
      "cp": "",
      "ville": "Lamezia Terme",
      "adresse": "Via a. Perugini Snc 88046",
      "brand": "Pompe Bianche",
      "lat": 38.95978808374257,
      "lng": 16.297591196059102,
      "fuels": {
        "sp95": 1.875,
        "gazole": 1.985
      }
    },
    {
      "id": "29327",
      "cp": "",
      "ville": "Lamezia Terme",
      "adresse": "Via Dei Bizantini 4 88046",
      "brand": "Agip Eni",
      "lat": 38.9593647,
      "lng": 16.3087763,
      "fuels": {
        "sp95": 1.869,
        "gazole": 1.944
      }
    },
    {
      "id": "9180",
      "cp": "",
      "ville": "Lamezia Terme",
      "adresse": "Via Del Mare s.n. 88048, Lamezia Terme (cz) Snc 88046",
      "brand": "q8",
      "lat": 38.92144748490723,
      "lng": 16.253204941749573,
      "fuels": {
        "sp95": 1.869,
        "gazole": 1.969
      }
    },
    {
      "id": "47175",
      "cp": "",
      "ville": "Lamezia Terme",
      "adresse": "Via Del Progresso 308 88046",
      "brand": "Fstation",
      "lat": 38.95453199860109,
      "lng": 16.33116475008149,
      "fuels": {
        "sp95": 1.897,
        "gazole": 2.017
      }
    },
    {
      "id": "22264",
      "cp": "",
      "ville": "Lamezia Terme",
      "adresse": "Via Del progresso, Sp 86 Loc Stretto 680 88046",
      "brand": "Esso",
      "lat": 38.91200668090942,
      "lng": 16.33392333984371,
      "fuels": {
        "sp95": 1.869,
        "gazole": 2.039
      }
    },
    {
      "id": "43092",
      "cp": "",
      "ville": "Lamezia Terme",
      "adresse": "Via Delle Terme - fr. Sambiase  88046",
      "brand": "Tamoil",
      "lat": 38.965534141932146,
      "lng": 16.280665582209053,
      "fuels": {
        "sp95": 1.899,
        "gazole": 2.019
      }
    },
    {
      "id": "19074",
      "cp": "",
      "ville": "Lamezia Terme",
      "adresse": "Via Delle terme,  88046 - -",
      "brand": "Api-Ip",
      "lat": 38.96473270493585,
      "lng": 16.27808923044131,
      "fuels": {
        "sp95": 1.869,
        "gazole": 1.959
      }
    },
    {
      "id": "13006",
      "cp": "",
      "ville": "Lamezia Terme",
      "adresse": "Via Guglielmo Marconi",
      "brand": "Agip Eni",
      "lat": 38.96589490818041,
      "lng": 16.28996729850769,
      "fuels": {
        "sp95": 1.899,
        "gazole": 1.999
      }
    },
    {
      "id": "30315",
      "cp": "",
      "ville": "Lamezia Terme",
      "adresse": "Via Loriedo 8 88046",
      "brand": "Esse Oil",
      "lat": 38.9724945,
      "lng": 16.3181501,
      "fuels": {
        "sp95": 1.884,
        "gazole": 2.044
      }
    },
    {
      "id": "24229",
      "cp": "",
      "ville": "Lamezia Terme",
      "adresse": "Via s. Miceli  88046",
      "brand": "Api-Ip",
      "lat": 38.96886559115861,
      "lng": 16.311363790178348,
      "fuels": {
        "sp95": 1.869,
        "gazole": 1.959
      }
    },
    {
      "id": "22952",
      "cp": "",
      "ville": "Lamezia Terme",
      "adresse": "Via s. Miceli 167 88046",
      "brand": "Pompe Bianche",
      "lat": 38.966163516476826,
      "lng": 16.310624331235886,
      "fuels": {
        "sp95": 1.899,
        "gazole": 2.049
      }
    },
    {
      "id": "31606",
      "cp": "",
      "ville": "Lamezia Terme",
      "adresse": "Via s.p. 108 km. 2+250 loc. Palazzo  88046",
      "brand": "q8",
      "lat": 38.91785437589847,
      "lng": 16.290401816368103,
      "fuels": {
        "sp95": 1.909,
        "gazole": 2.019
      }
    },
    {
      "id": "20603",
      "cp": "",
      "ville": "Lamezia Terme",
      "adresse": "Via s.s. 18 Santa Eufemia  88046",
      "brand": "Esso",
      "lat": 38.927745525232055,
      "lng": 16.226602792739868,
      "fuels": {
        "sp95": 1.899,
        "gazole": 2.029
      }
    },
    {
      "id": "61396",
      "cp": "",
      "ville": "Lamezia Terme",
      "adresse": "Via Scarpino  16162",
      "brand": "Tamoil",
      "lat": 38.9579347,
      "lng": 16.3267462,
      "fuels": {
        "sp95": 1.899,
        "gazole": 2.019
      }
    },
    {
      "id": "6727",
      "cp": "",
      "ville": "Lamezia Terme",
      "adresse": "Via Scarpino c.da Donna Mazza Snc 88046",
      "brand": "q8",
      "lat": 38.96182300518135,
      "lng": 16.31370259510652,
      "fuels": {
        "sp95": 1.869,
        "gazole": 1.969
      }
    },
    {
      "id": "26003",
      "cp": "",
      "ville": "Lamezia Terme",
      "adresse": "Via Timavo Snc 88046",
      "brand": "Esso",
      "lat": 38.967571608059465,
      "lng": 16.321457773447037,
      "fuels": {
        "sp95": 1.857,
        "gazole": 1.917
      }
    },
    {
      "id": "58957",
      "cp": "",
      "ville": "Lamezia Terme",
      "adresse": "Via Timavo Snc 88046",
      "brand": "Fstation",
      "lat": 38.96766336660897,
      "lng": 16.322067975997925,
      "fuels": {
        "sp95": 1.897,
        "gazole": 2.017
      }
    },
    {
      "id": "10749",
      "cp": "",
      "ville": "Lamezia Terme",
      "adresse": "Via Via Marconi 80 88046, Lamezia Terme (cz) 118 88046",
      "brand": "Pompe Bianche",
      "lat": 38.96892825428647,
      "lng": 16.304506768539454,
      "fuels": {
        "sp95": 1.899,
        "gazole": 2.049
      }
    },
    {
      "id": "54229",
      "cp": "",
      "ville": "Lamezia Terme",
      "adresse": "Viale s. Bruno 19  88046",
      "brand": "Petrol Company",
      "lat": 38.9566801,
      "lng": 16.2609815,
      "fuels": {
        "sp95": 1.899,
        "gazole": 2.019,
        "gplc": 0.759
      }
    },
    {
      "id": "50768",
      "cp": "",
      "ville": "Lamezia Terme",
      "adresse": "Viale San Bruno 3 88046",
      "brand": "Api-Ip",
      "lat": 38.957030934411094,
      "lng": 16.26133003902269,
      "fuels": {
        "sp95": 1.869,
        "gazole": 1.959
      }
    },
    {
      "id": "46752",
      "cp": "",
      "ville": "Magisano",
      "adresse": "s.prov.le Per Vincolise Sn 88050",
      "brand": "Tamoil",
      "lat": 39.01268447497375,
      "lng": 16.612084364218845,
      "fuels": {
        "sp95": 1.919,
        "gazole": 2.029
      }
    },
    {
      "id": "20732",
      "cp": "",
      "ville": "Maida",
      "adresse": "Le Mura Snc 88025",
      "brand": "Api-Ip",
      "lat": 38.859194674626075,
      "lng": 16.363594546890454,
      "fuels": {
        "sp95": 1.899,
        "gazole": 1.989
      }
    },
    {
      "id": "35907",
      "cp": "",
      "ville": "Maida",
      "adresse": "Statale 280 - Km 14+237 Snc 88025",
      "brand": "Petrol Company",
      "lat": 38.9056337057069,
      "lng": 16.407147951514844,
      "fuels": {
        "sp95": 1.909,
        "gazole": 2.009,
        "gplc": 0.739
      }
    },
    {
      "id": "50451",
      "cp": "",
      "ville": "Marcellinara",
      "adresse": "s.s.280 Due Mari 280 88044",
      "brand": "Toil",
      "lat": 38.91594067579719,
      "lng": 16.45898535847664,
      "fuels": {
        "sp95": 1.919,
        "gazole": 2.039
      }
    },
    {
      "id": "32663",
      "cp": "",
      "ville": "Marcellinara",
      "adresse": "Zona Industriale Marcellinara Snc 88044",
      "brand": "Pompe Bianche",
      "lat": 38.90865794799333,
      "lng": 16.41817854055944,
      "fuels": {
        "sp95": 1.895,
        "gazole": 2.005
      }
    },
    {
      "id": "62220",
      "cp": "",
      "ville": "Martirano Lombardo",
      "adresse": "v. Michele Berardelli 2  88040",
      "brand": "q8",
      "lat": 39.07405029968551,
      "lng": 16.232501065570702,
      "fuels": {
        "sp95": 1.899,
        "gazole": 2.039
      }
    },
    {
      "id": "15821",
      "cp": "",
      "ville": "Montauro",
      "adresse": "Localita' Giardino Nuovo  88060",
      "brand": "Api-Ip",
      "lat": 38.737488360752124,
      "lng": 16.54736816883087,
      "fuels": {
        "sp95": 1.946,
        "gazole": 2.066
      }
    },
    {
      "id": "30442",
      "cp": "",
      "ville": "Montauro",
      "adresse": "Statale 106 jonica, km. 170 - 850 , dir. Pietragrande - 88060",
      "brand": "Tamoil",
      "lat": 38.73963030223693,
      "lng": 16.54675528407097,
      "fuels": {
        "sp95": 1.949,
        "gazole": 2.049
      }
    },
    {
      "id": "52538",
      "cp": "",
      "ville": "Montepaone",
      "adresse": "106 jonica, km. 167+752, Sud  88060",
      "brand": "q8",
      "lat": 38.71488464107205,
      "lng": 16.53268575668335,
      "fuels": {
        "sp95": 1.899,
        "gazole": 2.059
      }
    },
    {
      "id": "13731",
      "cp": "",
      "ville": "Nocera Terinese",
      "adresse": "Statale 18 Tirrena inferiore, km. 384, dir. Nord - 88047",
      "brand": "Agip Eni",
      "lat": 39.014049438527316,
      "lng": 16.11783924610245,
      "fuels": {
        "sp95": 1.899,
        "gazole": 1.999
      }
    },
    {
      "id": "47042",
      "cp": "",
      "ville": "Nocera Terinese",
      "adresse": "Via Santa Caterina 158 88047",
      "brand": "Pompe Bianche",
      "lat": 39.03460188935964,
      "lng": 16.16149241638732,
      "fuels": {
        "sp95": 1.989,
        "gazole": 2.079
      }
    },
    {
      "id": "23218",
      "cp": "",
      "ville": "Olivadi",
      "adresse": "Via Indipendenza Snc 88060",
      "brand": "Pompe Bianche",
      "lat": 38.72487768029566,
      "lng": 16.424484103918076,
      "fuels": {
        "sp95": 1.874,
        "gazole": 2.049
      }
    },
    {
      "id": "23575",
      "cp": "",
      "ville": "Petrizzi",
      "adresse": "Statale 182 Delle Serre calabre, km. 80, dir. Serra San Bruno - Soverato Snc 88060",
      "brand": "Esso",
      "lat": 38.689410219651414,
      "lng": 16.46000325679779,
      "fuels": {
        "sp95": 1.896,
        "gazole": 2.036
      }
    },
    {
      "id": "12471",
      "cp": "",
      "ville": "Petronà",
      "adresse": "Rione Arenacchio Snc 88050",
      "brand": "Pompe Bianche",
      "lat": 39.04689801881477,
      "lng": 16.764959620476475,
      "fuels": {
        "sp95": 1.919,
        "gazole": 2.039
      }
    },
    {
      "id": "56856",
      "cp": "",
      "ville": "Pianopoli",
      "adresse": "Viale e. Berlinguer Snc 88040",
      "brand": "Fstation",
      "lat": 38.941617938015575,
      "lng": 16.37899249792099,
      "fuels": {
        "sp95": 1.897,
        "gazole": 2.017
      }
    },
    {
      "id": "60414",
      "cp": "",
      "ville": "Platania",
      "adresse": "Via Mulia Snc 88040",
      "brand": "Fstation",
      "lat": 39.00529936811588,
      "lng": 16.3186776638031,
      "fuels": {
        "sp95": 1.897,
        "gazole": 2.017
      }
    },
    {
      "id": "58297",
      "cp": "",
      "ville": "San Pietro A Maida",
      "adresse": "Via prov. Maida-Curinga  Snc",
      "brand": "Agip Eni",
      "lat": 38.846085,
      "lng": 16.339016,
      "fuels": {
        "sp95": 1.909,
        "gazole": 2.009
      }
    },
    {
      "id": "61875",
      "cp": "",
      "ville": "San Pietro Apostolo",
      "adresse": "Ex s.s. 19 Snc 88040",
      "brand": "Esso",
      "lat": 39.00218,
      "lng": 16.47819,
      "fuels": {
        "sp95": 1.879,
        "gazole": 1.969
      }
    },
    {
      "id": "48800",
      "cp": "",
      "ville": "San Vito Sullo Ionio",
      "adresse": "Via Roma (circumvallazione) Snc 88067",
      "brand": "Api-Ip",
      "lat": 38.7059329965302,
      "lng": 16.409626007080078,
      "fuels": {
        "sp95": 1.939,
        "gazole": 2.059
      }
    },
    {
      "id": "56356",
      "cp": "",
      "ville": "Sant'Andrea Apostolo Dello Ionio",
      "adresse": "Statale 106 jonica, km. 156, dir. Sant'Andrea Apostolo Dello Ionio - 88060",
      "brand": "Api-Ip",
      "lat": 38.62237106854505,
      "lng": 16.55218005180359,
      "fuels": {
        "sp95": 1.969,
        "gazole": 2.059
      }
    },
    {
      "id": "40684",
      "cp": "",
      "ville": "Santa Caterina Dello Ionio",
      "adresse": "Nazionale Ss 106 Snc 88060",
      "brand": "Api-Ip",
      "lat": 38.532717874414864,
      "lng": 16.570246070623398,
      "fuels": {
        "sp95": 1.929,
        "gazole": 2.029
      }
    },
    {
      "id": "48766",
      "cp": "",
      "ville": "Santa Caterina Dello Ionio",
      "adresse": "Ss 106 Km 143+205 Sn 88060",
      "brand": "Tamoil",
      "lat": 38.50529194637588,
      "lng": 16.575823171163947,
      "fuels": {
        "sp95": 1.929,
        "gazole": 2.069
      }
    },
    {
      "id": "9332",
      "cp": "",
      "ville": "Santa Caterina Dello Ionio",
      "adresse": "Statale 106 jonica, km. 146, dir. Reggio Calabria - 88060",
      "brand": "Tamoil",
      "lat": 38.529659104709275,
      "lng": 16.570773124694824,
      "fuels": {
        "sp95": 1.949,
        "gazole": 2.089
      }
    },
    {
      "id": "39542",
      "cp": "",
      "ville": "Satriano",
      "adresse": "89+30 Strada Statale Catanzaro Satriano  88060",
      "brand": "Esso",
      "lat": 38.679069244276185,
      "lng": 16.522294878959656,
      "fuels": {
        "sp95": 1.889,
        "gazole": 2.069
      }
    },
    {
      "id": "44510",
      "cp": "",
      "ville": "Sellia Marina",
      "adresse": "106 jonica, km. 198+838, Nord - 88050",
      "brand": "Tamoil",
      "lat": 38.898435089336864,
      "lng": 16.739141465020793,
      "fuels": {
        "sp95": 1.949,
        "gazole": 2.069
      }
    },
    {
      "id": "35559",
      "cp": "",
      "ville": "Sellia Marina",
      "adresse": "Ss 106km 196+702 Snc 88050",
      "brand": "Tamoil",
      "lat": 38.88937414983409,
      "lng": 16.718069314956665,
      "fuels": {
        "sp95": 1.929,
        "gazole": 2.049
      }
    },
    {
      "id": "6725",
      "cp": "",
      "ville": "Sellia Marina",
      "adresse": "ss.106-km.203 940 Snc 88050",
      "brand": "q8",
      "lat": 38.917822898411394,
      "lng": 16.791445926389315,
      "fuels": {
        "sp95": 1.899,
        "gazole": 2.019
      }
    },
    {
      "id": "34558",
      "cp": "",
      "ville": "Sellia Marina",
      "adresse": "Statale 106 jonica, km. 200,800, dir. Est - 88050",
      "brand": "Api-Ip",
      "lat": 38.90438120573112,
      "lng": 16.760195419192314,
      "fuels": {
        "sp95": 1.919,
        "gazole": 2.029
      }
    },
    {
      "id": "44105",
      "cp": "",
      "ville": "Serrastretta",
      "adresse": "Contrada Monache 14 88040",
      "brand": "Esso",
      "lat": 39.01334852218866,
      "lng": 16.428701877593994,
      "fuels": {
        "sp95": 1.919,
        "gazole": 1.969,
        "gplc": 0.839
      }
    },
    {
      "id": "55259",
      "cp": "",
      "ville": "Sersale",
      "adresse": "Sila - Sp Ex Ss 180 Snc 88054",
      "brand": "Esso",
      "lat": 39.00863854296498,
      "lng": 16.737149120211793,
      "fuels": {
        "sp95": 1.899,
        "gazole": 2.039
      }
    },
    {
      "id": "20624",
      "cp": "",
      "ville": "Sersale",
      "adresse": "Statale 106 jonica, km. 202+310, dir. Catanzaro - 88054",
      "brand": "Tamoil",
      "lat": 38.9112490748913,
      "lng": 16.77487514913082,
      "fuels": {
        "sp95": 1.949,
        "gazole": 2.069
      }
    },
    {
      "id": "46967",
      "cp": "",
      "ville": "Sersale",
      "adresse": "Via Dei Carri Sud Snc 88054",
      "brand": "Pompe Bianche",
      "lat": 39.006761586231754,
      "lng": 16.740169374764605,
      "fuels": {
        "sp95": 1.889,
        "gazole": 2.029
      }
    },
    {
      "id": "31003",
      "cp": "",
      "ville": "Simeri Crichi",
      "adresse": "Strada com.le Di Via Catanzaro Snc 88050",
      "brand": "Pompe Bianche",
      "lat": 38.954240507628306,
      "lng": 16.645353274429908,
      "fuels": {
        "sp95": 1.979,
        "gazole": 2.109
      }
    },
    {
      "id": "55342",
      "cp": "",
      "ville": "Simeri Crichi",
      "adresse": "Strada Provinciale Lungo Fiume Alli Snc  88050",
      "brand": "Agip Eni",
      "lat": 38.867780680288966,
      "lng": 16.666560173034668,
      "fuels": {
        "sp95": 1.929,
        "gazole": 2.029,
        "gplc": 0.729
      }
    },
    {
      "id": "57770",
      "cp": "",
      "ville": "Soverato",
      "adresse": "Corso Umberto I 159 88068",
      "brand": "Esso",
      "lat": 38.6871342,
      "lng": 16.5490491,
      "fuels": {
        "sp95": 1.899,
        "gazole": 2.019
      }
    },
    {
      "id": "33034",
      "cp": "",
      "ville": "Soverato",
      "adresse": "Corso Umberto I ss106 km168+300 Snc 88068",
      "brand": "Agip Eni",
      "lat": 38.68538371904324,
      "lng": 16.549803614616394,
      "fuels": {
        "sp95": 1.909,
        "gazole": 2.019
      }
    },
    {
      "id": "39384",
      "cp": "",
      "ville": "Soverato",
      "adresse": "Strada Statale 106 Località San Nicola Km 165 +900  88068",
      "brand": "Energas",
      "lat": 38.699688785945135,
      "lng": 16.53596341609955,
      "fuels": {
        "sp95": 1.889,
        "gazole": 1.999,
        "e85": 1.75,
        "gplc": 0.729
      }
    },
    {
      "id": "58175",
      "cp": "",
      "ville": "Soverato",
      "adresse": "Via Della Stazione Snc 88068",
      "brand": "q8",
      "lat": 38.68352059425569,
      "lng": 16.550430196167,
      "fuels": {
        "sp95": 1.899,
        "gazole": 2.079
      }
    },
    {
      "id": "56819",
      "cp": "",
      "ville": "Soveria Mannelli",
      "adresse": "Via Provinciale 66  88049",
      "brand": "q8",
      "lat": 39.07082880762874,
      "lng": 16.373964022937027,
      "fuels": {
        "sp95": 1.899,
        "gazole": 1.999
      }
    },
    {
      "id": "20733",
      "cp": "",
      "ville": "Soveria Mannelli",
      "adresse": "Viale Rosario Rubbettino  88049",
      "brand": "Agip Eni",
      "lat": 39.0792116,
      "lng": 16.3780271,
      "fuels": {
        "sp95": 1.929,
        "gazole": 2.039
      }
    },
    {
      "id": "50076",
      "cp": "",
      "ville": "Squillace",
      "adresse": "Fuori Le Mura Sn 88069",
      "brand": "Tamoil",
      "lat": 38.78075148182378,
      "lng": 16.51472562331351,
      "fuels": {
        "sp95": 1.919,
        "gazole": 2.029
      }
    },
    {
      "id": "24049",
      "cp": "",
      "ville": "Squillace",
      "adresse": "Via Nazionale s.n. 88069, Squillace (cz) Snc 88069",
      "brand": "Agip Eni",
      "lat": 38.78205132699168,
      "lng": 16.57073766464123,
      "fuels": {
        "sp95": 1.929,
        "gazole": 2.029
      }
    },
    {
      "id": "21714",
      "cp": "",
      "ville": "Taverna",
      "adresse": "Mattia Preti 47 88055",
      "brand": "Api-Ip",
      "lat": 39.02080399322798,
      "lng": 16.580407083328282,
      "fuels": {
        "sp95": 2.097,
        "gazole": 2.187
      }
    },
    {
      "id": "48446",
      "cp": "",
      "ville": "Taverna",
      "adresse": "Viale E Mancuso Snc 88055",
      "brand": "Pompe Bianche",
      "lat": 39.07455907323558,
      "lng": 16.564891057229882,
      "fuels": {
        "sp95": 1.999,
        "gazole": 2.299
      }
    },
    {
      "id": "11362",
      "cp": "",
      "ville": "Tiriolo",
      "adresse": "Corace Snc 88056",
      "brand": "Api-Ip",
      "lat": 38.89270814023103,
      "lng": 16.551643256470964,
      "fuels": {
        "sp95": 1.889,
        "gazole": 1.999
      }
    },
    {
      "id": "33010",
      "cp": "",
      "ville": "Tiriolo",
      "adresse": "Via Cigala Snc 88056",
      "brand": "q8",
      "lat": 38.94715550459003,
      "lng": 16.508173048496246,
      "fuels": {
        "sp95": 1.879,
        "gazole": 1.969
      }
    },
    {
      "id": "54562",
      "cp": "",
      "ville": "Zagarise",
      "adresse": "Roma 127 88050",
      "brand": "Pompe Bianche",
      "lat": 38.99982176086224,
      "lng": 16.667507268105517,
      "fuels": {
        "sp95": 1.919,
        "gazole": 2.159
      }
    }
  ]
}