{
  "code": "GE",
  "name": "Genova",
  "regionCode": "LIG",
  "regionName": "Liguria",
  "asOf": "2026-07-19T07:34:44.524Z",
  "source": "https://www.mimit.gov.it/it/open-data/elenco-dataset/2032336-dataset-prezzi-carburanti",
  "stationCount": 221,
  "fuels": {
    "gazole": {
      "count": 216,
      "mean": 2.0753,
      "median": 2.069,
      "min": 1.889,
      "max": 2.199
    },
    "sp95": {
      "count": 215,
      "mean": 1.9379,
      "median": 1.939,
      "min": 1.797,
      "max": 2.049
    },
    "e85": {
      "count": 2,
      "mean": 1.542,
      "median": 1.542,
      "min": 1.499,
      "max": 1.585
    },
    "gplc": {
      "count": 10,
      "mean": 0.9222,
      "median": 0.938,
      "min": 0.845,
      "max": 0.969
    }
  },
  "stations": [
    {
      "id": "8576",
      "cp": "",
      "ville": "Arenzano",
      "adresse": "Statale 1 Via aurelia, km. 549, 600, dir. Savona 6 16011",
      "brand": "Agip Eni",
      "lat": 44.40096609440244,
      "lng": 8.679231405258179,
      "fuels": {
        "sp95": 1.949,
        "gazole": 2.079
      }
    },
    {
      "id": "18004",
      "cp": "",
      "ville": "Arenzano",
      "adresse": "Via Della Pineta 27 16011",
      "brand": "Europam",
      "lat": 44.3969086926143,
      "lng": 8.681324869394302,
      "fuels": {
        "sp95": 1.949,
        "gazole": 2.049
      }
    },
    {
      "id": "53173",
      "cp": "",
      "ville": "Arenzano",
      "adresse": "Via Piazza a. Gramsci 12 16011, Arenzano (ge) 12 16011",
      "brand": "Esso",
      "lat": 44.402697,
      "lng": 8.6853529,
      "fuels": {
        "sp95": 1.999,
        "gazole": 2.099
      }
    },
    {
      "id": "60126",
      "cp": "",
      "ville": "Avegno",
      "adresse": "Via Leonardo Da Vinci 3  16030",
      "brand": "Kerotris",
      "lat": 44.38331833900808,
      "lng": 9.16438561037963,
      "fuels": {
        "sp95": 1.939,
        "gazole": 2.109
      }
    },
    {
      "id": "11604",
      "cp": "",
      "ville": "Bogliasco",
      "adresse": "Via Aurelia Km 512+025 S/N 16031",
      "brand": "q8",
      "lat": 44.37798918130953,
      "lng": 9.075604643918723,
      "fuels": {
        "sp95": 1.919,
        "gazole": 2.069
      }
    },
    {
      "id": "7665",
      "cp": "",
      "ville": "Borzonasca",
      "adresse": "Via Grilli 100 16041",
      "brand": "Esso",
      "lat": 44.42030649988798,
      "lng": 9.388393281023696,
      "fuels": {
        "sp95": 1.899,
        "gazole": 2.099
      }
    },
    {
      "id": "60147",
      "cp": "",
      "ville": "Busalla",
      "adresse": "p.ratto s.s.p.226 48 16012",
      "brand": "Centro Calor",
      "lat": 44.56767,
      "lng": 8.94927,
      "fuels": {
        "sp95": 1.909,
        "gazole": 2.079
      }
    },
    {
      "id": "59638",
      "cp": "",
      "ville": "Busalla",
      "adresse": "Via Roma  1 A",
      "brand": "Agip Eni",
      "lat": 44.5672,
      "lng": 8.946266,
      "fuels": {
        "sp95": 1.939,
        "gazole": 2.019
      }
    },
    {
      "id": "63427",
      "cp": "",
      "ville": "Camogli",
      "adresse": "Aurelia 317 16032",
      "brand": "Ag Energy",
      "lat": 44.3440596,
      "lng": 9.178258164723854,
      "fuels": {
        "gplc": 0.949
      }
    },
    {
      "id": "62562",
      "cp": "",
      "ville": "Camogli",
      "adresse": "Via Aurelia 317  16030",
      "brand": "Esso",
      "lat": 44.345841162902545,
      "lng": 9.180844244475109,
      "fuels": {
        "sp95": 1.919,
        "gazole": 2.099
      }
    },
    {
      "id": "33371",
      "cp": "",
      "ville": "Camogli",
      "adresse": "Via Giovanni Bettolo  16032",
      "brand": "Api-Ip",
      "lat": 44.34642826802645,
      "lng": 9.158888449636152,
      "fuels": {
        "sp95": 1.999,
        "gazole": 2.139
      }
    },
    {
      "id": "62236",
      "cp": "",
      "ville": "Campo Ligure",
      "adresse": "Isolagiugno 1 16013",
      "brand": "Api-Ip",
      "lat": 44.53071,
      "lng": 8.70201,
      "fuels": {
        "sp95": 1.989,
        "gazole": 2.119
      }
    },
    {
      "id": "45215",
      "cp": "",
      "ville": "Campo Ligure",
      "adresse": "Via Isola Giugno 79  16013",
      "brand": "q8",
      "lat": 44.52169,
      "lng": 8.70136,
      "fuels": {
        "sp95": 1.989,
        "gazole": 2.099,
        "gplc": 0.969
      }
    },
    {
      "id": "61423",
      "cp": "",
      "ville": "Campomorone",
      "adresse": "Via Alcide De Gasperi  16014",
      "brand": "Api-Ip",
      "lat": 44.509342,
      "lng": 8.8860229,
      "fuels": {
        "sp95": 1.959,
        "gazole": 2.119
      }
    },
    {
      "id": "45308",
      "cp": "",
      "ville": "Carasco",
      "adresse": "Disma - Bivio Graveglia 73 16042",
      "brand": "Agip Eni",
      "lat": 44.349566000123,
      "lng": 9.347616000123,
      "fuels": {
        "sp95": 1.944,
        "gazole": 2.074
      }
    },
    {
      "id": "40316",
      "cp": "",
      "ville": "Carasco",
      "adresse": "Via Milite Ignoto 5 16042",
      "brand": "Enercoop",
      "lat": 44.34753312165686,
      "lng": 9.350263774394989,
      "fuels": {
        "sp95": 1.875,
        "gazole": 2.045,
        "gplc": 0.845
      }
    },
    {
      "id": "48246",
      "cp": "",
      "ville": "Casarza Ligure",
      "adresse": "Via 4 Novembre  30 16030",
      "brand": "Agip Eni",
      "lat": 44.27423468191934,
      "lng": 9.454271775463118,
      "fuels": {
        "sp95": 1.949,
        "gazole": 2.079
      }
    },
    {
      "id": "55678",
      "cp": "",
      "ville": "Casella",
      "adresse": "Via Mandelli 60  16015",
      "brand": "Oil Italia",
      "lat": 44.535005358016846,
      "lng": 8.998344540596008,
      "fuels": {
        "sp95": 1.909,
        "gazole": 2.047
      }
    },
    {
      "id": "43911",
      "cp": "",
      "ville": "Casella",
      "adresse": "Via Mandelli 80 16015",
      "brand": "Europam",
      "lat": 44.53493442196196,
      "lng": 8.998816734022057,
      "fuels": {
        "sp95": 1.907,
        "gazole": 2.047
      }
    },
    {
      "id": "9906",
      "cp": "",
      "ville": "Castiglione Chiavarese",
      "adresse": "Della Chiesa  16030",
      "brand": "Tamoil",
      "lat": 44.2736345754966,
      "lng": 9.514477059264436,
      "fuels": {
        "sp95": 1.909,
        "gazole": 2.019
      }
    },
    {
      "id": "11598",
      "cp": "",
      "ville": "Chiavari",
      "adresse": "c.so De Michiel 62 16043",
      "brand": "q8",
      "lat": 44.31289212243759,
      "lng": 9.328175101852366,
      "fuels": {
        "sp95": 1.909,
        "gazole": 2.059
      }
    },
    {
      "id": "51575",
      "cp": "",
      "ville": "Chiavari",
      "adresse": "c.so genova, 40  16043",
      "brand": "Agip Eni",
      "lat": 44.32000045884992,
      "lng": 9.31927854041054,
      "fuels": {
        "sp95": 1.949,
        "gazole": 2.059
      }
    },
    {
      "id": "6385",
      "cp": "",
      "ville": "Chiavari",
      "adresse": "Corso De Michiel  impiant.q8 6 16043",
      "brand": "q8",
      "lat": 44.31378226103607,
      "lng": 9.326199426983635,
      "fuels": {
        "sp95": 1.919,
        "gazole": 2.059
      }
    },
    {
      "id": "56180",
      "cp": "",
      "ville": "Chiavari",
      "adresse": "De Michel 125 16043",
      "brand": "Esso",
      "lat": 44.312475735698285,
      "lng": 9.331026490615839,
      "fuels": {
        "sp95": 1.909,
        "gazole": 2.099
      }
    },
    {
      "id": "13295",
      "cp": "",
      "ville": "Chiavari",
      "adresse": "Via Castagnola 22 16043",
      "brand": "Esso",
      "lat": 44.32136731666793,
      "lng": 9.321439080950995,
      "fuels": {
        "sp95": 1.904,
        "gazole": 2.099
      }
    },
    {
      "id": "33158",
      "cp": "",
      "ville": "Chiavari",
      "adresse": "Via Castagnola 5/A 16043",
      "brand": "Api-Ip",
      "lat": 44.32116506440989,
      "lng": 9.322591423988342,
      "fuels": {
        "sp95": 1.899,
        "gazole": 2.069
      }
    },
    {
      "id": "21024",
      "cp": "",
      "ville": "Chiavari",
      "adresse": "Via Parma 250f 16043",
      "brand": "Esso",
      "lat": 44.33200725515373,
      "lng": 9.345613494515419,
      "fuels": {
        "sp95": 1.889,
        "gazole": 2.039
      }
    },
    {
      "id": "10457",
      "cp": "",
      "ville": "Chiavari",
      "adresse": "Via Piacenza 305 16043",
      "brand": "q8",
      "lat": 44.319993491106686,
      "lng": 9.341169692337644,
      "fuels": {
        "sp95": 1.899,
        "gazole": 2.099
      }
    },
    {
      "id": "51469",
      "cp": "",
      "ville": "Chiavari",
      "adresse": "Via Trieste  16043",
      "brand": "Agip Eni",
      "lat": 44.312369636410615,
      "lng": 9.332768387355308,
      "fuels": {
        "sp95": 1.949,
        "gazole": 2.059
      }
    },
    {
      "id": "53913",
      "cp": "",
      "ville": "Cicagna",
      "adresse": "Pian Mercato 19 16044",
      "brand": "Api-Ip",
      "lat": 44.40586116706818,
      "lng": 9.242696380242705,
      "fuels": {
        "sp95": 1.989,
        "gazole": 2.109
      }
    },
    {
      "id": "43462",
      "cp": "",
      "ville": "Cogoleto",
      "adresse": "1 Via aurelia, km. 554, Cogoleto - 16016",
      "brand": "Api-Ip",
      "lat": 44.38372437673726,
      "lng": 8.637065714120808,
      "fuels": {
        "sp95": 1.999,
        "gazole": 2.149
      }
    },
    {
      "id": "50632",
      "cp": "",
      "ville": "Cogoleto",
      "adresse": "Via p.zza Giovanni Xxiii 10 16016, Cogoleto (ge) 10 16016",
      "brand": "Api-Ip",
      "lat": 44.38968930201082,
      "lng": 8.648772239685059,
      "fuels": {
        "sp95": 1.979,
        "gazole": 2.099
      }
    },
    {
      "id": "60128",
      "cp": "",
      "ville": "Davagna",
      "adresse": "Via Giovanni Bombrini  16022",
      "brand": "Kerotris",
      "lat": 44.46532982311273,
      "lng": 9.086602895224212,
      "fuels": {
        "sp95": 1.989,
        "gazole": 2.139
      }
    },
    {
      "id": "23908",
      "cp": "",
      "ville": "Genova",
      "adresse": "Autostrada a12 Genova-Sestri l., km. 14, dir. Est - 16167",
      "brand": "q8",
      "lat": 44.39251464534096,
      "lng": 9.04591217637062,
      "fuels": {
        "sp95": 1.979,
        "gazole": 2.099
      }
    },
    {
      "id": "3474",
      "cp": "",
      "ville": "Genova",
      "adresse": "Autostrada a12 Genova-Sestri l., km. 14+500, dir. Ovest - 16167",
      "brand": "Api-Ip",
      "lat": 44.3929869210189,
      "lng": 9.04581874603275,
      "fuels": {
        "sp95": 2.049,
        "gazole": 2.189
      }
    },
    {
      "id": "37688",
      "cp": "",
      "ville": "Genova",
      "adresse": "Autostrada a7 Serravalle-genova,  km. 133, dir. Milano - 16129",
      "brand": "q8",
      "lat": 44.411170637943606,
      "lng": 8.900704756379128,
      "fuels": {
        "sp95": 1.949,
        "gazole": 2.069
      }
    },
    {
      "id": "62318",
      "cp": "",
      "ville": "Genova",
      "adresse": "c.so Europa 1085  16148",
      "brand": "Esso",
      "lat": 44.39430462012957,
      "lng": 9.00056662829247,
      "fuels": {
        "sp95": 1.899,
        "gazole": 2.099
      }
    },
    {
      "id": "61369",
      "cp": "",
      "ville": "Genova",
      "adresse": "c.so Europa 211 16148",
      "brand": "Esso",
      "lat": 44.40751192313981,
      "lng": 8.977857828140298,
      "fuels": {
        "sp95": 1.939,
        "gazole": 2.079
      }
    },
    {
      "id": "58743",
      "cp": "",
      "ville": "Genova",
      "adresse": "c.so Europa 213  16132",
      "brand": "Agip Eni",
      "lat": 44.40703,
      "lng": 8.978733,
      "fuels": {
        "sp95": 1.929,
        "gazole": 2.069
      }
    },
    {
      "id": "11599",
      "cp": "",
      "ville": "Genova",
      "adresse": "c.so Europa 852 16148",
      "brand": "q8",
      "lat": 44.398588501533375,
      "lng": 8.993444431877151,
      "fuels": {
        "sp95": 1.929,
        "gazole": 2.089
      }
    },
    {
      "id": "21456",
      "cp": "",
      "ville": "Genova",
      "adresse": "Calata Mogadiscio  16100",
      "brand": "Esso",
      "lat": 44.407798382229096,
      "lng": 8.893089964985847,
      "fuels": {
        "sp95": 1.869,
        "gazole": 2.039
      }
    },
    {
      "id": "47456",
      "cp": "",
      "ville": "Genova",
      "adresse": "Cantore 20a 16149",
      "brand": "Agip Eni",
      "lat": 44.41049890030307,
      "lng": 8.903659292627703,
      "fuels": {
        "sp95": 1.919,
        "gazole": 2.049
      }
    },
    {
      "id": "59226",
      "cp": "",
      "ville": "Genova",
      "adresse": "Corso Alessandro De Stefanis 215  16139",
      "brand": "Agip Eni",
      "lat": 44.420525,
      "lng": 8.950022,
      "fuels": {
        "sp95": 1.939,
        "gazole": 2.049
      }
    },
    {
      "id": "42573",
      "cp": "",
      "ville": "Genova",
      "adresse": "Corso Europa 1258 16100",
      "brand": "Europam",
      "lat": 44.392792900980545,
      "lng": 9.008513979518852,
      "fuels": {
        "sp95": 1.917,
        "gazole": 2.047
      }
    },
    {
      "id": "49923",
      "cp": "",
      "ville": "Genova",
      "adresse": "Corso Europa 1259 16132",
      "brand": "Europam",
      "lat": 44.392769328332626,
      "lng": 9.008502038621534,
      "fuels": {
        "sp95": 1.917,
        "gazole": 2.047
      }
    },
    {
      "id": "22331",
      "cp": "",
      "ville": "Genova",
      "adresse": "Corso Europa 1500 16166",
      "brand": "q8",
      "lat": 44.388870362184285,
      "lng": 9.014873917790965,
      "fuels": {
        "sp95": 1.899,
        "gazole": 2.049
      }
    },
    {
      "id": "24590",
      "cp": "",
      "ville": "Genova",
      "adresse": "Corso Europa 1624 16166",
      "brand": "Api-Ip",
      "lat": 44.386915334350675,
      "lng": 9.018170495700815,
      "fuels": {
        "sp95": 1.939,
        "gazole": 2.119
      }
    },
    {
      "id": "37285",
      "cp": "",
      "ville": "Genova",
      "adresse": "Corso Europa 188 16132",
      "brand": "Europam",
      "lat": 44.407667658056965,
      "lng": 8.978345988836054,
      "fuels": {
        "sp95": 1.929,
        "gazole": 2.029
      }
    },
    {
      "id": "49499",
      "cp": "",
      "ville": "Genova",
      "adresse": "Corso Europa 844 16148",
      "brand": "Esso",
      "lat": 44.39880477000103,
      "lng": 8.992981643843143,
      "fuels": {
        "sp95": 1.906,
        "gazole": 2.066
      }
    },
    {
      "id": "11601",
      "cp": "",
      "ville": "Genova",
      "adresse": "Corso Italia 34/B/Rosso 16145",
      "brand": "q8",
      "lat": 44.39312720456297,
      "lng": 8.963374156946543,
      "fuels": {
        "sp95": 1.979,
        "gazole": 2.089
      }
    },
    {
      "id": "24402",
      "cp": "",
      "ville": "Genova",
      "adresse": "Corso Italia 36 16145",
      "brand": "q8",
      "lat": 44.391593451421926,
      "lng": 8.966817941139198,
      "fuels": {
        "sp95": 1.949,
        "gazole": 2.069
      }
    },
    {
      "id": "45049",
      "cp": "",
      "ville": "Genova",
      "adresse": "Corso Magenta 25 16125",
      "brand": "Europam",
      "lat": 44.414819035235084,
      "lng": 8.93823795372009,
      "fuels": {
        "sp95": 1.927,
        "gazole": 2.057
      }
    },
    {
      "id": "48276",
      "cp": "",
      "ville": "Genova",
      "adresse": "Corso Paganini 4 16125",
      "brand": "Agip Eni",
      "lat": 44.41444886722667,
      "lng": 8.936012668367903,
      "fuels": {
        "sp95": 1.979,
        "gazole": 2.104
      }
    },
    {
      "id": "32481",
      "cp": "",
      "ville": "Genova",
      "adresse": "Corso Sardegna  282 16142",
      "brand": "q8",
      "lat": 44.41392925041479,
      "lng": 8.955998368053429,
      "fuels": {
        "sp95": 1.939,
        "gazole": 2.059
      }
    },
    {
      "id": "44538",
      "cp": "",
      "ville": "Genova",
      "adresse": "Corso Sardegna 261r 16142",
      "brand": "Api-Ip",
      "lat": 44.41168605042155,
      "lng": 8.955219388008118,
      "fuels": {
        "sp95": 1.979,
        "gazole": 2.129
      }
    },
    {
      "id": "29273",
      "cp": "",
      "ville": "Genova",
      "adresse": "Dogali 10 R 16136",
      "brand": "Europam",
      "lat": 44.41757146302281,
      "lng": 8.9267178366066,
      "fuels": {
        "sp95": 1.969,
        "gazole": 2.059
      }
    },
    {
      "id": "41229",
      "cp": "",
      "ville": "Genova",
      "adresse": "Donato Somma (lato monte) Snc 16167",
      "brand": "Tamoil",
      "lat": 44.383812204679806,
      "lng": 9.046528413891792,
      "fuels": {
        "sp95": 1.879,
        "gazole": 2.049
      }
    },
    {
      "id": "58525",
      "cp": "",
      "ville": "Genova",
      "adresse": "Europa 11 16132",
      "brand": "Agip Eni",
      "lat": 44.4054686,
      "lng": 8.96930683,
      "fuels": {
        "sp95": 1.909,
        "gazole": 2.024
      }
    },
    {
      "id": "47947",
      "cp": "",
      "ville": "Genova",
      "adresse": "Europa 1462 16166",
      "brand": "Agip Eni",
      "lat": 44.389594447461334,
      "lng": 9.01355639449481,
      "fuels": {
        "sp95": 1.919,
        "gazole": 2.069
      }
    },
    {
      "id": "53060",
      "cp": "",
      "ville": "Genova",
      "adresse": "Europa 635 16148",
      "brand": "Europam",
      "lat": 44.4017285,
      "lng": 8.9859277,
      "fuels": {
        "sp95": 1.949,
        "gazole": 2.079
      }
    },
    {
      "id": "40081",
      "cp": "",
      "ville": "Genova",
      "adresse": "Europa 770 16148",
      "brand": "Tamoil",
      "lat": 44.39896740979628,
      "lng": 8.990700915455818,
      "fuels": {
        "sp95": 1.879,
        "gazole": 2.049
      }
    },
    {
      "id": "56717",
      "cp": "",
      "ville": "Genova",
      "adresse": "Ferdinando Maria Perrone 98/R 16152",
      "brand": "Agip Eni",
      "lat": 44.4348054,
      "lng": 8.8857872,
      "fuels": {
        "sp95": 1.939,
        "gazole": 2.049
      }
    },
    {
      "id": "23130",
      "cp": "",
      "ville": "Genova",
      "adresse": "g. Adamoli 361/2 16138",
      "brand": "q8",
      "lat": 44.45211735462939,
      "lng": 8.978521063995004,
      "fuels": {
        "sp95": 1.929,
        "gazole": 2.069
      }
    },
    {
      "id": "32674",
      "cp": "",
      "ville": "Genova",
      "adresse": "Genova - Evandro Ferri  16161",
      "brand": "Api-Ip",
      "lat": 44.43675212099702,
      "lng": 8.887251720237714,
      "fuels": {
        "sp95": 1.959,
        "gazole": 2.069
      }
    },
    {
      "id": "43910",
      "cp": "",
      "ville": "Genova",
      "adresse": "Largo Merlo 255r 16144",
      "brand": "Europam",
      "lat": 44.41986161600161,
      "lng": 8.967049058645102,
      "fuels": {
        "sp95": 1.917,
        "gazole": 1.987
      }
    },
    {
      "id": "56837",
      "cp": "",
      "ville": "Genova",
      "adresse": "loc.cortino  16015",
      "brand": "Europam",
      "lat": 44.5228354,
      "lng": 8.9884256,
      "fuels": {
        "sp95": 1.907,
        "gazole": 2.047,
        "gplc": 0.937
      }
    },
    {
      "id": "47024",
      "cp": "",
      "ville": "Genova",
      "adresse": "Lungo Bisagno Istria 25 16141",
      "brand": "Esso",
      "lat": 44.42807470404346,
      "lng": 8.954602346512843,
      "fuels": {
        "sp95": 1.939,
        "gazole": 2.099
      }
    },
    {
      "id": "19363",
      "cp": "",
      "ville": "Genova",
      "adresse": "Lungo Bisagno Istria 29 R 16141",
      "brand": "Agip Eni",
      "lat": 44.428680611965625,
      "lng": 8.956123968647717,
      "fuels": {
        "sp95": 1.919,
        "gazole": 2.069
      }
    },
    {
      "id": "47720",
      "cp": "",
      "ville": "Genova",
      "adresse": "Lungomare Canepa 2 R 16149",
      "brand": "q8",
      "lat": 44.40710958870274,
      "lng": 8.898221423313503,
      "fuels": {
        "sp95": 1.799,
        "gazole": 1.889
      }
    },
    {
      "id": "58526",
      "cp": "",
      "ville": "Genova",
      "adresse": "Multedo Di Pegli 7r 16155",
      "brand": "Agip Eni",
      "lat": 44.426478,
      "lng": 8.83333101,
      "fuels": {
        "sp95": 1.909,
        "gazole": 2.024
      }
    },
    {
      "id": "23521",
      "cp": "",
      "ville": "Genova",
      "adresse": "Piazza Brignole 28/R 16122",
      "brand": "q8",
      "lat": 44.40898808259555,
      "lng": 8.94441470503807,
      "fuels": {
        "sp95": 1.929,
        "gazole": 2.049
      }
    },
    {
      "id": "27380",
      "cp": "",
      "ville": "Genova",
      "adresse": "Piazza Dinegro 21 r. 16126",
      "brand": "Esso",
      "lat": 44.41348809862387,
      "lng": 8.910667341772523,
      "fuels": {
        "sp95": 1.986,
        "gazole": 2.126
      }
    },
    {
      "id": "59473",
      "cp": "",
      "ville": "Genova",
      "adresse": "Piazzale Marassi Ang Via Mirto  16139",
      "brand": "Europam",
      "lat": 44.4186361,
      "lng": 8.9487644,
      "fuels": {
        "sp95": 1.927,
        "gazole": 2.057
      }
    },
    {
      "id": "56049",
      "cp": "",
      "ville": "Genova",
      "adresse": "Pionieri E Aviatori D'Ital 10 16154",
      "brand": "Api-Ip",
      "lat": 44.41621,
      "lng": 8.85425,
      "fuels": {
        "sp95": 2.019,
        "gazole": 2.119
      }
    },
    {
      "id": "58634",
      "cp": "",
      "ville": "Genova",
      "adresse": "Ronchi 38 16155",
      "brand": "Esso",
      "lat": 44.425606,
      "lng": 8.82731,
      "fuels": {
        "sp95": 1.949,
        "gazole": 2.089
      }
    },
    {
      "id": "11600",
      "cp": "",
      "ville": "Genova",
      "adresse": "Sestri Ponente Via Merano 101/G/R 16154",
      "brand": "q8",
      "lat": 44.42755746389527,
      "lng": 8.836846355819716,
      "fuels": {
        "sp95": 1.919,
        "gazole": 2.059
      }
    },
    {
      "id": "5413",
      "cp": "",
      "ville": "Genova",
      "adresse": "v.le Brigate Partigiane Snc 16129",
      "brand": "Agip Eni",
      "lat": 44.398851540929215,
      "lng": 8.944301936363786,
      "fuels": {
        "sp95": 1.939,
        "gazole": 2.069
      }
    },
    {
      "id": "6390",
      "cp": "",
      "ville": "Genova",
      "adresse": "Vasco Da Gama Snc 16149",
      "brand": "q8",
      "lat": 44.413969894443305,
      "lng": 8.894660254001678,
      "fuels": {
        "sp95": 1.969,
        "gazole": 2.069
      }
    },
    {
      "id": "23707",
      "cp": "",
      "ville": "Genova",
      "adresse": "Via 5 Maggio 79 R 16147",
      "brand": "q8",
      "lat": 44.38983228221467,
      "lng": 8.99300914124342,
      "fuels": {
        "sp95": 1.919,
        "gazole": 2.079
      }
    },
    {
      "id": "52149",
      "cp": "",
      "ville": "Genova",
      "adresse": "Via A Manuzio  40h 16143",
      "brand": "q8",
      "lat": 44.4088476107768,
      "lng": 8.9657138689717,
      "fuels": {
        "sp95": 1.929,
        "gazole": 2.049
      }
    },
    {
      "id": "10006",
      "cp": "",
      "ville": "Genova",
      "adresse": "Via Aldo Manuzio 40h 16143",
      "brand": "q8",
      "lat": 44.408824681173016,
      "lng": 8.965713882786645,
      "fuels": {
        "sp95": 1.929,
        "gazole": 2.049
      }
    },
    {
      "id": "59631",
      "cp": "",
      "ville": "Genova",
      "adresse": "Via Antonio Cantore 24/R 16149",
      "brand": "Api-Ip",
      "lat": 44.4104,
      "lng": 8.90319,
      "fuels": {
        "sp95": 1.936,
        "gazole": 2.066
      }
    },
    {
      "id": "61922",
      "cp": "",
      "ville": "Genova",
      "adresse": "Via Antonio Cecchi 29 A/R 16129",
      "brand": "Smaf",
      "lat": 44.39798753428486,
      "lng": 8.947272919871523,
      "fuels": {
        "sp95": 1.914,
        "gazole": 1.999
      }
    },
    {
      "id": "7182",
      "cp": "",
      "ville": "Genova",
      "adresse": "Via Archimede 177r 16142",
      "brand": "Agip Eni",
      "lat": 44.40695901088688,
      "lng": 8.952667077909837,
      "fuels": {
        "sp95": 1.939,
        "gazole": 2.049
      }
    },
    {
      "id": "31515",
      "cp": "",
      "ville": "Genova",
      "adresse": "Via Bologna 1/F 16127",
      "brand": "Agip Eni",
      "lat": 44.418570652115314,
      "lng": 8.910141602516205,
      "fuels": {
        "sp95": 1.969,
        "gazole": 2.084
      }
    },
    {
      "id": "37777",
      "cp": "",
      "ville": "Genova",
      "adresse": "Via Bologna 24m R 16127",
      "brand": "Agip Eni",
      "lat": 44.418691217406256,
      "lng": 8.9076878875494,
      "fuels": {
        "sp95": 1.969,
        "gazole": 2.094
      }
    },
    {
      "id": "43056",
      "cp": "",
      "ville": "Genova",
      "adresse": "Via Borzoli  136 R 16161",
      "brand": "Europam",
      "lat": 44.43453733906651,
      "lng": 8.869162965029773,
      "fuels": {
        "sp95": 1.917,
        "gazole": 2.067
      }
    },
    {
      "id": "38268",
      "cp": "",
      "ville": "Genova",
      "adresse": "Via Borzoli 107 Ross 16161",
      "brand": "Retitalia",
      "lat": 44.43309494566881,
      "lng": 8.86632889509201,
      "fuels": {
        "sp95": 1.917,
        "gazole": 2.157,
        "gplc": 0.969
      }
    },
    {
      "id": "23764",
      "cp": "",
      "ville": "Genova",
      "adresse": "Via Borzoli 13 R 16153",
      "brand": "q8",
      "lat": 44.42488624199445,
      "lng": 8.855321109294891,
      "fuels": {
        "sp95": 1.939,
        "gazole": 2.069
      }
    },
    {
      "id": "39829",
      "cp": "",
      "ville": "Genova",
      "adresse": "Via c. Reta 1 Br 16162",
      "brand": "Agip Eni",
      "lat": 44.45412477387181,
      "lng": 8.89648161828518,
      "fuels": {
        "sp95": 1.939,
        "gazole": 2.049
      }
    },
    {
      "id": "62801",
      "cp": "",
      "ville": "Genova",
      "adresse": "Via Canevari 1a  16100",
      "brand": "Api-Ip",
      "lat": 44.4078107,
      "lng": 8.9500875,
      "fuels": {
        "sp95": 1.999,
        "gazole": 2.169
      }
    },
    {
      "id": "57258",
      "cp": "",
      "ville": "Genova",
      "adresse": "Via Canevari 380  16100",
      "brand": "Europam",
      "lat": 44.41590794122661,
      "lng": 8.950494852792204,
      "fuels": {
        "sp95": 1.927,
        "gazole": 2.057
      }
    },
    {
      "id": "24398",
      "cp": "",
      "ville": "Genova",
      "adresse": "Via Carlo Camozzini 112i/R 16158",
      "brand": "Api-Ip",
      "lat": 44.42830673916078,
      "lng": 8.745968118309975,
      "fuels": {
        "sp95": 1.979,
        "gazole": 2.139
      }
    },
    {
      "id": "12022",
      "cp": "",
      "ville": "Genova",
      "adresse": "Via Carlo Camozzini 77 A/R 16158",
      "brand": "Api-Ip",
      "lat": 44.4286045,
      "lng": 8.7466973,
      "fuels": {
        "sp95": 1.979,
        "gazole": 2.139
      }
    },
    {
      "id": "61591",
      "cp": "",
      "ville": "Genova",
      "adresse": "Via Cornigliano 183b 16152",
      "brand": "Esso",
      "lat": 44.415503690375665,
      "lng": 8.868151832788085,
      "fuels": {
        "sp95": 1.909,
        "gazole": 2.099
      }
    },
    {
      "id": "5528",
      "cp": "",
      "ville": "Genova",
      "adresse": "Via Cornigliano 189 16126",
      "brand": "Api-Ip",
      "lat": 44.41562616829378,
      "lng": 8.866313999999988,
      "fuels": {
        "sp95": 1.959,
        "gazole": 2.109
      }
    },
    {
      "id": "59757",
      "cp": "",
      "ville": "Genova",
      "adresse": "Via Costantino Reta 32 R 16162",
      "brand": "Esso",
      "lat": 44.45687,
      "lng": 8.90002,
      "fuels": {
        "sp95": 1.869,
        "gazole": 1.979
      }
    },
    {
      "id": "11602",
      "cp": "",
      "ville": "Genova",
      "adresse": "Via Dei Mille ang. Tabarca 9/R 16147",
      "brand": "q8",
      "lat": 44.39390378791673,
      "lng": 8.982042074203491,
      "fuels": {
        "sp95": 1.959,
        "gazole": 2.089
      }
    },
    {
      "id": "46857",
      "cp": "",
      "ville": "Genova",
      "adresse": "Via Di Francia  56/R 16149",
      "brand": "Europam",
      "lat": 44.409027053627185,
      "lng": 8.901299554123284,
      "fuels": {
        "sp95": 1.927,
        "gazole": 2.047
      }
    },
    {
      "id": "37499",
      "cp": "",
      "ville": "Genova",
      "adresse": "Via Diaz 23br 16129",
      "brand": "Api-Ip",
      "lat": 44.40103339284112,
      "lng": 8.946235742327872,
      "fuels": {
        "sp95": 1.949,
        "gazole": 2.049
      }
    },
    {
      "id": "27525",
      "cp": "",
      "ville": "Genova",
      "adresse": "Via Donato Somma - Fraz Nervi  51r 16167",
      "brand": "Api-Ip",
      "lat": 44.38392715817099,
      "lng": 9.04515632638936,
      "fuels": {
        "sp95": 1.939,
        "gazole": 2.119
      }
    },
    {
      "id": "26230",
      "cp": "",
      "ville": "Genova",
      "adresse": "Via Emilia 6/A 16138",
      "brand": "Europam",
      "lat": 44.44265048665085,
      "lng": 8.964138385391948,
      "fuels": {
        "sp95": 1.914,
        "gazole": 2.014
      }
    },
    {
      "id": "58986",
      "cp": "",
      "ville": "Genova",
      "adresse": "Via Emilia 68r 16138",
      "brand": "Europam",
      "lat": 44.449932984528736,
      "lng": 8.972880466270436,
      "fuels": {
        "sp95": 1.917,
        "gazole": 2.067
      }
    },
    {
      "id": "46026",
      "cp": "",
      "ville": "Genova",
      "adresse": "Via Ezio Faggioni 23 16162",
      "brand": "Esso",
      "lat": 44.46439791192044,
      "lng": 8.904583376745677,
      "fuels": {
        "sp95": 1.899,
        "gazole": 2.099
      }
    },
    {
      "id": "59641",
      "cp": "",
      "ville": "Genova",
      "adresse": "Via Felice Cavallotti  1/R 1g/r0sso",
      "brand": "Agip Eni",
      "lat": 44.390907,
      "lng": 8.974359,
      "fuels": {
        "sp95": 1.939,
        "gazole": 2.069
      }
    },
    {
      "id": "16546",
      "cp": "",
      "ville": "Genova",
      "adresse": "Via Ferriere Bruzzo 13 16162",
      "brand": "Agip Eni",
      "lat": 44.46536464119649,
      "lng": 8.905269205570221,
      "fuels": {
        "sp95": 1.934,
        "gazole": 2.064
      }
    },
    {
      "id": "59225",
      "cp": "",
      "ville": "Genova",
      "adresse": "Via Francesco Pozzo 12  16145",
      "brand": "Agip Eni",
      "lat": 44.40136,
      "lng": 8.9542,
      "fuels": {
        "sp95": 1.909,
        "gazole": 2.024
      }
    },
    {
      "id": "6387",
      "cp": "",
      "ville": "Genova",
      "adresse": "Via g. Colano Snc 16162",
      "brand": "q8",
      "lat": 44.466184305647396,
      "lng": 8.90536978840828,
      "fuels": {
        "sp95": 1.919,
        "gazole": 2.059
      }
    },
    {
      "id": "48334",
      "cp": "",
      "ville": "Genova",
      "adresse": "Via g. Gastaldi 30-32r 16163",
      "brand": "Retitalia",
      "lat": 44.48516482714711,
      "lng": 8.89759727976226,
      "fuels": {
        "sp95": 1.907,
        "gazole": 2.147,
        "gplc": 0.969
      }
    },
    {
      "id": "29459",
      "cp": "",
      "ville": "Genova",
      "adresse": "Via Gallino Natale 67 R 16164",
      "brand": "Europam",
      "lat": 44.50430394137683,
      "lng": 8.907348317671449,
      "fuels": {
        "sp95": 1.969,
        "gazole": 2.059
      }
    },
    {
      "id": "56325",
      "cp": "",
      "ville": "Genova",
      "adresse": "Via Gobetti - Angolo Via Zara  16145",
      "brand": "Europam",
      "lat": 44.3941,
      "lng": 8.9582,
      "fuels": {
        "sp95": 1.937,
        "gazole": 2.047
      }
    },
    {
      "id": "49108",
      "cp": "",
      "ville": "Genova",
      "adresse": "Via Isonzo 1r 16147",
      "brand": "Esso",
      "lat": 44.397270839707744,
      "lng": 8.98086190245186,
      "fuels": {
        "sp95": 1.906,
        "gazole": 2.106
      }
    },
    {
      "id": "50372",
      "cp": "",
      "ville": "Genova",
      "adresse": "Via Lemerle 23 R 16158",
      "brand": "Api-Ip",
      "lat": 44.43141884990998,
      "lng": 8.751373676490658,
      "fuels": {
        "sp95": 1.929,
        "gazole": 2.049
      }
    },
    {
      "id": "34871",
      "cp": "",
      "ville": "Genova",
      "adresse": "Via Levati Luigi Maria 1 16163",
      "brand": "Agip Eni",
      "lat": 44.46851124212476,
      "lng": 8.899117631739273,
      "fuels": {
        "e85": 1.585
      }
    },
    {
      "id": "57057",
      "cp": "",
      "ville": "Genova",
      "adresse": "Via Molassana 169  16138",
      "brand": "Agip Eni",
      "lat": 44.45452,
      "lng": 8.98472,
      "fuels": {
        "sp95": 1.909,
        "gazole": 2.004
      }
    },
    {
      "id": "55713",
      "cp": "",
      "ville": "Genova",
      "adresse": "Via Monte Zovetto 25r 16145",
      "brand": "Esso",
      "lat": 44.40200442108915,
      "lng": 8.964167804537956,
      "fuels": {
        "sp95": 1.939,
        "gazole": 2.089
      }
    },
    {
      "id": "12292",
      "cp": "",
      "ville": "Genova",
      "adresse": "Via Moresco 24r 16137",
      "brand": "Api-Ip",
      "lat": 44.411444433569166,
      "lng": 8.953102380037308,
      "fuels": {
        "sp95": 1.979,
        "gazole": 2.129
      }
    },
    {
      "id": "23837",
      "cp": "",
      "ville": "Genova",
      "adresse": "Via Multedo 3 16154",
      "brand": "q8",
      "lat": 44.42710625649195,
      "lng": 8.833949421951274,
      "fuels": {
        "sp95": 1.919,
        "gazole": 2.069
      }
    },
    {
      "id": "17680",
      "cp": "",
      "ville": "Genova",
      "adresse": "Via Multedo Di Pegli 11/R 16155",
      "brand": "Api-Ip",
      "lat": 44.426344056562534,
      "lng": 8.829878542327833,
      "fuels": {
        "sp95": 1.889,
        "gazole": 2.089
      }
    },
    {
      "id": "13222",
      "cp": "",
      "ville": "Genova",
      "adresse": "Via Multedo Di Pegli 80 16155",
      "brand": "Api-Ip",
      "lat": 44.42593961139582,
      "lng": 8.828820719573969,
      "fuels": {
        "sp95": 1.899,
        "gazole": 2.099
      }
    },
    {
      "id": "50741",
      "cp": "",
      "ville": "Genova",
      "adresse": "Via Murcarolo 2 E-R 16167",
      "brand": "Esso",
      "lat": 44.38309410654941,
      "lng": 9.025778414317319,
      "fuels": {
        "sp95": 1.949,
        "gazole": 2.139
      }
    },
    {
      "id": "23680",
      "cp": "",
      "ville": "Genova",
      "adresse": "Via Perlasca 99 16161",
      "brand": "Agip Eni",
      "lat": 44.44532452426861,
      "lng": 8.890633926983583,
      "fuels": {
        "sp95": 1.939,
        "gazole": 2.069
      }
    },
    {
      "id": "5062",
      "cp": "",
      "ville": "Genova",
      "adresse": "Via Piacenza 141-143r 16138",
      "brand": "Pompe Bianche",
      "lat": 44.4355935675488,
      "lng": 8.961521834135056,
      "fuels": {
        "e85": 1.499
      }
    },
    {
      "id": "26257",
      "cp": "",
      "ville": "Genova",
      "adresse": "Via Piacenza 185 A/R 16138",
      "brand": "Agip Eni",
      "lat": 44.442048962939204,
      "lng": 8.963706493377686,
      "fuels": {
        "sp95": 1.934,
        "gazole": 2.064
      }
    },
    {
      "id": "51334",
      "cp": "",
      "ville": "Genova",
      "adresse": "Via Piacenza 76/R 16138",
      "brand": "Api-Ip",
      "lat": 44.43104479319188,
      "lng": 8.957392573356628,
      "fuels": {
        "sp95": 1.899,
        "gazole": 2.019
      }
    },
    {
      "id": "57846",
      "cp": "",
      "ville": "Genova",
      "adresse": "Via Poire'  10",
      "brand": "Agip Eni",
      "lat": 44.477432,
      "lng": 8.922276,
      "fuels": {
        "sp95": 1.949,
        "gazole": 2.059
      }
    },
    {
      "id": "30800",
      "cp": "",
      "ville": "Genova",
      "adresse": "Via Polonio 2/R 16100",
      "brand": "Api-Ip",
      "lat": 44.45254882341928,
      "lng": 8.892371836805296,
      "fuels": {
        "sp95": 1.979,
        "gazole": 2.109
      }
    },
    {
      "id": "14179",
      "cp": "",
      "ville": "Genova",
      "adresse": "Via Posalunga 46 A R 16132",
      "brand": "Esso",
      "lat": 44.406290651036564,
      "lng": 8.986569549598698,
      "fuels": {
        "sp95": 1.946,
        "gazole": 2.086
      }
    },
    {
      "id": "48277",
      "cp": "",
      "ville": "Genova",
      "adresse": "Via Pra' 159 r. 16157",
      "brand": "Agip Eni",
      "lat": 44.4273638186269,
      "lng": 8.777644049149798,
      "fuels": {
        "sp95": 1.919,
        "gazole": 2.034
      }
    },
    {
      "id": "45363",
      "cp": "",
      "ville": "Genova",
      "adresse": "Via Pra' 162 R 16157",
      "brand": "Api-Ip",
      "lat": 44.4278786,
      "lng": 8.7710897,
      "fuels": {
        "sp95": 1.964,
        "gazole": 2.104
      }
    },
    {
      "id": "24592",
      "cp": "",
      "ville": "Genova",
      "adresse": "Via Quadrio 12a/R 16128",
      "brand": "Api-Ip",
      "lat": 44.40541341331577,
      "lng": 8.928294635582006,
      "fuels": {
        "sp95": 1.989,
        "gazole": 2.159
      }
    },
    {
      "id": "24143",
      "cp": "",
      "ville": "Genova",
      "adresse": "Via Renata Bianchi 44b 16152",
      "brand": "Europam",
      "lat": 44.42107053390154,
      "lng": 8.881163522601128,
      "fuels": {
        "sp95": 1.917,
        "gazole": 2.067
      }
    },
    {
      "id": "10023",
      "cp": "",
      "ville": "Genova",
      "adresse": "Via Renzo Righetti 1r 16145",
      "brand": "Agip Eni",
      "lat": 44.3943848344009,
      "lng": 8.962509168777842,
      "fuels": {
        "sp95": 1.939,
        "gazole": 2.069
      }
    },
    {
      "id": "5943",
      "cp": "",
      "ville": "Genova",
      "adresse": "Via Romairone 6/R 16163",
      "brand": "Api-Ip",
      "lat": 44.47044574216909,
      "lng": 8.901114139881201,
      "fuels": {
        "sp95": 1.969,
        "gazole": 2.099
      }
    },
    {
      "id": "51653",
      "cp": "",
      "ville": "Genova",
      "adresse": "Via Ronchi 4 16155",
      "brand": "q8",
      "lat": 44.42508203548937,
      "lng": 8.824811703704825,
      "fuels": {
        "sp95": 1.899,
        "gazole": 2.059
      }
    },
    {
      "id": "51867",
      "cp": "",
      "ville": "Genova",
      "adresse": "Via ronchi, 79  16155",
      "brand": "Agip Eni",
      "lat": 44.4251246232978,
      "lng": 8.823014695603206,
      "fuels": {
        "sp95": 1.919,
        "gazole": 2.069
      }
    },
    {
      "id": "59840",
      "cp": "",
      "ville": "Genova",
      "adresse": "Via s. Quirico 160  16163",
      "brand": "Agip Eni",
      "lat": 44.489693,
      "lng": 8.9017105,
      "fuels": {
        "sp95": 1.939,
        "gazole": 2.069
      }
    },
    {
      "id": "43266",
      "cp": "",
      "ville": "Genova",
      "adresse": "Via San Quirico 311 R 16163",
      "brand": "Esso",
      "lat": 44.486989567568976,
      "lng": 8.90058263558194,
      "fuels": {
        "sp95": 1.899,
        "gazole": 2.099
      }
    },
    {
      "id": "31632",
      "cp": "",
      "ville": "Genova",
      "adresse": "Via Santuario n.s. Della Guardia 4 V R 16162",
      "brand": "Api-Ip",
      "lat": 44.462150443135194,
      "lng": 8.89680625644873,
      "fuels": {
        "sp95": 1.979,
        "gazole": 2.109
      }
    },
    {
      "id": "45806",
      "cp": "",
      "ville": "Genova",
      "adresse": "Via Semini 8 16164",
      "brand": "Europam",
      "lat": 44.48640956766408,
      "lng": 8.89799731779101,
      "fuels": {
        "sp95": 1.907,
        "gazole": 2.037
      }
    },
    {
      "id": "48941",
      "cp": "",
      "ville": "Genova",
      "adresse": "Via Siffredi Angelo 62 R 16153",
      "brand": "Agip Eni",
      "lat": 44.41994109528414,
      "lng": 8.858659369789125,
      "fuels": {
        "sp95": 1.889,
        "gazole": 1.994
      }
    },
    {
      "id": "42644",
      "cp": "",
      "ville": "Genova",
      "adresse": "Via Spinola 2 R 16134",
      "brand": "Api-Ip",
      "lat": 44.42085279289274,
      "lng": 8.925478502884403,
      "fuels": {
        "sp95": 1.999,
        "gazole": 2.119
      }
    },
    {
      "id": "31094",
      "cp": "",
      "ville": "Genova",
      "adresse": "Via Struppa 113/Dr 16165",
      "brand": "Api-Ip",
      "lat": 44.44932680214545,
      "lng": 9.02144506573677,
      "fuels": {
        "sp95": 1.869,
        "gazole": 2.039
      }
    },
    {
      "id": "29782",
      "cp": "",
      "ville": "Genova",
      "adresse": "Via Struppa 113a/R 16165",
      "brand": "Tamoil",
      "lat": 44.44940724259811,
      "lng": 9.02037373792848,
      "fuels": {
        "sp95": 1.879,
        "gazole": 2.059,
        "gplc": 0.939
      }
    },
    {
      "id": "18546",
      "cp": "",
      "ville": "Genova",
      "adresse": "Via Struppa 80 16165",
      "brand": "Api-Ip",
      "lat": 44.44904078028602,
      "lng": 8.996885450960917,
      "fuels": {
        "sp95": 1.919,
        "gazole": 2.079
      }
    },
    {
      "id": "15291",
      "cp": "",
      "ville": "Genova",
      "adresse": "Via Tanini Giulio 24 R 16133",
      "brand": "Tamoil",
      "lat": 44.40807161214733,
      "lng": 8.990092198147522,
      "fuels": {
        "sp95": 1.949,
        "gazole": 2.069
      }
    },
    {
      "id": "31582",
      "cp": "",
      "ville": "Genova",
      "adresse": "Via Teglia 190r 16161",
      "brand": "Api-Ip",
      "lat": 44.453913,
      "lng": 8.895936,
      "fuels": {
        "sp95": 1.969,
        "gazole": 2.099
      }
    },
    {
      "id": "17512",
      "cp": "",
      "ville": "Genova",
      "adresse": "Via Timavo 70r 16132",
      "brand": "Europam",
      "lat": 44.403948481956064,
      "lng": 8.984556962565648,
      "fuels": {
        "sp95": 1.929,
        "gazole": 2.039
      }
    },
    {
      "id": "61914",
      "cp": "",
      "ville": "Genova",
      "adresse": "Via Tolemaide 13 R 16100",
      "brand": "Lukoil",
      "lat": 44.40476507012853,
      "lng": 8.95575916202164,
      "fuels": {
        "sp95": 1.914,
        "gazole": 1.999
      }
    },
    {
      "id": "35401",
      "cp": "",
      "ville": "Genova",
      "adresse": "Via Tolemaide 5b/R 16129",
      "brand": "Api-Ip",
      "lat": 44.405197013954876,
      "lng": 8.950012475252151,
      "fuels": {
        "sp95": 2.009,
        "gazole": 2.179
      }
    },
    {
      "id": "43355",
      "cp": "",
      "ville": "Genova",
      "adresse": "Via Tolemaide 7 R 16129",
      "brand": "Europam",
      "lat": 44.404713826825365,
      "lng": 8.953197559455134,
      "fuels": {
        "sp95": 1.959,
        "gazole": 2.059
      }
    },
    {
      "id": "16991",
      "cp": "",
      "ville": "Genova",
      "adresse": "Via Tolemaide 9 R 16129",
      "brand": "Europam",
      "lat": 44.40468549745261,
      "lng": 8.953085674584827,
      "fuels": {
        "sp95": 1.959,
        "gazole": 2.059
      }
    },
    {
      "id": "38269",
      "cp": "",
      "ville": "Genova",
      "adresse": "Via Trensasco 51 16153",
      "brand": "Retitalia",
      "lat": 44.45451056282823,
      "lng": 8.95853117108345,
      "fuels": {
        "gplc": 0.919
      }
    },
    {
      "id": "10583",
      "cp": "",
      "ville": "Genova",
      "adresse": "Via Ugo Polonio 16 R 16162",
      "brand": "Esso",
      "lat": 44.45632152750028,
      "lng": 8.89672268023719,
      "fuels": {
        "sp95": 1.949,
        "gazole": 2.099
      }
    },
    {
      "id": "31037",
      "cp": "",
      "ville": "Genova",
      "adresse": "Via Vezzani 266/R 16159",
      "brand": "Api-Ip",
      "lat": 44.44194787478472,
      "lng": 8.903345597553198,
      "fuels": {
        "sp95": 1.939,
        "gazole": 2.099
      }
    },
    {
      "id": "53935",
      "cp": "",
      "ville": "Genova",
      "adresse": "Via Via Alexander Fleming 1 Nero 16138, Genova (ge) 1 16138",
      "brand": "Api-Ip",
      "lat": 44.45397658431914,
      "lng": 8.980113565921783,
      "fuels": {
        "sp95": 1.949,
        "gazole": 2.119
      }
    },
    {
      "id": "52259",
      "cp": "",
      "ville": "Genova",
      "adresse": "Via Via Canepari 229 16159, Genova (ge) 229 16159",
      "brand": "Tamoil",
      "lat": 44.434084297697325,
      "lng": 8.892929416745378,
      "fuels": {
        "sp95": 1.879,
        "gazole": 2.099
      }
    },
    {
      "id": "57209",
      "cp": "",
      "ville": "Genova",
      "adresse": "Via Via Molassana 50/R 16138, Genova (ge) 50r 16138",
      "brand": "Esso",
      "lat": 44.4649684,
      "lng": 8.9742237,
      "fuels": {
        "sp95": 1.899,
        "gazole": 2.069
      }
    },
    {
      "id": "45488",
      "cp": "",
      "ville": "Genova",
      "adresse": "Via Voltri  40 16158",
      "brand": "Agip Eni",
      "lat": 44.42869844485436,
      "lng": 8.758645579218864,
      "fuels": {
        "sp95": 1.934,
        "gazole": 2.044
      }
    },
    {
      "id": "17679",
      "cp": "",
      "ville": "Genova",
      "adresse": "Via Walter Fillak 189 16151",
      "brand": "Api-Ip",
      "lat": 44.42179712652357,
      "lng": 8.888666472387285,
      "fuels": {
        "sp95": 1.949,
        "gazole": 2.099
      }
    },
    {
      "id": "47246",
      "cp": "",
      "ville": "Genova",
      "adresse": "Voltri Terminal Distripark Europa  16158",
      "brand": "Agip Eni",
      "lat": 44.42619129227874,
      "lng": 8.768901377322909,
      "fuels": {
        "sp95": 1.904,
        "gazole": 1.989
      }
    },
    {
      "id": "57533",
      "cp": "",
      "ville": "Genova",
      "adresse": "Walter Fillak 168/R 16151",
      "brand": "Agip Eni",
      "lat": 44.4261434,
      "lng": 8.8914687,
      "fuels": {
        "sp95": 1.909,
        "gazole": 2.024
      }
    },
    {
      "id": "62467",
      "cp": "",
      "ville": "Lavagna",
      "adresse": "Via Aurelia 1600  16033",
      "brand": "Europam",
      "lat": 44.298406,
      "lng": 9.3636943,
      "fuels": {
        "sp95": 1.897,
        "gazole": 2.047
      }
    },
    {
      "id": "12795",
      "cp": "",
      "ville": "Lavagna",
      "adresse": "Via Aurelia km. 478+430 s.c. 16033",
      "brand": "Api-Ip",
      "lat": 44.300636626425344,
      "lng": 9.358879700303078,
      "fuels": {
        "sp95": 1.899,
        "gazole": 2.039
      }
    },
    {
      "id": "40997",
      "cp": "",
      "ville": "Lavagna",
      "adresse": "Via Fieschi Strada  prov.le km0,480 16033",
      "brand": "Api-Ip",
      "lat": 44.31449654221538,
      "lng": 9.345629587769508,
      "fuels": {
        "sp95": 1.919,
        "gazole": 2.109
      }
    },
    {
      "id": "50333",
      "cp": "",
      "ville": "Lavagna",
      "adresse": "Via Moggia 59 16033",
      "brand": "Esso",
      "lat": 44.32011702700772,
      "lng": 9.347690800376572,
      "fuels": {
        "sp95": 1.906,
        "gazole": 2.099
      }
    },
    {
      "id": "30927",
      "cp": "",
      "ville": "Lavagna",
      "adresse": "Via Previati  16033",
      "brand": "Api-Ip",
      "lat": 44.308588483861044,
      "lng": 9.341645597553224,
      "fuels": {
        "sp95": 1.919,
        "gazole": 2.109
      }
    },
    {
      "id": "60288",
      "cp": "",
      "ville": "Lumarzo",
      "adresse": "Ferriere km. 29 16024",
      "brand": "Api-Ip",
      "lat": 44.439,
      "lng": 9.13186,
      "fuels": {
        "sp95": 1.909,
        "gazole": 2.029
      }
    },
    {
      "id": "47770",
      "cp": "",
      "ville": "Mele",
      "adresse": "a26 (ge) Voltri-Gravellona t., km. 7, Nord - 16010",
      "brand": "q8",
      "lat": 44.4543248041943,
      "lng": 8.745102860118878,
      "fuels": {
        "sp95": 1.964,
        "gazole": 2.094
      }
    },
    {
      "id": "63336",
      "cp": "",
      "ville": "Mele",
      "adresse": "Autostrada a26 (ge) Voltri-Gravellona t.,  km. 6.800, dir. dir. Sud 16010",
      "brand": "Sarni Oil",
      "lat": 44.455645,
      "lng": 8.744235,
      "fuels": {
        "sp95": 2.049,
        "gazole": 2.199
      }
    },
    {
      "id": "63337",
      "cp": "",
      "ville": "Mele",
      "adresse": "Autostrada a26 (ge) Voltri-Gravellona t.,  km. 6.800, dir. dir. Sud 16010",
      "brand": "Sarni Oil",
      "lat": 44.455645,
      "lng": 8.744235,
      "fuels": {
        "gazole": 2.099
      }
    },
    {
      "id": "60250",
      "cp": "",
      "ville": "Moconesi",
      "adresse": "Via Alcide De Gasperi  16047",
      "brand": "Europam",
      "lat": 44.4205633,
      "lng": 9.2089966,
      "fuels": {
        "sp95": 1.877,
        "gazole": 1.977
      }
    },
    {
      "id": "46398",
      "cp": "",
      "ville": "Moneglia",
      "adresse": "Via Caveri 20 16030",
      "brand": "Europam",
      "lat": 44.240803602158685,
      "lng": 9.489203341163488,
      "fuels": {
        "sp95": 1.957,
        "gazole": 2.087
      }
    },
    {
      "id": "43913",
      "cp": "",
      "ville": "Montoggio",
      "adresse": "Via Casalino  16015",
      "brand": "Europam",
      "lat": 44.516012704062426,
      "lng": 9.02412861585617,
      "fuels": {
        "sp95": 1.797,
        "gazole": 1.897
      }
    },
    {
      "id": "18769",
      "cp": "",
      "ville": "Montoggio",
      "adresse": "Via Roma 80 16026",
      "brand": "Oil Italia",
      "lat": 44.51449957030598,
      "lng": 9.046510660118884,
      "fuels": {
        "sp95": 1.909,
        "gazole": 2.059
      }
    },
    {
      "id": "60131",
      "cp": "",
      "ville": "Ne",
      "adresse": "Piazza Dei Mosto 1 16040",
      "brand": "Kerotris",
      "lat": 44.344556753319225,
      "lng": 9.398742710938537,
      "fuels": {
        "sp95": 1.879,
        "gazole": 2.019
      }
    },
    {
      "id": "27524",
      "cp": "",
      "ville": "Ne",
      "adresse": "Via Giuseppe Garibaldi  54 16040",
      "brand": "Api-Ip",
      "lat": 44.347377682608354,
      "lng": 9.378757084655717,
      "fuels": {
        "sp95": 1.929,
        "gazole": 2.149
      }
    },
    {
      "id": "18159",
      "cp": "",
      "ville": "Neirone",
      "adresse": "Statale 225 Della fontanabuona, km. 28, dir. Chiavari - 16040",
      "brand": "q8",
      "lat": 44.43298692374558,
      "lng": 9.175244271755219,
      "fuels": {
        "sp95": 1.927,
        "gazole": 2.037
      }
    },
    {
      "id": "57779",
      "cp": "",
      "ville": "Orero",
      "adresse": "Pian Dei Ratti 52 16040",
      "brand": "Api-Ip",
      "lat": 44.34251175,
      "lng": 9.35777664,
      "fuels": {
        "sp95": 1.939,
        "gazole": 2.049
      }
    },
    {
      "id": "28769",
      "cp": "",
      "ville": "Pieve Ligure",
      "adresse": "Via Xxv Aprile 197 16031",
      "brand": "Agip Eni",
      "lat": 44.373593013851874,
      "lng": 9.08797520852886,
      "fuels": {
        "sp95": 1.909,
        "gazole": 2.024
      }
    },
    {
      "id": "45814",
      "cp": "",
      "ville": "Rapallo",
      "adresse": "Corso Colombo  25 16035",
      "brand": "Europam",
      "lat": 44.3456537451559,
      "lng": 9.228374106301999,
      "fuels": {
        "sp95": 1.997,
        "gazole": 2.087
      }
    },
    {
      "id": "6386",
      "cp": "",
      "ville": "Rapallo",
      "adresse": "p.za Cesare Battisti - impq8 364 16035",
      "brand": "q8",
      "lat": 44.352721782891685,
      "lng": 9.217646030808055,
      "fuels": {
        "sp95": 1.929,
        "gazole": 2.059
      }
    },
    {
      "id": "58091",
      "cp": "",
      "ville": "Rapallo",
      "adresse": "Piazza n. Sauro  2 2",
      "brand": "Agip Eni",
      "lat": 44.35296,
      "lng": 9.21745,
      "fuels": {
        "sp95": 1.949,
        "gazole": 2.079
      }
    },
    {
      "id": "11603",
      "cp": "",
      "ville": "Rapallo",
      "adresse": "Via Arpinati 5/B 16035",
      "brand": "q8",
      "lat": 44.3535347899272,
      "lng": 9.214002464178975,
      "fuels": {
        "sp95": 1.959,
        "gazole": 2.069
      }
    },
    {
      "id": "59516",
      "cp": "",
      "ville": "Rapallo",
      "adresse": "Via Luigi Arpinati  32 16035",
      "brand": "Api-Ip",
      "lat": 44.35406932821919,
      "lng": 9.213322806426323,
      "fuels": {
        "sp95": 2.019,
        "gazole": 2.119
      }
    },
    {
      "id": "50895",
      "cp": "",
      "ville": "Rapallo",
      "adresse": "Via Piazza Alfieri 1 16035, Rapallo (ge) 1/6 16035",
      "brand": "Api-Ip",
      "lat": 44.347687756090515,
      "lng": 9.22570446514512,
      "fuels": {
        "sp95": 2.039,
        "gazole": 2.139
      }
    },
    {
      "id": "50171",
      "cp": "",
      "ville": "Rapallo",
      "adresse": "Via s.anna  27 16035",
      "brand": "q8",
      "lat": 44.353423638626026,
      "lng": 9.213300360023288,
      "fuels": {
        "sp95": 1.959,
        "gazole": 2.089
      }
    },
    {
      "id": "16730",
      "cp": "",
      "ville": "Rapallo",
      "adresse": "Via Via Mameli 362 16035, Rapallo (ge) 362 16035",
      "brand": "Esso",
      "lat": 44.35266954841351,
      "lng": 9.218228049073787,
      "fuels": {
        "sp95": 1.926,
        "gazole": 2.129
      }
    },
    {
      "id": "16734",
      "cp": "",
      "ville": "Rapallo",
      "adresse": "Via Via Santa Maria Snc 16035, Rapallo (ge) 1 16035",
      "brand": "Esso",
      "lat": 44.355500905536516,
      "lng": 9.210080485983326,
      "fuels": {
        "sp95": 1.906,
        "gazole": 2.099
      }
    },
    {
      "id": "46612",
      "cp": "",
      "ville": "Recco",
      "adresse": "Filippo Da Recco 4 16036",
      "brand": "Api-Ip",
      "lat": 44.3603633903555,
      "lng": 9.145201035581977,
      "fuels": {
        "sp95": 1.999,
        "gazole": 2.139
      }
    },
    {
      "id": "43915",
      "cp": "",
      "ville": "Recco",
      "adresse": "Via Dei Giustiniani 19 16036",
      "brand": "Europam",
      "lat": 44.37255583452761,
      "lng": 9.15036299999997,
      "fuels": {
        "sp95": 1.927,
        "gazole": 2.087
      }
    },
    {
      "id": "60826",
      "cp": "",
      "ville": "Recco",
      "adresse": "Via Roma  154",
      "brand": "Agip Eni",
      "lat": 44.3656,
      "lng": 9.14687,
      "fuels": {
        "sp95": 1.949,
        "gazole": 2.079
      }
    },
    {
      "id": "45679",
      "cp": "",
      "ville": "Rezzoaglio",
      "adresse": "Via Roma 4 16048",
      "brand": "Tamoil",
      "lat": 44.5258455474496,
      "lng": 9.38498742814204,
      "fuels": {
        "sp95": 1.969,
        "gazole": 2.119
      }
    },
    {
      "id": "40500",
      "cp": "",
      "ville": "Ronco Scrivia",
      "adresse": "Autostrada a7 Serravalle-genova, km. 106,1, dir. dir. Sud - 16019",
      "brand": "Europam",
      "lat": 44.60420191850412,
      "lng": 8.952943459153175,
      "fuels": {
        "sp95": 1.947,
        "gazole": 2.047
      }
    },
    {
      "id": "34680",
      "cp": "",
      "ville": "Ronco Scrivia",
      "adresse": "Autostrada a7 Serravalle-genova, km. 28, dir. Est - 16019",
      "brand": "Tamoil",
      "lat": 44.6041551794919,
      "lng": 8.954381123185158,
      "fuels": {
        "sp95": 2.029,
        "gazole": 2.169
      }
    },
    {
      "id": "56357",
      "cp": "",
      "ville": "Ronco Scrivia",
      "adresse": "Via Trento E Trieste s.n.  16019",
      "brand": "q8",
      "lat": 44.58889,
      "lng": 8.937616,
      "fuels": {
        "sp95": 1.939,
        "gazole": 2.039
      }
    },
    {
      "id": "43304",
      "cp": "",
      "ville": "Rossiglione",
      "adresse": "Via airenta,  13 16010",
      "brand": "Europam",
      "lat": 44.56487629965306,
      "lng": 8.666192317791001,
      "fuels": {
        "sp95": 1.957,
        "gazole": 2.077
      }
    },
    {
      "id": "42899",
      "cp": "",
      "ville": "Rovegno",
      "adresse": "Via Nazionale 27 16028",
      "brand": "Europam",
      "lat": 44.557163702229104,
      "lng": 9.28255654807731,
      "fuels": {
        "sp95": 1.937,
        "gazole": 2.087
      }
    },
    {
      "id": "47005",
      "cp": "",
      "ville": "San Colombano Certenoli",
      "adresse": "Via Domenico Cuneo 46 16040",
      "brand": "Europam",
      "lat": 44.374231269605446,
      "lng": 9.299944741861623,
      "fuels": {
        "sp95": 1.917,
        "gazole": 2.047
      }
    },
    {
      "id": "12086",
      "cp": "",
      "ville": "Santa Margherita Ligure",
      "adresse": "Via Garibaldi 5 16038",
      "brand": "Api-Ip",
      "lat": 44.32911764468601,
      "lng": 9.213934543251298,
      "fuels": {
        "sp95": 2.049,
        "gazole": 2.169
      }
    },
    {
      "id": "44271",
      "cp": "",
      "ville": "Santa Margherita Ligure",
      "adresse": "Via Tomaso Bottaro  16038",
      "brand": "q8",
      "lat": 44.33086809743651,
      "lng": 9.21263442774432,
      "fuels": {
        "sp95": 1.949,
        "gazole": 2.079
      }
    },
    {
      "id": "17246",
      "cp": "",
      "ville": "Santo Stefano D'Aveto",
      "adresse": "Via Piacenza Snc 16049",
      "brand": "Pompe Bianche",
      "lat": 44.54582286217916,
      "lng": 9.456176161766052,
      "fuels": {
        "sp95": 1.987,
        "gazole": 2.087
      }
    },
    {
      "id": "26259",
      "cp": "",
      "ville": "Savignone",
      "adresse": "Via g. Marconi 7 16010",
      "brand": "Europam",
      "lat": 44.55698216635316,
      "lng": 8.978165942295618,
      "fuels": {
        "sp95": 1.909,
        "gazole": 2.059
      }
    },
    {
      "id": "23060",
      "cp": "",
      "ville": "Savignone",
      "adresse": "Via Nazionale Isorelle  16010",
      "brand": "Esso",
      "lat": 44.5673822849661,
      "lng": 8.954709023237228,
      "fuels": {
        "sp95": 1.969,
        "gazole": 2.119
      }
    },
    {
      "id": "57882",
      "cp": "",
      "ville": "Serra Riccò",
      "adresse": "Autostrada a7 Serravalle-genova,  km. 116.600, dir. Nord 16010",
      "brand": "Agip Eni",
      "lat": 44.5299705,
      "lng": 8.9405342,
      "fuels": {
        "sp95": 1.945,
        "gazole": 2.075
      }
    },
    {
      "id": "45579",
      "cp": "",
      "ville": "Serra Riccò",
      "adresse": "f.lli Canepa 96 16010",
      "brand": "Tamoil",
      "lat": 44.49441246637992,
      "lng": 8.92029982669078,
      "fuels": {
        "sp95": 1.889,
        "gazole": 2.049
      }
    },
    {
      "id": "55817",
      "cp": "",
      "ville": "Serra Riccò",
      "adresse": "Via Via Fratelli Canepa 122/2 16010, Serra Ricco' (ge) 56 16010",
      "brand": "Api-Ip",
      "lat": 44.4956672,
      "lng": 8.9161728,
      "fuels": {
        "sp95": 2.019,
        "gazole": 2.139
      }
    },
    {
      "id": "57624",
      "cp": "",
      "ville": "Sestri Levante",
      "adresse": "Autostrada a12 Genova-Sestri l., dir. Sud 16039",
      "brand": "Agip Eni",
      "lat": 44.275063,
      "lng": 9.41996,
      "fuels": {
        "sp95": 1.947,
        "gazole": 2.047,
        "gplc": 0.876
      }
    },
    {
      "id": "38532",
      "cp": "",
      "ville": "Sestri Levante",
      "adresse": "Autostrada a12 Genova-Sestri l., km. 48+700, dir. Ovest - 16039",
      "brand": "Api-Ip",
      "lat": 44.27607287406628,
      "lng": 9.419913366436958,
      "fuels": {
        "sp95": 1.969,
        "gazole": 2.069
      }
    },
    {
      "id": "11597",
      "cp": "",
      "ville": "Sestri Levante",
      "adresse": "loc.pila ss. 1 Aurelia 141 16039",
      "brand": "q8",
      "lat": 44.267599039651735,
      "lng": 9.424105364417983,
      "fuels": {
        "sp95": 1.949,
        "gazole": 2.069
      }
    },
    {
      "id": "57001",
      "cp": "",
      "ville": "Sestri Levante",
      "adresse": "Terzi 12 16039",
      "brand": "Agip Eni",
      "lat": 44.27432422116264,
      "lng": 9.407119084750377,
      "fuels": {
        "sp95": 1.944,
        "gazole": 2.074
      }
    },
    {
      "id": "56762",
      "cp": "",
      "ville": "Sestri Levante",
      "adresse": "Via Angelo Siffredi 62r  16167",
      "brand": "Agip Eni",
      "lat": 44.41915,
      "lng": 8.858933,
      "fuels": {
        "sp95": 1.939,
        "gazole": 2.049
      }
    },
    {
      "id": "6384",
      "cp": "",
      "ville": "Sestri Levante",
      "adresse": "Via B Primi loc. Pontino Snc 16039",
      "brand": "q8",
      "lat": 44.27135843879105,
      "lng": 9.420980215072632,
      "fuels": {
        "sp95": 1.939,
        "gazole": 2.069
      }
    },
    {
      "id": "59016",
      "cp": "",
      "ville": "Sestri Levante",
      "adresse": "Via Bruno Primi 14  16039",
      "brand": "Agip Eni",
      "lat": 44.26992,
      "lng": 9.4249525,
      "fuels": {
        "sp95": 1.949,
        "gazole": 2.079
      }
    },
    {
      "id": "43805",
      "cp": "",
      "ville": "Sestri Levante",
      "adresse": "Via Fascie s.n. 16039",
      "brand": "Api-Ip",
      "lat": 44.26943889010694,
      "lng": 9.414227083325386,
      "fuels": {
        "sp95": 1.976,
        "gazole": 2.086
      }
    },
    {
      "id": "41916",
      "cp": "",
      "ville": "Sestri Levante",
      "adresse": "Via Mazzini  23511",
      "brand": "Europam",
      "lat": 44.27788380186348,
      "lng": 9.393257573246956,
      "fuels": {
        "sp95": 1.927,
        "gazole": 2.057
      }
    },
    {
      "id": "62420",
      "cp": "",
      "ville": "Sestri Levante",
      "adresse": "Via Per Santa Vittoria Snc 16039",
      "brand": "Pompe Bianche",
      "lat": 44.2822651,
      "lng": 9.4230992,
      "fuels": {
        "gplc": 0.85
      }
    },
    {
      "id": "12762",
      "cp": "",
      "ville": "Sestri Levante",
      "adresse": "Via Pilade Queirolo  16039",
      "brand": "Europam",
      "lat": 44.2706547364217,
      "lng": 9.385463073849678,
      "fuels": {
        "sp95": 2.037,
        "gazole": 2.067
      }
    },
    {
      "id": "56966",
      "cp": "",
      "ville": "Sestri Levante",
      "adresse": "Via v. Fascie 132 16039",
      "brand": "Esso",
      "lat": 44.27168595529132,
      "lng": 9.400850617868812,
      "fuels": {
        "sp95": 1.956,
        "gazole": 2.126
      }
    },
    {
      "id": "61913",
      "cp": "",
      "ville": "Torriglia",
      "adresse": "Ss n45 km33+978 16029",
      "brand": "Tamoil",
      "lat": 44.51361159328053,
      "lng": 9.157801920486452,
      "fuels": {
        "sp95": 1.919,
        "gazole": 2.099
      }
    },
    {
      "id": "43914",
      "cp": "",
      "ville": "Zoagli",
      "adresse": "Via Aurelia Km 489+258  16030",
      "brand": "Europam",
      "lat": 44.33726312237192,
      "lng": 9.268537329447781,
      "fuels": {
        "sp95": 1.987,
        "gazole": 2.087
      }
    }
  ]
}