{
  "code": "IS",
  "name": "Isernia",
  "regionCode": "MOL",
  "regionName": "Molise",
  "asOf": "2026-07-21T07:41:44.971Z",
  "source": "https://www.mimit.gov.it/it/open-data/elenco-dataset/2032336-dataset-prezzi-carburanti",
  "stationCount": 44,
  "fuels": {
    "gazole": {
      "count": 43,
      "mean": 2.1005,
      "median": 2.099,
      "min": 1.734,
      "max": 2.218
    },
    "sp95": {
      "count": 43,
      "mean": 1.9637,
      "median": 1.969,
      "min": 1.839,
      "max": 2.04
    },
    "gplc": {
      "count": 9,
      "mean": 0.7964,
      "median": 0.789,
      "min": 0.745,
      "max": 0.879
    }
  },
  "stations": [
    {
      "id": "62237",
      "cp": "",
      "ville": "Acquaviva D'Isernia",
      "adresse": "Viale 3 Marzo 1970  86170",
      "brand": "Tamoil",
      "lat": 41.6218164,
      "lng": 14.2325753,
      "fuels": {
        "sp95": 1.979,
        "gazole": 2.079
      }
    },
    {
      "id": "59651",
      "cp": "",
      "ville": "Agnone",
      "adresse": "Guglielmo Marconi 0 86081",
      "brand": "q8",
      "lat": 41.809671,
      "lng": 14.376867,
      "fuels": {
        "sp95": 1.949,
        "gazole": 2.099
      }
    },
    {
      "id": "53889",
      "cp": "",
      "ville": "Agnone",
      "adresse": "Strada Ss 86 Km 54+338 s.n. 86081, Agnone (is) 54 86081",
      "brand": "Agip Eni",
      "lat": 41.8123063,
      "lng": 14.36777,
      "fuels": {
        "sp95": 1.959,
        "gazole": 2.099
      }
    },
    {
      "id": "51455",
      "cp": "",
      "ville": "Cantalupo Nel Sannio",
      "adresse": "17 Dell'Appennino Abruzzese E Appulo sannitica, km. 198+530, Sud - 86092",
      "brand": "Tamoil",
      "lat": 41.528027474333776,
      "lng": 14.400723640884392,
      "fuels": {
        "sp95": 1.999,
        "gazole": 2.119
      }
    },
    {
      "id": "22761",
      "cp": "",
      "ville": "Capracotta",
      "adresse": "Via s. Maria Di Loreto  86082",
      "brand": "Tamoil",
      "lat": 41.8323015298335,
      "lng": 14.262839348026546,
      "fuels": {
        "sp95": 1.969,
        "gazole": 2.119
      }
    },
    {
      "id": "46717",
      "cp": "",
      "ville": "Carovilli",
      "adresse": "s.p. 56 Istonia  86083",
      "brand": "Tamoil",
      "lat": 41.70940143463106,
      "lng": 14.300606179308529,
      "fuels": {
        "sp95": 1.999,
        "gazole": 2.119
      }
    },
    {
      "id": "38612",
      "cp": "",
      "ville": "Civitanova Del Sannio",
      "adresse": "Statale 650 Di Fondo Valle trigno, km. 19+700, dir. Vasto - 86094",
      "brand": "Energas",
      "lat": 41.69987305190987,
      "lng": 14.416083544492722,
      "fuels": {
        "sp95": 1.899,
        "gazole": 2.099,
        "gplc": 0.749
      }
    },
    {
      "id": "30697",
      "cp": "",
      "ville": "Civitanova Del Sannio",
      "adresse": "Statale 650 Di Fondo Valle trigno, km. 22, dir. Isernia -",
      "brand": "Petrol Gamma",
      "lat": 41.71852296936504,
      "lng": 14.42615456879139,
      "fuels": {
        "sp95": 2.029,
        "gazole": 2.129
      }
    },
    {
      "id": "63428",
      "cp": "",
      "ville": "Colli A Volturno",
      "adresse": "ss158 Km 27+250 86073",
      "brand": "Agip Eni",
      "lat": 41.609474938083096,
      "lng": 14.09795414793245,
      "fuels": {
        "sp95": 1.949,
        "gazole": 2.099
      }
    },
    {
      "id": "41739",
      "cp": "",
      "ville": "Colli A Volturno",
      "adresse": "ss158km28+500 Snc 86073",
      "brand": "Esso",
      "lat": 41.59856881209675,
      "lng": 14.100184422198481,
      "fuels": {
        "sp95": 1.999,
        "gazole": 2.129
      }
    },
    {
      "id": "31165",
      "cp": "",
      "ville": "Forlì Del Sannio",
      "adresse": "Statale 17 Dell'Appennino Abruzzese E Appulo sannitica, km. 10+100, dir. Castel Di Sangro - 86084",
      "brand": "Esso",
      "lat": 41.62177064871131,
      "lng": 14.232608377933502,
      "fuels": {
        "sp95": 1.939,
        "gazole": 2.139
      }
    },
    {
      "id": "38178",
      "cp": "",
      "ville": "Fornelli",
      "adresse": "Via Bivio  14 86070",
      "brand": "Pompe Bianche",
      "lat": 41.59484169690507,
      "lng": 14.144138395786285,
      "fuels": {
        "sp95": 1.937,
        "gazole": 2.097
      }
    },
    {
      "id": "40730",
      "cp": "",
      "ville": "Frosolone",
      "adresse": "Via Filangieri  86095",
      "brand": "Petrol Gamma",
      "lat": 41.59950426884199,
      "lng": 14.450294449925423,
      "fuels": {
        "sp95": 1.999,
        "gazole": 2.127
      }
    },
    {
      "id": "42371",
      "cp": "",
      "ville": "Isernia",
      "adresse": "Corso g. Garibaldi 345 86170",
      "brand": "Agip Eni",
      "lat": 41.60024018035497,
      "lng": 14.238031804561615,
      "fuels": {
        "sp95": 1.959,
        "gazole": 2.099
      }
    },
    {
      "id": "21972",
      "cp": "",
      "ville": "Isernia",
      "adresse": "Corso Risorgimento 333 86170",
      "brand": "Petrol Gamma",
      "lat": 41.59820375516816,
      "lng": 14.245028443369279,
      "fuels": {
        "sp95": 2.04,
        "gazole": 2.218
      }
    },
    {
      "id": "21294",
      "cp": "",
      "ville": "Isernia",
      "adresse": "Via Occidentale  86170",
      "brand": "Api-Ip",
      "lat": 41.585167265167534,
      "lng": 14.223455339670181,
      "fuels": {
        "sp95": 2.019,
        "gazole": 2.159
      }
    },
    {
      "id": "54703",
      "cp": "",
      "ville": "Isernia",
      "adresse": "Via s. Ippolito Snc 86170",
      "brand": "Petrol Gamma",
      "lat": 41.5808051,
      "lng": 14.2176022,
      "fuels": {
        "sp95": 1.977,
        "gazole": 2.168
      }
    },
    {
      "id": "35581",
      "cp": "",
      "ville": "Isernia",
      "adresse": "Via Via l.sturzo 13 86170, Isernia (is) 13 86170",
      "brand": "Api-Ip",
      "lat": 41.593904417035326,
      "lng": 14.233370288954916,
      "fuels": {
        "sp95": 1.959,
        "gazole": 2.099
      }
    },
    {
      "id": "59169",
      "cp": "",
      "ville": "Isernia",
      "adresse": "Via Xxiv Maggio  Snc",
      "brand": "Agip Eni",
      "lat": 41.599422,
      "lng": 14.237062,
      "fuels": {
        "sp95": 1.959,
        "gazole": 2.099
      }
    },
    {
      "id": "62656",
      "cp": "",
      "ville": "Isernia",
      "adresse": "Viale 3 Marzo 1970 Snc  86170",
      "brand": "q8",
      "lat": 41.6103541,
      "lng": 14.238436,
      "fuels": {
        "sp95": 1.979,
        "gazole": 2.069
      }
    },
    {
      "id": "47844",
      "cp": "",
      "ville": "Isernia",
      "adresse": "Viale Dei Pentri  155 86170",
      "brand": "Petrol Gamma",
      "lat": 41.60129991738406,
      "lng": 14.243688322603697,
      "fuels": {
        "sp95": 1.999,
        "gazole": 2.159
      }
    },
    {
      "id": "53840",
      "cp": "",
      "ville": "Macchia D'Isernia",
      "adresse": "ss85 Snc 86070",
      "brand": "Agip Eni",
      "lat": 41.56371446266698,
      "lng": 14.19037477776186,
      "fuels": {
        "sp95": 1.977,
        "gazole": 2.157,
        "gplc": 0.879
      }
    },
    {
      "id": "15643",
      "cp": "",
      "ville": "Macchia D'Isernia",
      "adresse": "Via Ss 85 Venafrana km. 34+600 s. n.c. 86070, Macchia D'Isernia (is)  86070",
      "brand": "Api-Ip",
      "lat": 41.55782523894539,
      "lng": 14.171614944934845,
      "fuels": {
        "sp95": 1.928,
        "gazole": 2.098
      }
    },
    {
      "id": "46948",
      "cp": "",
      "ville": "Montaquila",
      "adresse": "158 Della Valle Del volturno, km. 36+900, Montaquila - 86070",
      "brand": "Petrol Gamma",
      "lat": 41.5460635585504,
      "lng": 14.124689164024971,
      "fuels": {
        "sp95": 1.969,
        "gazole": 2.099
      }
    },
    {
      "id": "22285",
      "cp": "",
      "ville": "Montaquila",
      "adresse": "Via Taverna - Ss 158 19 86070",
      "brand": "q8",
      "lat": 41.5226352902646,
      "lng": 14.129393052045202,
      "fuels": {
        "sp95": 1.969,
        "gazole": 2.099
      }
    },
    {
      "id": "44816",
      "cp": "",
      "ville": "Monteroduni",
      "adresse": "Via Cerquelle Snc 86075",
      "brand": "Agip Eni",
      "lat": 41.52953836850667,
      "lng": 14.153954684734344,
      "fuels": {
        "sp95": 1.959,
        "gazole": 2.059
      }
    },
    {
      "id": "61225",
      "cp": "",
      "ville": "Pesche",
      "adresse": "ss. 17 km. 181+091  86090",
      "brand": "Tamoil",
      "lat": 41.59774,
      "lng": 14.2722044,
      "fuels": {
        "sp95": 1.979,
        "gazole": 2.099
      }
    },
    {
      "id": "21677",
      "cp": "",
      "ville": "Pettoranello Del Molise",
      "adresse": "17 Dell'Appennino Abruzzese E Appulo sannitica, km. 182+797, Campobasso  86090",
      "brand": "Energas",
      "lat": 41.584363973039544,
      "lng": 14.27655503153801,
      "fuels": {
        "sp95": 1.949,
        "gazole": 2.099,
        "gplc": 0.799
      }
    },
    {
      "id": "54455",
      "cp": "",
      "ville": "Pietrabbondante",
      "adresse": "Prov f.do Valle Verrino km.4+850 86085",
      "brand": "Petrol Gamma",
      "lat": 41.6923401,
      "lng": 14.2279672,
      "fuels": {
        "sp95": 1.839,
        "gazole": 1.734
      }
    },
    {
      "id": "48266",
      "cp": "",
      "ville": "Pozzilli",
      "adresse": "85 venafrana, km. 25+030, Venafro - 86077",
      "brand": "Petrol Gamma",
      "lat": 41.49956092532855,
      "lng": 14.092041254043574,
      "fuels": {
        "sp95": 1.927,
        "gazole": 2.097
      }
    },
    {
      "id": "60778",
      "cp": "",
      "ville": "Pozzilli",
      "adresse": "Ss 85 Venafrana Km 27+725  86070",
      "brand": "Pompe Bianche",
      "lat": 41.51333070063706,
      "lng": 14.11902758728027,
      "fuels": {
        "gplc": 0.749
      }
    },
    {
      "id": "60245",
      "cp": "",
      "ville": "Pozzilli",
      "adresse": "Strada Comunale Pozzilli Snc 86077",
      "brand": "Pompe Bianche",
      "lat": 41.5016911,
      "lng": 14.0596673,
      "fuels": {
        "sp95": 1.938,
        "gazole": 2.068
      }
    },
    {
      "id": "33626",
      "cp": "",
      "ville": "Rionero Sannitico",
      "adresse": "Statale 652 Di Fondo Valle sangro, km. 11+400, dir. Venafro-Napoli 1 86087",
      "brand": "q8",
      "lat": 41.72163209755997,
      "lng": 14.122962355613708,
      "fuels": {
        "sp95": 1.939,
        "gazole": 2.099,
        "gplc": 0.789
      }
    },
    {
      "id": "49731",
      "cp": "",
      "ville": "San Pietro Avellana",
      "adresse": "652 Di Fondo Valle sangro, km. 24+146, Val Di Sangro - 86088",
      "brand": "Agip Eni",
      "lat": 41.821349790410316,
      "lng": 14.174409806728363,
      "fuels": {
        "sp95": 1.954,
        "gazole": 2.064,
        "gplc": 0.849
      }
    },
    {
      "id": "46459",
      "cp": "",
      "ville": "Sessano Del Molise",
      "adresse": "650 Di Fondo Valle trigno, km. 10, San Salvo - 86097",
      "brand": "Pompe Bianche",
      "lat": 41.64915180006518,
      "lng": 14.332222839656879,
      "fuels": {
        "sp95": 2,
        "gazole": 2.189,
        "gplc": 0.86
      }
    },
    {
      "id": "46054",
      "cp": "",
      "ville": "Sessano Del Molise",
      "adresse": "650 Di Fondo Valle trigno, km. 6+900, Vasto Lato Sinistro - 86097",
      "brand": "Pompe Bianche",
      "lat": 41.625689000123,
      "lng": 14.313505000123,
      "fuels": {
        "sp95": 1.898,
        "gazole": 1.998
      }
    },
    {
      "id": "55843",
      "cp": "",
      "ville": "Sesto Campano",
      "adresse": "85 Venafrana km. 15+730 - 86078",
      "brand": "Pompe Bianche",
      "lat": 41.44461706695394,
      "lng": 14.062112104330708,
      "fuels": {
        "sp95": 1.989,
        "gazole": 2.129
      }
    },
    {
      "id": "54572",
      "cp": "",
      "ville": "Venafro",
      "adresse": "85 km. 18+544 Sn 86079",
      "brand": "Esso",
      "lat": 41.4855592,
      "lng": 14.050366,
      "fuels": {
        "sp95": 1.969,
        "gazole": 2.099
      }
    },
    {
      "id": "53128",
      "cp": "",
      "ville": "Venafro",
      "adresse": "85 Venafrana km.18+860 Snc 86079",
      "brand": "Pompe Bianche",
      "lat": 41.47141580041548,
      "lng": 14.054092356188903,
      "fuels": {
        "sp95": 1.965,
        "gazole": 2.095,
        "gplc": 0.745
      }
    },
    {
      "id": "25915",
      "cp": "",
      "ville": "Venafro",
      "adresse": "85 venafrana, km. 22,500, Isernia  86079",
      "brand": "Energas",
      "lat": 41.492022393765716,
      "lng": 14.06410127878189,
      "fuels": {
        "sp95": 1.939,
        "gazole": 2.099,
        "gplc": 0.749
      }
    },
    {
      "id": "55037",
      "cp": "",
      "ville": "Venafro",
      "adresse": "Corso Campano 139 86079",
      "brand": "Tamoil",
      "lat": 41.4827,
      "lng": 14.0442,
      "fuels": {
        "sp95": 1.969,
        "gazole": 2.099
      }
    },
    {
      "id": "50004",
      "cp": "",
      "ville": "Venafro",
      "adresse": "Corso Campano 81 86079",
      "brand": "Esso",
      "lat": 41.48440338047184,
      "lng": 14.04457545380523,
      "fuels": {
        "sp95": 1.969,
        "gazole": 2.099
      }
    },
    {
      "id": "6713",
      "cp": "",
      "ville": "Venafro",
      "adresse": "ss.85 km.19+404 Snc 86078",
      "brand": "q8",
      "lat": 41.47510849628028,
      "lng": 14.049775040475424,
      "fuels": {
        "sp95": 1.969,
        "gazole": 2.119
      }
    },
    {
      "id": "55201",
      "cp": "",
      "ville": "Venafro",
      "adresse": "ss85  86079",
      "brand": "Agip Eni",
      "lat": 41.4855592,
      "lng": 14.050366,
      "fuels": {
        "sp95": 1.949,
        "gazole": 2.099
      }
    }
  ]
}