{
  "code": "LC",
  "name": "Lecco",
  "regionCode": "LOM",
  "regionName": "Lombardia",
  "asOf": "2026-06-12T19:03:56.609Z",
  "source": "https://www.mimit.gov.it/it/open-data/elenco-dataset/2032336-dataset-prezzi-carburanti",
  "stationCount": 91,
  "fuels": {
    "gazole": {
      "count": 89,
      "mean": 2.0011,
      "median": 2.009,
      "min": 1.889,
      "max": 2.149
    },
    "sp95": {
      "count": 89,
      "mean": 1.8914,
      "median": 1.889,
      "min": 1.745,
      "max": 2.099
    },
    "e85": {
      "count": 1,
      "mean": 1.489,
      "median": 1.489,
      "min": 1.489,
      "max": 1.489
    },
    "gplc": {
      "count": 7,
      "mean": 0.7827,
      "median": 0.789,
      "min": 0.732,
      "max": 0.802
    }
  },
  "stations": [
    {
      "id": "12285",
      "cp": "",
      "ville": "Ballabio",
      "adresse": "Via Provinciale 23 23811",
      "brand": "Agip Eni",
      "lat": 45.89057868627089,
      "lng": 9.422058463096619,
      "fuels": {
        "sp95": 1.909,
        "gazole": 2.04
      }
    },
    {
      "id": "55956",
      "cp": "",
      "ville": "Ballabio",
      "adresse": "Via Provinciale Valsassina",
      "brand": "Tamoil",
      "lat": 45.9151685,
      "lng": 9.43373411,
      "fuels": {
        "sp95": 1.829,
        "gazole": 1.899,
        "gplc": 0.769
      }
    },
    {
      "id": "12658",
      "cp": "",
      "ville": "Barzanò",
      "adresse": "Via Roma 58/64 22062",
      "brand": "Esso",
      "lat": 45.72597686910756,
      "lng": 9.31645086627043,
      "fuels": {
        "sp95": 1.959,
        "gazole": 2.073
      }
    },
    {
      "id": "23107",
      "cp": "",
      "ville": "Barzio",
      "adresse": "Via Milano 78 23816",
      "brand": "Api-Ip",
      "lat": 45.94299001618969,
      "lng": 9.462996176102479,
      "fuels": {
        "sp95": 1.929,
        "gazole": 1.959
      }
    },
    {
      "id": "41506",
      "cp": "",
      "ville": "Bellano",
      "adresse": "Via Xx Settembre 26 23822",
      "brand": "Tamoil",
      "lat": 46.04134441826508,
      "lng": 9.302138847850415,
      "fuels": {
        "sp95": 1.929,
        "gazole": 1.959
      }
    },
    {
      "id": "19226",
      "cp": "",
      "ville": "Bulciago",
      "adresse": "342 briantea, km. 36, Como 41 23892",
      "brand": "Esso",
      "lat": 45.750214580037486,
      "lng": 9.285870896295137,
      "fuels": {
        "sp95": 1.919,
        "gazole": 2.019
      }
    },
    {
      "id": "62486",
      "cp": "",
      "ville": "Calco",
      "adresse": "Nazionale 14 23885",
      "brand": "Api-Ip",
      "lat": 45.7210705,
      "lng": 9.4125009,
      "fuels": {
        "sp95": 1.959,
        "gazole": 2.059
      }
    },
    {
      "id": "23547",
      "cp": "",
      "ville": "Calco",
      "adresse": "Via Nazionale 5 23885",
      "brand": "Agip Eni",
      "lat": 45.718928065974616,
      "lng": 9.409293737612188,
      "fuels": {
        "sp95": 1.885,
        "gazole": 2.014,
        "gplc": 0.732
      }
    },
    {
      "id": "59037",
      "cp": "",
      "ville": "Calco",
      "adresse": "Via Nazionale 59  23885",
      "brand": "Coil",
      "lat": 45.72573922182835,
      "lng": 9.415390046631021,
      "fuels": {
        "sp95": 1.889,
        "gazole": 2.019
      }
    },
    {
      "id": "35264",
      "cp": "",
      "ville": "Calolziocorte",
      "adresse": "c.so Europa 42 23801",
      "brand": "Api-Ip",
      "lat": 45.79855459915719,
      "lng": 9.433319056138771,
      "fuels": {
        "sp95": 1.919,
        "gazole": 2.019
      }
    },
    {
      "id": "63091",
      "cp": "",
      "ville": "Calolziocorte",
      "adresse": "Corso Europa 84  23801",
      "brand": "Esso",
      "lat": 45.7889567,
      "lng": 9.439921799999999,
      "fuels": {
        "sp95": 1.899,
        "gazole": 1.999
      }
    },
    {
      "id": "55174",
      "cp": "",
      "ville": "Calolziocorte",
      "adresse": "Europa 84 23801",
      "brand": "Esso",
      "lat": 45.789485059325365,
      "lng": 9.440125719395144,
      "fuels": {
        "sp95": 1.879,
        "gazole": 2.009
      }
    },
    {
      "id": "33534",
      "cp": "",
      "ville": "Casatenovo",
      "adresse": "Boschetto Snc 23880",
      "brand": "Pompe Bianche",
      "lat": 45.68040788805648,
      "lng": 9.316917210817337,
      "fuels": {
        "gplc": 0.799
      }
    },
    {
      "id": "39921",
      "cp": "",
      "ville": "Casatenovo",
      "adresse": "Via Alcide De Gasperi 63 23880",
      "brand": "Giap",
      "lat": 45.66337200787366,
      "lng": 9.315214678645134,
      "fuels": {
        "sp95": 1.889,
        "gazole": 2.029
      }
    },
    {
      "id": "36517",
      "cp": "",
      "ville": "Casatenovo",
      "adresse": "Via General Sirtori 14 23880",
      "brand": "q8",
      "lat": 45.70141356985201,
      "lng": 9.31247815489769,
      "fuels": {
        "sp95": 1.979,
        "gazole": 2.149
      }
    },
    {
      "id": "50619",
      "cp": "",
      "ville": "Castello Di Brianza",
      "adresse": "s.p 51 Della Santa 02 23884",
      "brand": "Api-Ip",
      "lat": 45.76140427906839,
      "lng": 9.337708340789217,
      "fuels": {
        "sp95": 1.929,
        "gazole": 2.059
      }
    },
    {
      "id": "53502",
      "cp": "",
      "ville": "Cernusco Lombardone",
      "adresse": "Monza 74 23870",
      "brand": "Agip Eni",
      "lat": 45.68577950120711,
      "lng": 9.393377602100372,
      "fuels": {
        "sp95": 1.797,
        "gazole": 2.129
      }
    },
    {
      "id": "14854",
      "cp": "",
      "ville": "Cernusco Lombardone",
      "adresse": "Statale 342 - Km 5+030, Snc 23870",
      "brand": "Api-Ip",
      "lat": 45.68507083609216,
      "lng": 9.398703128099442,
      "fuels": {
        "sp95": 1.939,
        "gazole": 2.039,
        "gplc": 0.802
      }
    },
    {
      "id": "43781",
      "cp": "",
      "ville": "Cesana Brianza",
      "adresse": "Via De Gasperi 31 22184",
      "brand": "Pompe Bianche",
      "lat": 45.81602888648676,
      "lng": 9.299253959722591,
      "fuels": {
        "sp95": 1.835,
        "gazole": 1.955
      }
    },
    {
      "id": "57363",
      "cp": "",
      "ville": "Civate",
      "adresse": "Provinciale 31/33 23862",
      "brand": "Pompe Bianche",
      "lat": 45.82982536926364,
      "lng": 9.351558411720292,
      "fuels": {
        "sp95": 1.899,
        "gazole": 1.999
      }
    },
    {
      "id": "11619",
      "cp": "",
      "ville": "Civate",
      "adresse": "Via Provinciale S/N 23862",
      "brand": "q8",
      "lat": 45.82181589115455,
      "lng": 9.32116093254092,
      "fuels": {
        "sp95": 1.839,
        "gazole": 1.969
      }
    },
    {
      "id": "53208",
      "cp": "",
      "ville": "Colico",
      "adresse": "Nazionale 11 23823",
      "brand": "Esso",
      "lat": 46.135739740042254,
      "lng": 9.371162750540165,
      "fuels": {
        "sp95": 1.826,
        "gazole": 1.956
      }
    },
    {
      "id": "37676",
      "cp": "",
      "ville": "Colico",
      "adresse": "Via Nazionale Nord 41 23823",
      "brand": "Esso",
      "lat": 46.14161324772325,
      "lng": 9.397675842046738,
      "fuels": {
        "sp95": 1.819,
        "gazole": 1.899
      }
    },
    {
      "id": "61462",
      "cp": "",
      "ville": "Costa Masnaga",
      "adresse": "Volta 5 23845",
      "brand": "q8",
      "lat": 45.765408655711866,
      "lng": 9.27718698978424,
      "fuels": {
        "sp95": 1.849,
        "gazole": 1.999
      }
    },
    {
      "id": "15009",
      "cp": "",
      "ville": "Dervio",
      "adresse": "Via Matteotti 105/107 23824, Dervio (lc) 105/107 23824",
      "brand": "Retitalia",
      "lat": 46.080246924515265,
      "lng": 9.30884487728008,
      "fuels": {
        "sp95": 1.929,
        "gazole": 2.01
      }
    },
    {
      "id": "12459",
      "cp": "",
      "ville": "Dolzago",
      "adresse": "Via Provinciale 70/74 23843",
      "brand": "q8",
      "lat": 45.76468808924167,
      "lng": 9.338241443037987,
      "fuels": {
        "sp95": 1.919,
        "gazole": 2.039
      }
    },
    {
      "id": "34303",
      "cp": "",
      "ville": "Dolzago",
      "adresse": "Via Provinciale 9 23843",
      "brand": "Tamoil",
      "lat": 45.7703058329883,
      "lng": 9.339036898147583,
      "fuels": {
        "sp95": 1.909,
        "gazole": 2.039
      }
    },
    {
      "id": "29380",
      "cp": "",
      "ville": "Galbiate",
      "adresse": "Via Ettore Monti 8 23851",
      "brand": "Pompe Bianche",
      "lat": 45.84595529991206,
      "lng": 9.394026696681976,
      "fuels": {
        "sp95": 1.835,
        "gazole": 1.935
      }
    },
    {
      "id": "21974",
      "cp": "",
      "ville": "Galbiate",
      "adresse": "Via Iv Novembre 29 23851",
      "brand": "Pompe Bianche",
      "lat": 45.81501384906386,
      "lng": 9.377555251121521,
      "fuels": {
        "sp95": 2.099,
        "gazole": 2.099
      }
    },
    {
      "id": "12059",
      "cp": "",
      "ville": "Garlate",
      "adresse": "Statale 36 Del Lago Di Como E Dello spluga, km. 46+755, dir. Garlate - 23852",
      "brand": "Esso",
      "lat": 45.81535122948823,
      "lng": 9.398003131282849,
      "fuels": {
        "sp95": 1.854,
        "gazole": 1.974
      }
    },
    {
      "id": "43387",
      "cp": "",
      "ville": "Imbersago",
      "adresse": "Via Castelbarco 48 23898",
      "brand": "Giap",
      "lat": 45.70435831381392,
      "lng": 9.444540554271043,
      "fuels": {
        "sp95": 1.888,
        "gazole": 2.018
      }
    },
    {
      "id": "8391",
      "cp": "",
      "ville": "La Valletta Brianza",
      "adresse": "Statale 67 23888",
      "brand": "Api-Ip",
      "lat": 45.73834344518389,
      "lng": 9.36314730031279,
      "fuels": {
        "sp95": 1.919,
        "gazole": 2.039
      }
    },
    {
      "id": "44591",
      "cp": "",
      "ville": "Lecco",
      "adresse": "a. Moro E Caduti Di Via Fan 13 23900",
      "brand": "Garage Roberto",
      "lat": 45.864795292244224,
      "lng": 9.389112889766693,
      "fuels": {
        "sp95": 1.923,
        "gazole": 1.923
      }
    },
    {
      "id": "23709",
      "cp": "",
      "ville": "Lecco",
      "adresse": "c.so Carlo Alberto 36 23900",
      "brand": "Esso",
      "lat": 45.844357261918624,
      "lng": 9.400478055225335,
      "fuels": {
        "sp95": 1.844,
        "gazole": 1.964
      }
    },
    {
      "id": "61105",
      "cp": "",
      "ville": "Lecco",
      "adresse": "Carlo Alberto 53 23900",
      "brand": "Pompe Bianche",
      "lat": 45.8402,
      "lng": 9.41046,
      "fuels": {
        "sp95": 1.859,
        "gazole": 1.999
      }
    },
    {
      "id": "61431",
      "cp": "",
      "ville": "Lecco",
      "adresse": "Corso Bergamo  157 23900",
      "brand": "Tamoil",
      "lat": 45.864200574161494,
      "lng": 9.393846967839348,
      "fuels": {
        "sp95": 1.829,
        "gazole": 1.929
      }
    },
    {
      "id": "7786",
      "cp": "",
      "ville": "Lecco",
      "adresse": "Corso Bergamo 20 23900",
      "brand": "Agip Eni",
      "lat": 45.827938768843765,
      "lng": 9.416822791099548,
      "fuels": {
        "sp95": 1.889,
        "gazole": 2.04
      }
    },
    {
      "id": "6547",
      "cp": "",
      "ville": "Lecco",
      "adresse": "Corso Bergamo 80 23900",
      "brand": "q8",
      "lat": 45.82355376035849,
      "lng": 9.418141330688513,
      "fuels": {
        "sp95": 1.835,
        "gazole": 1.935
      }
    },
    {
      "id": "52589",
      "cp": "",
      "ville": "Lecco",
      "adresse": "Corso Emanuele Filiberto 18  23900",
      "brand": "Api-Ip",
      "lat": 45.8373786,
      "lng": 9.4106016,
      "fuels": {
        "sp95": 1.966,
        "gazole": 2.026
      }
    },
    {
      "id": "14254",
      "cp": "",
      "ville": "Lecco",
      "adresse": "Corso Giacomo Matteotti 95 23900",
      "brand": "Api-Ip",
      "lat": 45.86401784486046,
      "lng": 9.403393329222126,
      "fuels": {
        "sp95": 1.936,
        "gazole": 2.026
      }
    },
    {
      "id": "12261",
      "cp": "",
      "ville": "Lecco",
      "adresse": "Corso Matteotti 82 23900",
      "brand": "Agip Eni",
      "lat": 45.86242569632201,
      "lng": 9.400053333026335,
      "fuels": {
        "sp95": 1.909,
        "gazole": 2.04
      }
    },
    {
      "id": "59100",
      "cp": "",
      "ville": "Lecco",
      "adresse": "Lungolario Piave 6/A 23900",
      "brand": "Tamoil",
      "lat": 45.86386,
      "lng": 9.3821,
      "fuels": {
        "sp95": 1.839,
        "gazole": 1.909
      }
    },
    {
      "id": "43777",
      "cp": "",
      "ville": "Lecco",
      "adresse": "Via Fiandra  9 23900",
      "brand": "Pompe Bianche",
      "lat": 45.85112293996124,
      "lng": 9.401965798776587,
      "fuels": {
        "gplc": 0.789
      }
    },
    {
      "id": "29259",
      "cp": "",
      "ville": "Lecco",
      "adresse": "Via Fiandra 23 23900",
      "brand": "Pompe Bianche",
      "lat": 45.848580058555235,
      "lng": 9.40404896256564,
      "fuels": {
        "sp95": 1.859,
        "gazole": 1.999
      }
    },
    {
      "id": "61425",
      "cp": "",
      "ville": "Lecco",
      "adresse": "Via Fiandra 7  23900",
      "brand": "Pompe Bianche",
      "lat": 45.85108232575885,
      "lng": 9.402137696743011,
      "fuels": {
        "sp95": 1.859,
        "gazole": 1.999
      }
    },
    {
      "id": "42383",
      "cp": "",
      "ville": "Lecco",
      "adresse": "Via Leonardo Da Vinci 44 23900",
      "brand": "Tamoil",
      "lat": 45.85002377803971,
      "lng": 9.387720823287964,
      "fuels": {
        "sp95": 1.829,
        "gazole": 1.899
      }
    },
    {
      "id": "11617",
      "cp": "",
      "ville": "Lecco",
      "adresse": "Via Lungo Lario Cesare Battisti 13 23900",
      "brand": "q8",
      "lat": 45.85664888326723,
      "lng": 9.38570722922077,
      "fuels": {
        "sp95": 1.849,
        "gazole": 1.919
      }
    },
    {
      "id": "55503",
      "cp": "",
      "ville": "Lecco",
      "adresse": "Via Via Adamello 11 23900, Lecco (lc) 26 23900",
      "brand": "Api-Ip",
      "lat": 45.5114752,
      "lng": 9.3749248,
      "fuels": {
        "sp95": 1.929,
        "gazole": 2.019
      }
    },
    {
      "id": "40098",
      "cp": "",
      "ville": "Lecco",
      "adresse": "Viale Redipuglia 4 23900",
      "brand": "Pompe Bianche",
      "lat": 45.855073736186796,
      "lng": 9.412228512897514,
      "fuels": {
        "sp95": 1.899,
        "gazole": 1.999
      }
    },
    {
      "id": "23977",
      "cp": "",
      "ville": "Lecco",
      "adresse": "Viale Turati 80/B 23900",
      "brand": "Pompe Bianche",
      "lat": 45.86275329795153,
      "lng": 9.386881282803415,
      "fuels": {
        "sp95": 1.879,
        "gazole": 1.899
      }
    },
    {
      "id": "54321",
      "cp": "",
      "ville": "Malgrate",
      "adresse": "Provinciale 29 23864",
      "brand": "Agip Eni",
      "lat": 45.848,
      "lng": 9.3584,
      "fuels": {
        "sp95": 1.889,
        "gazole": 2.05
      }
    },
    {
      "id": "59817",
      "cp": "",
      "ville": "Malgrate",
      "adresse": "Provinciale Como-Lecco 15 23864",
      "brand": "Pompe Bianche",
      "lat": 45.84815986699264,
      "lng": 9.37047358056032,
      "fuels": {
        "sp95": 1.869,
        "gazole": 1.969
      }
    },
    {
      "id": "52430",
      "cp": "",
      "ville": "Malgrate",
      "adresse": "Via Provinciale 29/E 23864",
      "brand": "Esso",
      "lat": 45.84894952702968,
      "lng": 9.373831748962397,
      "fuels": {
        "sp95": 1.869,
        "gazole": 1.989
      }
    },
    {
      "id": "11117",
      "cp": "",
      "ville": "Malgrate",
      "adresse": "Via Provinciale 43 23864",
      "brand": "q8",
      "lat": 45.849553721066364,
      "lng": 9.376409947872162,
      "fuels": {
        "sp95": 1.879,
        "gazole": 1.999
      }
    },
    {
      "id": "60469",
      "cp": "",
      "ville": "Mandello Del Lario",
      "adresse": "Provinciale 72 23826",
      "brand": "Itala Petroli",
      "lat": 45.9173201,
      "lng": 9.317456,
      "fuels": {
        "sp95": 1.939,
        "gazole": 2.029
      }
    },
    {
      "id": "29335",
      "cp": "",
      "ville": "Mandello Del Lario",
      "adresse": "s.s. 36 Km 60,500(area est) Snc 23826",
      "brand": "Agip Eni",
      "lat": 45.91484905891805,
      "lng": 9.328036308288574,
      "fuels": {
        "sp95": 1.849,
        "gazole": 1.954
      }
    },
    {
      "id": "29026",
      "cp": "",
      "ville": "Mandello Del Lario",
      "adresse": "Statale 36 Del Lago Di Como E Dello spluga, km. 60-493, dir. Lecco  23826",
      "brand": "Agip Eni",
      "lat": 45.91417539838993,
      "lng": 9.327548146247864,
      "fuels": {
        "sp95": 1.869,
        "gazole": 1.985
      }
    },
    {
      "id": "59239",
      "cp": "",
      "ville": "Mandello Del Lario",
      "adresse": "Strada Statale  91",
      "brand": "Agip Eni",
      "lat": 45.9201,
      "lng": 9.313732,
      "fuels": {
        "sp95": 1.869,
        "gazole": 2.019
      }
    },
    {
      "id": "62194",
      "cp": "",
      "ville": "Mandello Del Lario",
      "adresse": "Via Statale 48  23826",
      "brand": "Retitalia",
      "lat": 45.9145574,
      "lng": 9.3228136,
      "fuels": {
        "sp95": 1.919,
        "gazole": 2.019
      }
    },
    {
      "id": "49134",
      "cp": "",
      "ville": "Margno",
      "adresse": "Piazzale Funivia 46, 23832  23832",
      "brand": "Loro",
      "lat": 46.03110407831712,
      "lng": 9.382417718419886,
      "fuels": {
        "sp95": 1.999,
        "gazole": 2.099
      }
    },
    {
      "id": "17574",
      "cp": "",
      "ville": "Merate",
      "adresse": "Statale 04 23807",
      "brand": "Esso",
      "lat": 45.69969240271159,
      "lng": 9.408395290374756,
      "fuels": {
        "sp95": 1.889,
        "gazole": 1.99
      }
    },
    {
      "id": "51395",
      "cp": "",
      "ville": "Merate",
      "adresse": "v. De Gasperi-ang. v. f.turati Snc 23807",
      "brand": "Tamoil",
      "lat": 45.69395514452751,
      "lng": 9.41673932558197,
      "fuels": {
        "sp95": 1.829,
        "gazole": 1.899
      }
    },
    {
      "id": "50286",
      "cp": "",
      "ville": "Merate",
      "adresse": "Via Bergamo 19 23807",
      "brand": "Auchan",
      "lat": 45.69003303270207,
      "lng": 9.421236941993385,
      "fuels": {
        "sp95": 1.819,
        "gazole": 1.889
      }
    },
    {
      "id": "13462",
      "cp": "",
      "ville": "Merate",
      "adresse": "Via Como 22 23807",
      "brand": "Api-Ip",
      "lat": 45.69026250884287,
      "lng": 9.412855803966522,
      "fuels": {
        "sp95": 1.929,
        "gazole": 2.029
      }
    },
    {
      "id": "11618",
      "cp": "",
      "ville": "Merate",
      "adresse": "Via Terzaghi S/N 23807",
      "brand": "q8",
      "lat": 45.701393224903505,
      "lng": 9.410551720237663,
      "fuels": {
        "sp95": 1.889,
        "gazole": 1.999
      }
    },
    {
      "id": "12567",
      "cp": "",
      "ville": "Missaglia",
      "adresse": "Corso Europa 12 23873",
      "brand": "Tamoil",
      "lat": 45.7055385635567,
      "lng": 9.334802851080894,
      "fuels": {
        "sp95": 1.929,
        "gazole": 1.989
      }
    },
    {
      "id": "52532",
      "cp": "",
      "ville": "Molteno",
      "adresse": "s.s.36 km.38+500-Vle Lombardia 12 23847",
      "brand": "Tamoil",
      "lat": 45.787557161222686,
      "lng": 9.296893176508183,
      "fuels": {
        "sp95": 1.859,
        "gazole": 1.959
      }
    },
    {
      "id": "7016",
      "cp": "",
      "ville": "Molteno",
      "adresse": "Statale 36 Del Lago Di Como E Dello spluga, km. 38+399, dir. Milano  23847",
      "brand": "Agip Eni",
      "lat": 45.786125403311146,
      "lng": 9.295066595077515,
      "fuels": {
        "sp95": 1.909,
        "gazole": 2.04
      }
    },
    {
      "id": "44339",
      "cp": "",
      "ville": "Montevecchia",
      "adresse": "Via Bergamo 10 23874",
      "brand": "Pompe Bianche",
      "lat": 45.695357000123,
      "lng": 9.378126000123,
      "fuels": {
        "sp95": 1.936,
        "gazole": 1.997
      }
    },
    {
      "id": "28205",
      "cp": "",
      "ville": "Monticello Brianza",
      "adresse": "Via Besozzi 11 23876",
      "brand": "Api-Ip",
      "lat": 45.70866707811313,
      "lng": 9.320521635195973,
      "fuels": {
        "sp95": 1.929,
        "gazole": 1.999
      }
    },
    {
      "id": "54715",
      "cp": "",
      "ville": "Monticello Brianza",
      "adresse": "Via Provinciale  23876",
      "brand": "q8",
      "lat": 45.7154034,
      "lng": 9.3181848,
      "fuels": {
        "sp95": 1.949,
        "gazole": 2.059
      }
    },
    {
      "id": "53222",
      "cp": "",
      "ville": "Nibionno",
      "adresse": "Via Alessandro Volta 11 23895",
      "brand": "Tamoil",
      "lat": 45.7493803,
      "lng": 9.2641271,
      "fuels": {
        "sp95": 1.819,
        "gazole": 1.959
      }
    },
    {
      "id": "34714",
      "cp": "",
      "ville": "Oggiono",
      "adresse": "Via Papa Giovanni Xxiii 85 23848",
      "brand": "Agip Eni",
      "lat": 45.785562605657766,
      "lng": 9.343922226315954,
      "fuels": {
        "sp95": 1.909,
        "gazole": 2.04
      }
    },
    {
      "id": "7925",
      "cp": "",
      "ville": "Oggiono",
      "adresse": "Via Per Dolzago 53 23848",
      "brand": "Tamoil",
      "lat": 45.77721955252621,
      "lng": 9.339569723348177,
      "fuels": {
        "sp95": 1.909,
        "gazole": 2.039
      }
    },
    {
      "id": "19763",
      "cp": "",
      "ville": "Oggiono",
      "adresse": "Via Vittorio Veneto 6, 23848 - -",
      "brand": "Esso",
      "lat": 45.792094529981206,
      "lng": 9.352199024976926,
      "fuels": {
        "sp95": 1.919,
        "gazole": 2.049
      }
    },
    {
      "id": "23790",
      "cp": "",
      "ville": "Olgiate Molgora",
      "adresse": "Via Nazionale 10 23887",
      "brand": "q8",
      "lat": 45.73871696094449,
      "lng": 9.421517546032646,
      "fuels": {
        "sp95": 1.889,
        "gazole": 1.999
      }
    },
    {
      "id": "12057",
      "cp": "",
      "ville": "Olginate",
      "adresse": "Via Spluga 58 23854",
      "brand": "Esso",
      "lat": 45.790215205404046,
      "lng": 9.417008906745878,
      "fuels": {
        "sp95": 1.854,
        "gazole": 1.974
      }
    },
    {
      "id": "48670",
      "cp": "",
      "ville": "Osnago",
      "adresse": "Via Provinciale 36  19 23875",
      "brand": "Esso",
      "lat": 45.683978433154564,
      "lng": 9.398021476372378,
      "fuels": {
        "sp95": 1.899,
        "gazole": 2.019
      }
    },
    {
      "id": "40383",
      "cp": "",
      "ville": "Osnago",
      "adresse": "Via Statale  20 23875",
      "brand": "Agip Eni",
      "lat": 45.68180115412257,
      "lng": 9.397994354367256,
      "fuels": {
        "sp95": 1.909,
        "gazole": 2.039
      }
    },
    {
      "id": "55103",
      "cp": "",
      "ville": "Paderno D'Adda",
      "adresse": "Ugo Festini 5 23877",
      "brand": "Api-Ip",
      "lat": 45.67559503006115,
      "lng": 9.445802944499974,
      "fuels": {
        "sp95": 1.929,
        "gazole": 2.029
      }
    },
    {
      "id": "58657",
      "cp": "",
      "ville": "Pasturo",
      "adresse": "Via Roma 33 23818",
      "brand": "q8",
      "lat": 45.94770245215487,
      "lng": 9.445562996549244,
      "fuels": {
        "sp95": 1.929,
        "gazole": 2.039
      }
    },
    {
      "id": "16552",
      "cp": "",
      "ville": "Robbiate",
      "adresse": "Via Viale Indipendenza 80 23899, Robbiate (lc) 80 23899",
      "brand": "Api-Ip",
      "lat": 45.691023194199,
      "lng": 9.436519593000412,
      "fuels": {
        "sp95": 1.889,
        "gazole": 1.999
      }
    },
    {
      "id": "35136",
      "cp": "",
      "ville": "Rogeno",
      "adresse": "Provinciale 51 23849",
      "brand": "Api-Ip",
      "lat": 45.7890710312095,
      "lng": 9.263818189501762,
      "fuels": {
        "sp95": 1.919,
        "gazole": 2.029
      }
    },
    {
      "id": "36136",
      "cp": "",
      "ville": "Santa Maria Hoè",
      "adresse": "Via Giovanni Xxiii 27 23889",
      "brand": "Tamoil",
      "lat": 45.74363112817268,
      "lng": 9.376737177371979,
      "fuels": {
        "sp95": 1.745,
        "gazole": 2.019
      }
    },
    {
      "id": "5947",
      "cp": "",
      "ville": "Suello",
      "adresse": "Ss 36 Valassina Km 41+650  23867",
      "brand": "Api-Ip",
      "lat": 45.77322,
      "lng": 9.28778,
      "fuels": {
        "sp95": 1.839,
        "gazole": 1.969,
        "e85": 1.489,
        "gplc": 0.789
      }
    },
    {
      "id": "47444",
      "cp": "",
      "ville": "Taceno",
      "adresse": "Via Provinciale Sud 4 23837",
      "brand": "Api-Ip",
      "lat": 46.016241823969544,
      "lng": 9.36961308465575,
      "fuels": {
        "sp95": 1.929,
        "gazole": 2.059
      }
    },
    {
      "id": "38928",
      "cp": "",
      "ville": "Valmadrera",
      "adresse": "Via Como 22 23868",
      "brand": "Tamoil",
      "lat": 45.845114013210825,
      "lng": 9.366167813491757,
      "fuels": {
        "sp95": 1.829,
        "gazole": 1.899
      }
    },
    {
      "id": "55098",
      "cp": "",
      "ville": "Valmadrera",
      "adresse": "Via Xxv Aprile 22",
      "brand": "Agip Eni",
      "lat": 45.844727,
      "lng": 9.360655,
      "fuels": {
        "sp95": 1.869,
        "gazole": 2.019
      }
    },
    {
      "id": "35368",
      "cp": "",
      "ville": "Vercurago",
      "adresse": "Roma 58 23808",
      "brand": "Api-Ip",
      "lat": 45.8117130810688,
      "lng": 9.423806667327876,
      "fuels": {
        "sp95": 1.926,
        "gazole": 1.986
      }
    },
    {
      "id": "56232",
      "cp": "",
      "ville": "Verderio",
      "adresse": "s.p 56 46/48 23879",
      "brand": "Api-Ip",
      "lat": 45.67011878703438,
      "lng": 9.42385339330784,
      "fuels": {
        "sp95": 1.919,
        "gazole": 2.019,
        "gplc": 0.799
      }
    },
    {
      "id": "11253",
      "cp": "",
      "ville": "Verderio",
      "adresse": "Via Milano 60 23878",
      "brand": "Agip Eni",
      "lat": 45.67296667914652,
      "lng": 9.424413442611694,
      "fuels": {
        "sp95": 1.9,
        "gazole": 2.029
      }
    }
  ]
}