{
  "code": "ME",
  "name": "Messina",
  "regionCode": "SIC",
  "regionName": "Sicilia",
  "asOf": "2026-07-21T14:27:49.522Z",
  "source": "https://www.mimit.gov.it/it/open-data/elenco-dataset/2032336-dataset-prezzi-carburanti",
  "stationCount": 212,
  "fuels": {
    "gazole": {
      "count": 209,
      "mean": 2.1207,
      "median": 2.099,
      "min": 1.989,
      "max": 2.365
    },
    "sp95": {
      "count": 209,
      "mean": 1.9672,
      "median": 1.959,
      "min": 1.869,
      "max": 2.371
    },
    "e85": {
      "count": 7,
      "mean": 1.7489,
      "median": 1.699,
      "min": 1.569,
      "max": 2.039
    },
    "gplc": {
      "count": 27,
      "mean": 0.8329,
      "median": 0.8,
      "min": 0.759,
      "max": 0.991
    }
  },
  "stations": [
    {
      "id": "3777",
      "cp": "",
      "ville": "Acquedolci",
      "adresse": "Autostrada a20 Messina-palermo, km. 109, dir. Est - -",
      "brand": "Esso",
      "lat": 38.05362995085992,
      "lng": 14.602208733558655,
      "fuels": {
        "sp95": 2.069,
        "gazole": 2.279,
        "gplc": 0.869
      }
    },
    {
      "id": "21051",
      "cp": "",
      "ville": "Acquedolci",
      "adresse": "Via Nazionale (s.s. 113) Snc 98070, Acquedolci (me)  98070",
      "brand": "Esso",
      "lat": 38.06016459308957,
      "lng": 14.600976929068565,
      "fuels": {
        "sp95": 1.979,
        "gazole": 2.189
      }
    },
    {
      "id": "59788",
      "cp": "",
      "ville": "Acquedolci",
      "adresse": "Via Nazionale ss.113 km.126+947  Snc",
      "brand": "Agip Eni",
      "lat": 38.058086,
      "lng": 14.593469,
      "fuels": {
        "sp95": 1.949,
        "gazole": 2.079
      }
    },
    {
      "id": "56627",
      "cp": "",
      "ville": "Alcara Li Fusi",
      "adresse": "Piazza a. De Gasperi c.da Cappuccini Sn 98070",
      "brand": "Ego",
      "lat": 38.01876120643985,
      "lng": 14.703888595104218,
      "fuels": {
        "sp95": 1.929,
        "gazole": 2.069
      }
    },
    {
      "id": "54114",
      "cp": "",
      "ville": "Alì",
      "adresse": "Roma 34 98020",
      "brand": "Bianco Carburanti",
      "lat": 38.0269,
      "lng": 15.4171,
      "fuels": {
        "sp95": 1.959,
        "gazole": 2.089
      }
    },
    {
      "id": "63252",
      "cp": "",
      "ville": "Alì Terme",
      "adresse": "Piazza Prestia Nino  98021",
      "brand": "Api-Ip",
      "lat": 38.0037181,
      "lng": 15.4225038,
      "fuels": {
        "sp95": 1.949,
        "gazole": 2.099
      }
    },
    {
      "id": "29825",
      "cp": "",
      "ville": "Antillo",
      "adresse": "Via Roma  98030",
      "brand": "Pompe Bianche",
      "lat": 37.976805501059125,
      "lng": 15.24707790651587,
      "fuels": {
        "sp95": 1.999,
        "gazole": 2.099
      }
    },
    {
      "id": "20773",
      "cp": "",
      "ville": "Barcellona Pozzo Di Gotto",
      "adresse": "Kennedy 90 98051",
      "brand": "q8",
      "lat": 38.149456055770244,
      "lng": 15.21927677056965,
      "fuels": {
        "sp95": 1.939,
        "gazole": 2.069
      }
    },
    {
      "id": "62412",
      "cp": "",
      "ville": "Barcellona Pozzo Di Gotto",
      "adresse": "on. Gaetano Martino 52 98051",
      "brand": "Agip Eni",
      "lat": 38.14474752804626,
      "lng": 15.206353515386581,
      "fuels": {
        "sp95": 1.949,
        "gazole": 2.079,
        "e85": 1.678,
        "gplc": 0.759
      }
    },
    {
      "id": "60678",
      "cp": "",
      "ville": "Barcellona Pozzo Di Gotto",
      "adresse": "Papa Giovanni Xxiii 85 98051",
      "brand": "Esso",
      "lat": 38.1495729,
      "lng": 15.2217506,
      "fuels": {
        "sp95": 1.969,
        "gazole": 2.199
      }
    },
    {
      "id": "50236",
      "cp": "",
      "ville": "Barcellona Pozzo Di Gotto",
      "adresse": "Strada statale, km. 46+821, Messina-Palermo - 98051",
      "brand": "q8",
      "lat": 38.148311324688,
      "lng": 15.199450850486755,
      "fuels": {
        "sp95": 1.959,
        "gazole": 2.099
      }
    },
    {
      "id": "9241",
      "cp": "",
      "ville": "Barcellona Pozzo Di Gotto",
      "adresse": "Umberto I 28 Bis 98051",
      "brand": "Bn Petroli",
      "lat": 38.140327848908406,
      "lng": 15.216753325129162,
      "fuels": {
        "sp95": 1.959,
        "gazole": 2.079
      }
    },
    {
      "id": "53154",
      "cp": "",
      "ville": "Barcellona Pozzo Di Gotto",
      "adresse": "Via Caldà Snc 98051",
      "brand": "Dbcarburanti",
      "lat": 38.1804594,
      "lng": 15.2078089,
      "fuels": {
        "sp95": 1.959,
        "gazole": 2.099
      }
    },
    {
      "id": "62235",
      "cp": "",
      "ville": "Barcellona Pozzo Di Gotto",
      "adresse": "Via Del Mare 157  98051",
      "brand": "Api-Ip",
      "lat": 38.1485,
      "lng": 15.2161,
      "fuels": {
        "sp95": 1.939,
        "gazole": 2.059
      }
    },
    {
      "id": "60675",
      "cp": "",
      "ville": "Barcellona Pozzo Di Gotto",
      "adresse": "Via John f. Kennedy 195 98051",
      "brand": "Esso",
      "lat": 38.151011006568886,
      "lng": 15.22274193554688,
      "fuels": {
        "sp95": 1.969,
        "gazole": 2.199
      }
    },
    {
      "id": "63307",
      "cp": "",
      "ville": "Barcellona Pozzo Di Gotto",
      "adresse": "Via Kennedy  98051",
      "brand": "Api-Ip",
      "lat": 38.152129841176226,
      "lng": 15.225315164040778,
      "fuels": {
        "sp95": 1.959,
        "gazole": 2.089
      }
    },
    {
      "id": "34910",
      "cp": "",
      "ville": "Barcellona Pozzo Di Gotto",
      "adresse": "Via Kennedy ang. Via Garibaldi  98051",
      "brand": "Api-Ip",
      "lat": 38.15471601742442,
      "lng": 15.232879221439362,
      "fuels": {
        "sp95": 1.949,
        "gazole": 2.079
      }
    },
    {
      "id": "18354",
      "cp": "",
      "ville": "Barcellona Pozzo Di Gotto",
      "adresse": "Via Marconi 81 98051",
      "brand": "q8",
      "lat": 38.14699647809833,
      "lng": 15.212107331871948,
      "fuels": {
        "sp95": 1.969,
        "gazole": 2.099
      }
    },
    {
      "id": "8859",
      "cp": "",
      "ville": "Barcellona Pozzo Di Gotto",
      "adresse": "Via Papa Giovanni xxiii, Dir Messina 51 98051",
      "brand": "Agip Eni",
      "lat": 38.1489712629476,
      "lng": 15.21989786624863,
      "fuels": {
        "sp95": 1.949,
        "gazole": 2.079
      }
    },
    {
      "id": "49508",
      "cp": "",
      "ville": "Barcellona Pozzo Di Gotto",
      "adresse": "Viale Sicilia Snc 98051",
      "brand": "Pompe Bianche",
      "lat": 38.15106186704688,
      "lng": 15.194764943502198,
      "fuels": {
        "sp95": 1.979,
        "gazole": 2.139,
        "gplc": 0.799
      }
    },
    {
      "id": "61638",
      "cp": "",
      "ville": "Brolo",
      "adresse": "s.s. 113 Km 97,400",
      "brand": "Iblea Petroli",
      "lat": 38.1563313,
      "lng": 14.8285035,
      "fuels": {
        "sp95": 1.999,
        "gazole": 2.169,
        "gplc": 0.879
      }
    },
    {
      "id": "5610",
      "cp": "",
      "ville": "Brolo",
      "adresse": "Via s.s.113 km.97+400 Contrada Malpertuso Sn 98061, Brolo (me) - 98061",
      "brand": "Iblea Petroli",
      "lat": 38.15419927600706,
      "lng": 14.814004004001617,
      "fuels": {
        "sp95": 1.999,
        "gazole": 2.169,
        "gplc": 0.879
      }
    },
    {
      "id": "25566",
      "cp": "",
      "ville": "Brolo",
      "adresse": "Via Vittorio Emanuele iii, 98061 - -",
      "brand": "Agip Eni",
      "lat": 38.15609032235204,
      "lng": 14.830834865570068,
      "fuels": {
        "sp95": 1.949,
        "gazole": 2.079
      }
    },
    {
      "id": "32085",
      "cp": "",
      "ville": "Brolo",
      "adresse": "vitt. Emanuele iii^ 9 98061",
      "brand": "Pompe Bianche",
      "lat": 38.156696836630466,
      "lng": 14.823925409648155,
      "fuels": {
        "sp95": 1.949,
        "gazole": 2.099
      }
    },
    {
      "id": "61503",
      "cp": "",
      "ville": "Capizzi",
      "adresse": "sp168",
      "brand": "Iblea Petroli",
      "lat": 37.8485682,
      "lng": 14.4772169,
      "fuels": {
        "sp95": 2.039,
        "gazole": 2.199
      }
    },
    {
      "id": "60733",
      "cp": "",
      "ville": "Capo D'Orlando",
      "adresse": "Consolare Antica 199/B 98071",
      "brand": "Pompe Bianche",
      "lat": 38.148582315435974,
      "lng": 14.738029603670103,
      "fuels": {
        "sp95": 1.969,
        "gazole": 2.079,
        "gplc": 0.829
      }
    },
    {
      "id": "47778",
      "cp": "",
      "ville": "Capo D'Orlando",
      "adresse": "Consolare Antica C/Da Vina 622/A 98071",
      "brand": "q8",
      "lat": 38.134354396477754,
      "lng": 14.727436976686471,
      "fuels": {
        "sp95": 1.979,
        "gazole": 2.089
      }
    },
    {
      "id": "24854",
      "cp": "",
      "ville": "Capo D'Orlando",
      "adresse": "Contrada Vina  98071",
      "brand": "Agip Eni",
      "lat": 38.13049482020387,
      "lng": 14.724364578723907,
      "fuels": {
        "sp95": 1.949,
        "gazole": 2.079
      }
    },
    {
      "id": "9577",
      "cp": "",
      "ville": "Capo D'Orlando",
      "adresse": "Via Piave 19 98071",
      "brand": "Esso",
      "lat": 38.1620816853765,
      "lng": 14.74711654775092,
      "fuels": {
        "sp95": 1.949,
        "gazole": 2.149
      }
    },
    {
      "id": "53477",
      "cp": "",
      "ville": "Capo D'Orlando",
      "adresse": "Via Quadrivio is.113-s.martino  98071",
      "brand": "Esso",
      "lat": 38.14966692872937,
      "lng": 14.763440924511734,
      "fuels": {
        "sp95": 1.949,
        "gazole": 2.149
      }
    },
    {
      "id": "28926",
      "cp": "",
      "ville": "Capri Leone",
      "adresse": "Statale 113 Settentrionale sicula, km. 112+581, dir. Me-Pa - 98070",
      "brand": "q8",
      "lat": 38.10788157581514,
      "lng": 14.705917500015403,
      "fuels": {
        "sp95": 1.989,
        "gazole": 2.099
      }
    },
    {
      "id": "18986",
      "cp": "",
      "ville": "Caronia",
      "adresse": "Statale 113 Dir Settentrionale sicula, km. 138,753, dir. Me-Pa - 98070",
      "brand": "Api-Ip",
      "lat": 38.03284584547268,
      "lng": 14.479455177909813,
      "fuels": {
        "sp95": 1.969,
        "gazole": 2.129,
        "gplc": 0.916
      }
    },
    {
      "id": "60978",
      "cp": "",
      "ville": "Castell'Umberto",
      "adresse": "ss.116 Randazzo-Capo D'Orlando km46+600 98070",
      "brand": "Petrol Company",
      "lat": 38.0895232,
      "lng": 14.8078592,
      "fuels": {
        "sp95": 1.909,
        "gazole": 2.099
      }
    },
    {
      "id": "54981",
      "cp": "",
      "ville": "Castroreale",
      "adresse": "Via Cesare Battisti Snc 98053",
      "brand": "Pompe Bianche",
      "lat": 38.100162,
      "lng": 15.210717,
      "fuels": {
        "sp95": 1.939,
        "gazole": 2.079
      }
    },
    {
      "id": "60967",
      "cp": "",
      "ville": "Cesarò",
      "adresse": "289 Km 52+380 Snc 98033",
      "brand": "Petrol Company",
      "lat": 37.84255175910469,
      "lng": 14.709466270677922,
      "fuels": {
        "sp95": 1.899,
        "gazole": 2.099
      }
    },
    {
      "id": "46492",
      "cp": "",
      "ville": "Falcone",
      "adresse": "s.s. 113 Km 60+524 sn, Falcone (me)  98060",
      "brand": "q8",
      "lat": 38.116519160056654,
      "lng": 15.07605791091919,
      "fuels": {
        "sp95": 1.959,
        "gazole": 2.099
      }
    },
    {
      "id": "9967",
      "cp": "",
      "ville": "Falcone",
      "adresse": "s.s. 113 km. 60+ 023  98060",
      "brand": "q8",
      "lat": 38.11651938905595,
      "lng": 15.086095206745881,
      "fuels": {
        "sp95": 1.939,
        "gazole": 2.049
      }
    },
    {
      "id": "57755",
      "cp": "",
      "ville": "Ficarra",
      "adresse": "Via Logge 3 98062",
      "brand": "q8",
      "lat": 38.11081,
      "lng": 14.82643,
      "fuels": {
        "sp95": 1.999,
        "gazole": 2.149
      }
    },
    {
      "id": "40882",
      "cp": "",
      "ville": "Fiumedinisi",
      "adresse": "Via d. Alighieri  98022",
      "brand": "Api-Ip",
      "lat": 38.02212703628419,
      "lng": 15.382789894938469,
      "fuels": {
        "sp95": 1.959,
        "gazole": 2.099
      }
    },
    {
      "id": "62403",
      "cp": "",
      "ville": "Floresta",
      "adresse": "s.s. 116 Km 20 + 035 Snc 98030",
      "brand": "Petrol Company",
      "lat": 37.98943967131685,
      "lng": 14.917346705522533,
      "fuels": {
        "sp95": 1.889,
        "gazole": 2.099
      }
    },
    {
      "id": "60003",
      "cp": "",
      "ville": "Forza D'Agrò",
      "adresse": "Strada Provinciale 12  Sn 98030",
      "brand": "Sicilpetroli",
      "lat": 37.940236,
      "lng": 15.30499,
      "fuels": {
        "sp95": 1.899,
        "gazole": 2.099
      }
    },
    {
      "id": "43881",
      "cp": "",
      "ville": "Francavilla Di Sicilia",
      "adresse": "185 Di Sella mandrazzi, km. 49+710, Giardini Naxos - 98034",
      "brand": "Api-Ip",
      "lat": 37.9015509417781,
      "lng": 15.13421323619366,
      "fuels": {
        "sp95": 1.899,
        "gazole": 2.019
      }
    },
    {
      "id": "53755",
      "cp": "",
      "ville": "Francavilla Di Sicilia",
      "adresse": "Via Regina Elena 67 98034",
      "brand": "Dbcarburanti",
      "lat": 37.90374297801878,
      "lng": 15.141318632519308,
      "fuels": {
        "sp95": 1.919,
        "gazole": 2.059
      }
    },
    {
      "id": "7251",
      "cp": "",
      "ville": "Furci Siculo",
      "adresse": "Statale 114 Orientale sicula, km. 22, dir. Messina - 98023",
      "brand": "Pompe Bianche",
      "lat": 37.964713296803396,
      "lng": 15.384607762098312,
      "fuels": {
        "sp95": 1.959,
        "gazole": 2.129
      }
    },
    {
      "id": "62465",
      "cp": "",
      "ville": "Furnari",
      "adresse": "Contrada s. Filippo Sn 98054",
      "brand": "Sicilpetroli",
      "lat": 38.11056758931849,
      "lng": 15.10444184313051,
      "fuels": {
        "sp95": 1.889,
        "gazole": 2.049
      }
    },
    {
      "id": "61578",
      "cp": "",
      "ville": "Furnari",
      "adresse": "Nuova Russo Snc 98054",
      "brand": "Esso",
      "lat": 38.10221,
      "lng": 15.1217273,
      "fuels": {
        "sp95": 1.969,
        "gazole": 2.199
      }
    },
    {
      "id": "60379",
      "cp": "",
      "ville": "Gaggi",
      "adresse": "ss185 Km 62+207  98030",
      "brand": "Pompe Bianche",
      "lat": 37.85661,
      "lng": 15.223,
      "fuels": {
        "sp95": 1.897,
        "gazole": 2.117
      }
    },
    {
      "id": "41102",
      "cp": "",
      "ville": "Galati Mamertino",
      "adresse": "Localita' Contura Snc 98070",
      "brand": "Dbcarburanti",
      "lat": 38.01074040395549,
      "lng": 14.778431877493858,
      "fuels": {
        "sp95": 2.039,
        "gazole": 2.069
      }
    },
    {
      "id": "59787",
      "cp": "",
      "ville": "Giardini-Naxos",
      "adresse": "Contrada Recanati  25",
      "brand": "Agip Eni",
      "lat": 37.81953,
      "lng": 15.26288,
      "fuels": {
        "sp95": 1.949,
        "gazole": 2.079
      }
    },
    {
      "id": "57614",
      "cp": "",
      "ville": "Giardini-Naxos",
      "adresse": "Iv Novembre Snc 98035",
      "brand": "Esso",
      "lat": 37.8361018,
      "lng": 15.2730989,
      "fuels": {
        "sp95": 1.969,
        "gazole": 2.199
      }
    },
    {
      "id": "7427",
      "cp": "",
      "ville": "Giardini-Naxos",
      "adresse": "Via Consolare Valeria  98035",
      "brand": "Esso",
      "lat": 37.8235593,
      "lng": 15.265488,
      "fuels": {
        "sp95": 1.976,
        "gazole": 2.206
      }
    },
    {
      "id": "54156",
      "cp": "",
      "ville": "Giardini-Naxos",
      "adresse": "Via Naxos  98035",
      "brand": "Sepa",
      "lat": 37.82547677853736,
      "lng": 15.269443880527112,
      "fuels": {
        "sp95": 1.949,
        "gazole": 2.099
      }
    },
    {
      "id": "61537",
      "cp": "",
      "ville": "Gioiosa Marea",
      "adresse": "ss113",
      "brand": "Iblea Petroli",
      "lat": 38.1727584,
      "lng": 14.9395214,
      "fuels": {
        "sp95": 1.949,
        "gazole": 2.099
      }
    },
    {
      "id": "62264",
      "cp": "",
      "ville": "Letojanni",
      "adresse": "Statale 114 Km 43 800 Sn 98037",
      "brand": "q8",
      "lat": 37.8781094,
      "lng": 15.3030161,
      "fuels": {
        "sp95": 1.969,
        "gazole": 2.099
      }
    },
    {
      "id": "30193",
      "cp": "",
      "ville": "Librizzi",
      "adresse": "Via c.a. Dalla Chiesa Snc 98064",
      "brand": "Pompe Bianche",
      "lat": 38.09447788107565,
      "lng": 14.978140443563461,
      "fuels": {
        "sp95": 1.899,
        "gazole": 2.069
      }
    },
    {
      "id": "57033",
      "cp": "",
      "ville": "Lipari",
      "adresse": "f. Crispi  98055",
      "brand": "Agip Eni",
      "lat": 38.47568017466987,
      "lng": 14.955801665782928,
      "fuels": {
        "sp95": 2.138,
        "gazole": 2.255
      }
    },
    {
      "id": "51667",
      "cp": "",
      "ville": "Lipari",
      "adresse": "Porto Ponente- Vulcano -  98050",
      "brand": "Api-Ip",
      "lat": 38.41237254730733,
      "lng": 14.949945352409086,
      "fuels": {
        "sp95": 2.129,
        "gazole": 2.279
      }
    },
    {
      "id": "39387",
      "cp": "",
      "ville": "Lipari",
      "adresse": "Sp Canneto-Lipari c.da s. Vinc Snc 98055",
      "brand": "Pompe Bianche",
      "lat": 38.48321165136625,
      "lng": 14.963415786623955,
      "fuels": {
        "sp95": 2.138,
        "gazole": 2.255,
        "gplc": 0.991
      }
    },
    {
      "id": "37410",
      "cp": "",
      "ville": "Lipari",
      "adresse": "Via Marina Isola Di Stromboli Snc 98055",
      "brand": "Pompe Bianche",
      "lat": 38.79827836338508,
      "lng": 15.239385589957237,
      "fuels": {
        "sp95": 2.272,
        "gazole": 2.286
      }
    },
    {
      "id": "47158",
      "cp": "",
      "ville": "Lipari",
      "adresse": "Via Porto - Strada Provinciale Filicudi   98055",
      "brand": "Pompe Bianche",
      "lat": 38.55892169720377,
      "lng": 14.583575427532196,
      "fuels": {
        "sp95": 2.157,
        "gazole": 2.307
      }
    },
    {
      "id": "59954",
      "cp": "",
      "ville": "Longi",
      "adresse": "Piazza Degli eroi, longi, Me  98070",
      "brand": "Sepa",
      "lat": 38.024729,
      "lng": 14.752779,
      "fuels": {
        "sp95": 1.999,
        "gazole": 2.199
      }
    },
    {
      "id": "49952",
      "cp": "",
      "ville": "Malfa",
      "adresse": "Via Roma Sn 98050",
      "brand": "Petrol Company",
      "lat": 38.577343858685666,
      "lng": 14.835143936176282,
      "fuels": {
        "sp95": 2.029,
        "gazole": 2.179
      }
    },
    {
      "id": "41040",
      "cp": "",
      "ville": "Merì",
      "adresse": "Statale 113 Km 41,780 Snc 98040",
      "brand": "Api-Ip",
      "lat": 38.163906450006166,
      "lng": 15.246729478240013,
      "fuels": {
        "sp95": 1.919,
        "gazole": 2.019
      }
    },
    {
      "id": "45502",
      "cp": "",
      "ville": "Messina",
      "adresse": "114 Orientale sicula, km. 12, Catania - 98125",
      "brand": "q8",
      "lat": 38.086731172558316,
      "lng": 15.499307811260223,
      "fuels": {
        "sp95": 1.959,
        "gazole": 2.129
      }
    },
    {
      "id": "46072",
      "cp": "",
      "ville": "Messina",
      "adresse": "114 Orientale sicula, km. 13.376, Messina/Catania/Messina - 98020",
      "brand": "q8",
      "lat": 38.077924356698986,
      "lng": 15.494040548801422,
      "fuels": {
        "sp95": 1.999,
        "gazole": 2.099
      }
    },
    {
      "id": "7907",
      "cp": "",
      "ville": "Messina",
      "adresse": "114 Orientale sicula, km. 15,300, Messina - 98141",
      "brand": "Agip Eni",
      "lat": 38.06431606860575,
      "lng": 15.480463238285687,
      "fuels": {
        "sp95": 1.944,
        "gazole": 2.074
      }
    },
    {
      "id": "3986",
      "cp": "",
      "ville": "Messina",
      "adresse": "Autostrada a18 Messina-catania, km. 0, dir. Nord - 98128",
      "brand": "Esso",
      "lat": 38.13374981345842,
      "lng": 15.521857738494873,
      "fuels": {
        "sp95": 1.979,
        "gazole": 2.189,
        "gplc": 0.799
      }
    },
    {
      "id": "61608",
      "cp": "",
      "ville": "Messina",
      "adresse": "Autostrada a20 Messina-palermo,  km. 1500, dir. Catania 98128",
      "brand": "Agip Eni",
      "lat": 38.1485056,
      "lng": 15.515648,
      "fuels": {
        "sp95": 1.999,
        "gazole": 2.119,
        "gplc": 0.799
      }
    },
    {
      "id": "48884",
      "cp": "",
      "ville": "Messina",
      "adresse": "Della Liberta' Sn 98121",
      "brand": "Agip Eni",
      "lat": 38.21209346818533,
      "lng": 15.561857231646012,
      "fuels": {
        "sp95": 1.949,
        "gazole": 2.079
      }
    },
    {
      "id": "55921",
      "cp": "",
      "ville": "Messina",
      "adresse": "Fornace Sn 98126",
      "brand": "Pompe Bianche",
      "lat": 38.1568,
      "lng": 15.51378,
      "fuels": {
        "e85": 1.699
      }
    },
    {
      "id": "46200",
      "cp": "",
      "ville": "Messina",
      "adresse": "Garibaldi ang. Via Cavour Snc 98122",
      "brand": "Agip Eni",
      "lat": 38.19838581083106,
      "lng": 15.557209253311157,
      "fuels": {
        "sp95": 1.949,
        "gazole": 2.079
      }
    },
    {
      "id": "16439",
      "cp": "",
      "ville": "Messina",
      "adresse": "Giostra Sn 98121",
      "brand": "Agip Eni",
      "lat": 38.2113687672704,
      "lng": 15.547704845666885,
      "fuels": {
        "sp95": 1.949,
        "gazole": 2.079
      }
    },
    {
      "id": "57675",
      "cp": "",
      "ville": "Messina",
      "adresse": "Giuseppe Arena 12 98166",
      "brand": "q8",
      "lat": 38.2554564,
      "lng": 15.6020717,
      "fuels": {
        "sp95": 1.959,
        "gazole": 2.099
      }
    },
    {
      "id": "59236",
      "cp": "",
      "ville": "Messina",
      "adresse": "Località Torre Faro Sn 98164",
      "brand": "Dbcarburanti",
      "lat": 38.26400655527166,
      "lng": 15.626321489010623,
      "fuels": {
        "sp95": 1.959,
        "gazole": 2.099
      }
    },
    {
      "id": "46933",
      "cp": "",
      "ville": "Messina",
      "adresse": "Piazza Acquedotto Ritiro s.n. 98100",
      "brand": "q8",
      "lat": 38.21389478877946,
      "lng": 15.538191795349121,
      "fuels": {
        "sp95": 1.959,
        "gazole": 2.129
      }
    },
    {
      "id": "46480",
      "cp": "",
      "ville": "Messina",
      "adresse": "Piazza Natale Masuccio  98123",
      "brand": "Esso",
      "lat": 38.189065052641396,
      "lng": 15.55154675381823,
      "fuels": {
        "sp95": 1.999,
        "gazole": 2.199
      }
    },
    {
      "id": "56179",
      "cp": "",
      "ville": "Messina",
      "adresse": "Rosso Da Messina Snc 98147",
      "brand": "Pompe Bianche",
      "lat": 38.1676891,
      "lng": 15.5339288,
      "fuels": {
        "sp95": 2.371,
        "gazole": 2.365
      }
    },
    {
      "id": "62937",
      "cp": "",
      "ville": "Messina",
      "adresse": "s.s. 114 Km 5,600  98121",
      "brand": "Esso",
      "lat": 38.14138785991873,
      "lng": 15.52401745064155,
      "fuels": {
        "sp95": 1.979,
        "gazole": 2.199
      }
    },
    {
      "id": "24758",
      "cp": "",
      "ville": "Messina",
      "adresse": "s.s.114 Km 3+800-loc.contesse  98125",
      "brand": "q8",
      "lat": 38.15539531622085,
      "lng": 15.531795546032754,
      "fuels": {
        "sp95": 1.959,
        "gazole": 2.099
      }
    },
    {
      "id": "25439",
      "cp": "",
      "ville": "Messina",
      "adresse": "Statale 114 Orientale sicula, km. 3.570, dir. Catania - 98128",
      "brand": "Agip Eni",
      "lat": 38.15802226051311,
      "lng": 15.53392231464386,
      "fuels": {
        "sp95": 1.949,
        "gazole": 2.079
      }
    },
    {
      "id": "21873",
      "cp": "",
      "ville": "Messina",
      "adresse": "Statale 114 Orientale sicula, km. 4,260, dir. Catania - 98123",
      "brand": "Api-Ip",
      "lat": 38.152685306928234,
      "lng": 15.530312061309814,
      "fuels": {
        "sp95": 1.969,
        "gazole": 2.129
      }
    },
    {
      "id": "6039",
      "cp": "",
      "ville": "Messina",
      "adresse": "Statale 114 Orientale sicula, km. 4,500, dir. Messina - 98125",
      "brand": "Esso",
      "lat": 38.150856409799474,
      "lng": 15.529805123806,
      "fuels": {
        "sp95": 1.979,
        "gazole": 2.189
      }
    },
    {
      "id": "36187",
      "cp": "",
      "ville": "Messina",
      "adresse": "Statale 114 Orientale sicula, km. 6,913, dir. Me-Ct - 98131",
      "brand": "Api-Ip",
      "lat": 38.130276767618064,
      "lng": 15.521085262298584,
      "fuels": {
        "sp95": 1.969,
        "gazole": 2.129
      }
    },
    {
      "id": "23075",
      "cp": "",
      "ville": "Messina",
      "adresse": "Statale 114 Orientale sicula, km. 9,300, dir. Messina  98134",
      "brand": "Dbcarburanti",
      "lat": 38.11113739806819,
      "lng": 15.51014855504036,
      "fuels": {
        "sp95": 1.999,
        "gazole": 2.099
      }
    },
    {
      "id": "43072",
      "cp": "",
      "ville": "Messina",
      "adresse": "Strada statale, km. 1020, Nord - 98168",
      "brand": "Esso",
      "lat": 38.225351839352605,
      "lng": 15.564415999999937,
      "fuels": {
        "sp95": 1.979,
        "gazole": 2.199
      }
    },
    {
      "id": "45223",
      "cp": "",
      "ville": "Messina",
      "adresse": "Svincolo Autostradale San Filippo  98126",
      "brand": "Agip Eni",
      "lat": 38.15652822361536,
      "lng": 15.52306451104505,
      "fuels": {
        "sp95": 1.949,
        "gazole": 2.079
      }
    },
    {
      "id": "18681",
      "cp": "",
      "ville": "Messina",
      "adresse": "t. Cannizzaro  98100",
      "brand": "Agip Eni",
      "lat": 38.189837664732934,
      "lng": 15.549742544362289,
      "fuels": {
        "sp95": 1.979,
        "gazole": 2.124
      }
    },
    {
      "id": "15595",
      "cp": "",
      "ville": "Messina",
      "adresse": "Umberto Bonino 1 98124",
      "brand": "Agip Eni",
      "lat": 38.1657249118736,
      "lng": 15.541940778493881,
      "fuels": {
        "sp95": 1.949,
        "gazole": 2.079
      }
    },
    {
      "id": "22443",
      "cp": "",
      "ville": "Messina",
      "adresse": "v.le Europa is.43, 98100",
      "brand": "Agip Eni",
      "lat": 38.18155032266277,
      "lng": 15.545831153506015,
      "fuels": {
        "sp95": 1.949,
        "gazole": 2.079
      }
    },
    {
      "id": "22529",
      "cp": "",
      "ville": "Messina",
      "adresse": "Via c.pompea, 98100",
      "brand": "Agip Eni",
      "lat": 38.250837726152504,
      "lng": 15.592132656869467,
      "fuels": {
        "sp95": 1.949,
        "gazole": 2.079
      }
    },
    {
      "id": "53270",
      "cp": "",
      "ville": "Messina",
      "adresse": "Via Catania 51 98124",
      "brand": "Agip Eni",
      "lat": 38.175863,
      "lng": 15.545566,
      "fuels": {
        "sp95": 1.979,
        "gazole": 2.124
      }
    },
    {
      "id": "34388",
      "cp": "",
      "ville": "Messina",
      "adresse": "Via Catania ang. Via Lucania Snc 98124",
      "brand": "Agip Eni",
      "lat": 38.175872711645475,
      "lng": 15.545554049313068,
      "fuels": {
        "sp95": 1.979,
        "gazole": 2.124
      }
    },
    {
      "id": "44148",
      "cp": "",
      "ville": "Messina",
      "adresse": "Via Comunale tang. Gazzi   98100",
      "brand": "q8",
      "lat": 38.16498661464653,
      "lng": 15.538940795469557,
      "fuels": {
        "sp95": 1.929,
        "gazole": 2.129
      }
    },
    {
      "id": "54829",
      "cp": "",
      "ville": "Messina",
      "adresse": "Via Concezione Snc 98121",
      "brand": "Api-Ip",
      "lat": 38.20068,
      "lng": 15.5559,
      "fuels": {
        "sp95": 1.969,
        "gazole": 2.099
      }
    },
    {
      "id": "9248",
      "cp": "",
      "ville": "Messina",
      "adresse": "Via Consolare Pompea  38 98100",
      "brand": "Bn Petroli",
      "lat": 38.258082385469166,
      "lng": 15.60711419673919,
      "fuels": {
        "sp95": 1.949,
        "gazole": 2.099
      }
    },
    {
      "id": "11407",
      "cp": "",
      "ville": "Messina",
      "adresse": "Via Consolare Pompea Località Paradiso  98100",
      "brand": "Api-Ip",
      "lat": 38.22612653762879,
      "lng": 15.568300187587738,
      "fuels": {
        "sp95": 1.969,
        "gazole": 2.099
      }
    },
    {
      "id": "43320",
      "cp": "",
      "ville": "Messina",
      "adresse": "Via Consolare Pompea Paradiso  98168",
      "brand": "Petrol Company",
      "lat": 38.2212343343361,
      "lng": 15.565836317837238,
      "fuels": {
        "sp95": 1.949,
        "gazole": 2.109
      }
    },
    {
      "id": "46656",
      "cp": "",
      "ville": "Messina",
      "adresse": "Via Consolore Pompea Granatari Snc 98164",
      "brand": "Agip Eni",
      "lat": 38.26560161068764,
      "lng": 15.630700513720512,
      "fuels": {
        "sp95": 1.944,
        "gazole": 2.074,
        "gplc": 0.799
      }
    },
    {
      "id": "51874",
      "cp": "",
      "ville": "Messina",
      "adresse": "Via Enrico fermi, z.i.r. Snc 98124",
      "brand": "Api-Ip",
      "lat": 38.161877683962594,
      "lng": 15.541808372249273,
      "fuels": {
        "sp95": 1.949,
        "gazole": 2.099
      }
    },
    {
      "id": "17840",
      "cp": "",
      "ville": "Messina",
      "adresse": "Via Fossata 2 98121",
      "brand": "Esso",
      "lat": 38.202104339709315,
      "lng": 15.5580585068451,
      "fuels": {
        "sp95": 1.949,
        "gazole": 2.129
      }
    },
    {
      "id": "28595",
      "cp": "",
      "ville": "Messina",
      "adresse": "Via Fratelli Di Mari Sn 98121",
      "brand": "Agip Eni",
      "lat": 38.20400857214422,
      "lng": 15.554344654083252,
      "fuels": {
        "sp95": 1.949,
        "gazole": 2.079
      }
    },
    {
      "id": "62500",
      "cp": "",
      "ville": "Messina",
      "adresse": "Via Leonardo Sciascia  Sn 98168",
      "brand": "q8",
      "lat": 38.21438256476449,
      "lng": 15.556974350015262,
      "fuels": {
        "sp95": 1.969,
        "gazole": 2.099
      }
    },
    {
      "id": "33127",
      "cp": "",
      "ville": "Messina",
      "adresse": "Via Luigi Rizzo   98123",
      "brand": "Api-Ip",
      "lat": 38.1877157879704,
      "lng": 15.560038983821869,
      "fuels": {
        "sp95": 1.969,
        "gazole": 2.099
      }
    },
    {
      "id": "60588",
      "cp": "",
      "ville": "Messina",
      "adresse": "Via Nuova Panoramica  98168",
      "brand": "Api-Ip",
      "lat": 38.25358700068636,
      "lng": 15.594537796463332,
      "fuels": {
        "sp95": 1.969,
        "gazole": 2.099,
        "e85": 1.759
      }
    },
    {
      "id": "42024",
      "cp": "",
      "ville": "Messina",
      "adresse": "Via Regina Elena 87 98158",
      "brand": "q8",
      "lat": 38.2088125316518,
      "lng": 15.558527559041977,
      "fuels": {
        "sp95": 1.959,
        "gazole": 2.149
      }
    },
    {
      "id": "55010",
      "cp": "",
      "ville": "Messina",
      "adresse": "Via s. Raineri 2 98122",
      "brand": "q8",
      "lat": 38.148471,
      "lng": 15.5122121,
      "fuels": {
        "sp95": 1.969,
        "gazole": 2.099,
        "gplc": 0.799
      }
    },
    {
      "id": "38472",
      "cp": "",
      "ville": "Messina",
      "adresse": "Viale Annunziata Alto Snc 98121",
      "brand": "Esso",
      "lat": 38.2236570254167,
      "lng": 15.553221266131573,
      "fuels": {
        "sp95": 1.969,
        "gazole": 2.179
      }
    },
    {
      "id": "45827",
      "cp": "",
      "ville": "Messina",
      "adresse": "Viale Della Libertà 521 98100",
      "brand": "q8",
      "lat": 38.21597584988329,
      "lng": 15.56371034557344,
      "fuels": {
        "sp95": 1.949,
        "gazole": 2.149
      }
    },
    {
      "id": "62923",
      "cp": "",
      "ville": "Messina",
      "adresse": "Viale Della Libertà 76  98121",
      "brand": "Esso",
      "lat": 38.21679904377289,
      "lng": 15.565097486473464,
      "fuels": {
        "sp95": 1.969,
        "gazole": 2.179
      }
    },
    {
      "id": "36923",
      "cp": "",
      "ville": "Messina",
      "adresse": "Viale Della Marina Russa Sn 98149",
      "brand": "Esso",
      "lat": 38.18678628193867,
      "lng": 15.53580790758133,
      "fuels": {
        "sp95": 1.969,
        "gazole": 2.179
      }
    },
    {
      "id": "53135",
      "cp": "",
      "ville": "Messina",
      "adresse": "Viale Europa C/O Ospedale Militare 154 98123",
      "brand": "Esso",
      "lat": 38.1831203,
      "lng": 15.5436577,
      "fuels": {
        "sp95": 1.969,
        "gazole": 2.179
      }
    },
    {
      "id": "59700",
      "cp": "",
      "ville": "Messina",
      "adresse": "Viale Gazzi 2 98147",
      "brand": "Api-Ip",
      "lat": 38.16836,
      "lng": 15.5336,
      "fuels": {
        "sp95": 1.969,
        "gazole": 2.099
      }
    },
    {
      "id": "11071",
      "cp": "",
      "ville": "Messina",
      "adresse": "Viale Gazzi svinc. Autostrada   98147",
      "brand": "Agip Eni",
      "lat": 38.17085339224896,
      "lng": 15.531328618526459,
      "fuels": {
        "sp95": 1.949,
        "gazole": 2.079
      }
    },
    {
      "id": "45691",
      "cp": "",
      "ville": "Messina",
      "adresse": "Viale Giostra San Michele 146 98152",
      "brand": "Pompe Bianche",
      "lat": 38.219385231043,
      "lng": 15.532527545846733,
      "fuels": {
        "sp95": 1.959,
        "gazole": 2.129,
        "gplc": 0.789
      }
    },
    {
      "id": "28551",
      "cp": "",
      "ville": "Messina",
      "adresse": "Viale Principe Umberto  98122",
      "brand": "Agip Eni",
      "lat": 38.19841284975505,
      "lng": 15.547161784995183,
      "fuels": {
        "sp95": 1.949,
        "gazole": 2.079
      }
    },
    {
      "id": "31042",
      "cp": "",
      "ville": "Messina",
      "adresse": "Viale Regina Elena  98100",
      "brand": "Giap",
      "lat": 38.208755388990824,
      "lng": 15.55860609755041,
      "fuels": {
        "sp95": 1.979,
        "gazole": 2.209
      }
    },
    {
      "id": "62367",
      "cp": "",
      "ville": "Messina",
      "adresse": "Viale Regina Elena  98121",
      "brand": "Api-Ip",
      "lat": 38.21538364865632,
      "lng": 15.559791653128757,
      "fuels": {
        "sp95": 1.969,
        "gazole": 2.099
      }
    },
    {
      "id": "33986",
      "cp": "",
      "ville": "Messina",
      "adresse": "Viale s.martino ang. v. Catania Sn 98124",
      "brand": "Api-Ip",
      "lat": 38.17175243399679,
      "lng": 15.543045273935604,
      "fuels": {
        "sp95": 1.949,
        "gazole": 2.099
      }
    },
    {
      "id": "11070",
      "cp": "",
      "ville": "Messina",
      "adresse": "Zaera  98100",
      "brand": "Agip Eni",
      "lat": 38.1809861409633,
      "lng": 15.548142045736313,
      "fuels": {
        "sp95": 1.949,
        "gazole": 2.079
      }
    },
    {
      "id": "46081",
      "cp": "",
      "ville": "Milazzo",
      "adresse": "Asse Viario - Corso Sicilia  98057",
      "brand": "Esso",
      "lat": 38.211646071150625,
      "lng": 15.236922675323513,
      "fuels": {
        "sp95": 1.979,
        "gazole": 2.189
      }
    },
    {
      "id": "58689",
      "cp": "",
      "ville": "Milazzo",
      "adresse": "Autostrada a20 Messina-palermo,  km. 31,500, dir. Messina 98057",
      "brand": "q8",
      "lat": 38.18179552872611,
      "lng": 15.253677499152065,
      "fuels": {
        "sp95": 2.079,
        "gazole": 2.199,
        "gplc": 0.799
      }
    },
    {
      "id": "9251",
      "cp": "",
      "ville": "Milazzo",
      "adresse": "c.da Bombolo Bozzello Asse Viario  98057",
      "brand": "Bn Petroli",
      "lat": 38.1922937852014,
      "lng": 15.258883237838745,
      "fuels": {
        "sp95": 1.949,
        "gazole": 2.079
      }
    },
    {
      "id": "62104",
      "cp": "",
      "ville": "Milazzo",
      "adresse": "Contrada s. Pietro Di Spadafora   Snc 98057",
      "brand": "Dbcarburanti",
      "lat": 38.19665047862419,
      "lng": 15.241752901603949,
      "fuels": {
        "sp95": 1.959,
        "gazole": 2.099
      }
    },
    {
      "id": "34844",
      "cp": "",
      "ville": "Milazzo",
      "adresse": "Nuovo Asse Viario c.da Barone Est   98057",
      "brand": "Api-Ip",
      "lat": 38.20121410817978,
      "lng": 15.247047990560532,
      "fuels": {
        "sp95": 1.959,
        "gazole": 2.089,
        "gplc": 0.799
      }
    },
    {
      "id": "57379",
      "cp": "",
      "ville": "Milazzo",
      "adresse": "Nuovo Asse Viario c.da Barone Ovest 98057 - Milazzo Me",
      "brand": "Agip Eni",
      "lat": 38.1971698,
      "lng": 15.2527788,
      "fuels": {
        "sp95": 1.949,
        "gazole": 2.079
      }
    },
    {
      "id": "26826",
      "cp": "",
      "ville": "Milazzo",
      "adresse": "s.giovanni c.sicilia a.v. Sn 98057",
      "brand": "q8",
      "lat": 38.21105538084856,
      "lng": 15.237445011734962,
      "fuels": {
        "sp95": 1.959,
        "gazole": 2.099
      }
    },
    {
      "id": "8746",
      "cp": "",
      "ville": "Milazzo",
      "adresse": "Via Acqueviole  98057",
      "brand": "Esso",
      "lat": 38.20904246796854,
      "lng": 15.251737833023071,
      "fuels": {
        "sp95": 1.979,
        "gazole": 2.189
      }
    },
    {
      "id": "24081",
      "cp": "",
      "ville": "Milazzo",
      "adresse": "Via Acqueviole 3 98057",
      "brand": "Agip Eni",
      "lat": 38.21244147850145,
      "lng": 15.245465487241745,
      "fuels": {
        "sp95": 1.949,
        "gazole": 2.079
      }
    },
    {
      "id": "9240",
      "cp": "",
      "ville": "Milazzo",
      "adresse": "Via Provinciale 1 98057",
      "brand": "Bn Petroli",
      "lat": 38.1785256286626,
      "lng": 15.262042283765823,
      "fuels": {
        "sp95": 1.949,
        "gazole": 2.079
      }
    },
    {
      "id": "8514",
      "cp": "",
      "ville": "Milazzo",
      "adresse": "Viale a. Gramsci 156-158 98057",
      "brand": "Agip Eni",
      "lat": 38.2035765,
      "lng": 15.2539126,
      "fuels": {
        "sp95": 1.949,
        "gazole": 2.079
      }
    },
    {
      "id": "61558",
      "cp": "",
      "ville": "Mirto",
      "adresse": "Contrada Tiberio Strada Comunale Zappulla",
      "brand": "Iblea Petroli",
      "lat": 38.0843322,
      "lng": 14.750536,
      "fuels": {
        "sp95": 2.019,
        "gazole": 2.199
      }
    },
    {
      "id": "46779",
      "cp": "",
      "ville": "Mirto",
      "adresse": "Sp 157 Km 8+200 Rocca Di Caprileone \\ Longi  98070",
      "brand": "q8",
      "lat": 38.084763000123,
      "lng": 14.747165000123,
      "fuels": {
        "sp95": 1.949,
        "gazole": 2.125
      }
    },
    {
      "id": "46280",
      "cp": "",
      "ville": "Mistretta",
      "adresse": "Buonconsiglio ss117 km16 Snc 98073",
      "brand": "Agip Eni",
      "lat": 37.92821684175423,
      "lng": 14.363871894512158,
      "fuels": {
        "sp95": 1.909,
        "gazole": 2.024
      }
    },
    {
      "id": "58762",
      "cp": "",
      "ville": "Mistretta",
      "adresse": "g. Verga s.p. 174 Km 2+700 Sn 98073",
      "brand": "Pompe Bianche",
      "lat": 37.9241044,
      "lng": 14.3653824,
      "fuels": {
        "sp95": 1.919,
        "gazole": 2.149
      }
    },
    {
      "id": "13322",
      "cp": "",
      "ville": "Mistretta",
      "adresse": "Via Nazionale Sn 98073",
      "brand": "Pompe Bianche",
      "lat": 37.92972355047336,
      "lng": 14.357323050498962,
      "fuels": {
        "sp95": 1.933,
        "gazole": 2.163
      }
    },
    {
      "id": "12062",
      "cp": "",
      "ville": "Moio Alcantara",
      "adresse": "Viale Europa 62 98030",
      "brand": "Agip Eni",
      "lat": 37.900753751159876,
      "lng": 15.052506116567656,
      "fuels": {
        "sp95": 1.979,
        "gazole": 2.199
      }
    },
    {
      "id": "39264",
      "cp": "",
      "ville": "Monforte San Giorgio",
      "adresse": "Statale 113 Settentrionale sicula, km. 31,442, dir. Messina  98041",
      "brand": "Api-Ip",
      "lat": 38.20694094701433,
      "lng": 15.338904106970631,
      "fuels": {
        "sp95": 1.969,
        "gazole": 2.099
      }
    },
    {
      "id": "60477",
      "cp": "",
      "ville": "Mongiuffi Melia",
      "adresse": "Via Umberto I  98030",
      "brand": "Nobile Oil",
      "lat": 37.90462309999999,
      "lng": 15.2753993,
      "fuels": {
        "sp95": 1.959,
        "gazole": 2.159
      }
    },
    {
      "id": "58901",
      "cp": "",
      "ville": "Montagnareale",
      "adresse": "sp128 Sn 98060",
      "brand": "Pompe Bianche",
      "lat": 38.13464777678145,
      "lng": 14.950553648410017,
      "fuels": {
        "sp95": 1.938,
        "gazole": 2.068
      }
    },
    {
      "id": "43568",
      "cp": "",
      "ville": "Montalbano Elicona",
      "adresse": "Via Provinciale  132 98065",
      "brand": "q8",
      "lat": 38.02597922572127,
      "lng": 15.017220457672124,
      "fuels": {
        "sp95": 2.019,
        "gazole": 2.139
      }
    },
    {
      "id": "30947",
      "cp": "",
      "ville": "Motta Camastra",
      "adresse": "s.s.185 km.50+060 Sn 98030",
      "brand": "Api-Ip",
      "lat": 37.884272264710496,
      "lng": 15.17075389623642,
      "fuels": {
        "sp95": 2.027,
        "gazole": 2.147,
        "gplc": 0.799
      }
    },
    {
      "id": "61557",
      "cp": "",
      "ville": "Motta Camastra",
      "adresse": "ss. 185 Km 54+935",
      "brand": "Iblea Petroli",
      "lat": 37.8768392,
      "lng": 15.1779956,
      "fuels": {
        "sp95": 1.899,
        "gazole": 2.059
      }
    },
    {
      "id": "49794",
      "cp": "",
      "ville": "Naso",
      "adresse": "p.zza Giovanni xxiii, c.da Bazia  98074",
      "brand": "Giap",
      "lat": 38.12059407009444,
      "lng": 14.78638043821745,
      "fuels": {
        "sp95": 1.999,
        "gazole": 2.199
      }
    },
    {
      "id": "43678",
      "cp": "",
      "ville": "Naso",
      "adresse": "s.s.113 Km 98+503 Km 98+0.50 Snc 98074",
      "brand": "q8",
      "lat": 38.14906582739128,
      "lng": 14.803672134876251,
      "fuels": {
        "sp95": 1.979,
        "gazole": 2.139
      }
    },
    {
      "id": "4352",
      "cp": "",
      "ville": "Nizza Di Sicilia",
      "adresse": "Via Umberto I 140 98026",
      "brand": "Esso",
      "lat": 37.987721034851624,
      "lng": 15.406519635813197,
      "fuels": {
        "sp95": 1.986,
        "gazole": 2.189
      }
    },
    {
      "id": "63310",
      "cp": "",
      "ville": "Pace Del Mela",
      "adresse": "Ss 113 Settentrionale Sicula Km 34+686  98042",
      "brand": "Aloil",
      "lat": 38.19927,
      "lng": 15.30211,
      "fuels": {
        "sp95": 1.929,
        "gazole": 2.089
      }
    },
    {
      "id": "54148",
      "cp": "",
      "ville": "Pace Del Mela",
      "adresse": "Strada Statale 149 98042",
      "brand": "Agip Eni",
      "lat": 37.634048,
      "lng": 14.8570112,
      "fuels": {
        "sp95": 1.889,
        "gazole": 1.999
      }
    },
    {
      "id": "35306",
      "cp": "",
      "ville": "Pagliara",
      "adresse": "Via Via Regina Margherita s.n. 98020, Pagliara (me)  98020",
      "brand": "Sicilpetroli",
      "lat": 37.984540121925825,
      "lng": 15.361872318533983,
      "fuels": {
        "sp95": 1.899,
        "gazole": 2.099
      }
    },
    {
      "id": "34282",
      "cp": "",
      "ville": "Patti",
      "adresse": "c.colombo Sn 98066",
      "brand": "Agip Eni",
      "lat": 38.15345178676801,
      "lng": 14.966706857085228,
      "fuels": {
        "sp95": 1.944,
        "gazole": 2.074
      }
    },
    {
      "id": "58768",
      "cp": "",
      "ville": "Patti",
      "adresse": "Contrada Moreri Sottani Snc 98066",
      "brand": "Pompe Bianche",
      "lat": 38.13512007093282,
      "lng": 14.995039518737796,
      "fuels": {
        "sp95": 1.959,
        "gazole": 2.129,
        "e85": 1.799
      }
    },
    {
      "id": "5076",
      "cp": "",
      "ville": "Patti",
      "adresse": "Via Papa Giovanni Xxiii  98066",
      "brand": "Agip Eni",
      "lat": 38.1491024,
      "lng": 14.976374,
      "fuels": {
        "sp95": 1.944,
        "gazole": 2.074,
        "gplc": 0.791
      }
    },
    {
      "id": "59828",
      "cp": "",
      "ville": "Patti",
      "adresse": "Via Trieste",
      "brand": "Agip Eni",
      "lat": 38.139484,
      "lng": 14.967955,
      "fuels": {
        "sp95": 1.949,
        "gazole": 2.079
      }
    },
    {
      "id": "61305",
      "cp": "",
      "ville": "Patti",
      "adresse": "Via Trieste 44 98066",
      "brand": "Esso",
      "lat": 38.1407523,
      "lng": 14.9705582,
      "fuels": {
        "sp95": 1.949,
        "gazole": 2.129
      }
    },
    {
      "id": "44981",
      "cp": "",
      "ville": "Pettineo",
      "adresse": "Sp Pettineo-Castel Di Lucio km. 6,270  98070",
      "brand": "Api-Ip",
      "lat": 37.968651228948936,
      "lng": 14.288728897687406,
      "fuels": {
        "sp95": 1.999,
        "gazole": 2.129
      }
    },
    {
      "id": "54464",
      "cp": "",
      "ville": "Piraino",
      "adresse": "Nazionale Ss 113 Km 94,296 Snc 98060",
      "brand": "Esso",
      "lat": 38.16078,
      "lng": 14.84565,
      "fuels": {
        "sp95": 1.969,
        "gazole": 2.179
      }
    },
    {
      "id": "35484",
      "cp": "",
      "ville": "Piraino",
      "adresse": "Statale 113 Settentrionale sicula, km. 89,648, dir. Palermo - 98060",
      "brand": "Api-Ip",
      "lat": 38.17072307595178,
      "lng": 14.89029809832573,
      "fuels": {
        "sp95": 1.959,
        "gazole": 2.099
      }
    },
    {
      "id": "6195",
      "cp": "",
      "ville": "Piraino",
      "adresse": "Via Nazionale 7/A fraz. Gliaca 7/A 98060, Piraino (me)  98060",
      "brand": "Agip Eni",
      "lat": 38.15851701583461,
      "lng": 14.842561483383179,
      "fuels": {
        "sp95": 1.949,
        "gazole": 2.079
      }
    },
    {
      "id": "46934",
      "cp": "",
      "ville": "Raccuja",
      "adresse": "Via Roma Sn 98067",
      "brand": "q8",
      "lat": 38.056352361323384,
      "lng": 14.90925669670105,
      "fuels": {
        "sp95": 1.979,
        "gazole": 2.139
      }
    },
    {
      "id": "49329",
      "cp": "",
      "ville": "Roccalumera",
      "adresse": "114 Orientale sicula, km. 29+732, Catania - 98027",
      "brand": "Agip Eni",
      "lat": 37.96676407418642,
      "lng": 15.386877398156306,
      "fuels": {
        "sp95": 1.909,
        "gazole": 2.024
      }
    },
    {
      "id": "9527",
      "cp": "",
      "ville": "Roccalumera",
      "adresse": "Strada Comunale Roccalumera/Pagliara  98027",
      "brand": "Pompe Bianche",
      "lat": 37.969368762407704,
      "lng": 15.382823733421333,
      "fuels": {
        "sp95": 1.959,
        "gazole": 2.079,
        "gplc": 0.8
      }
    },
    {
      "id": "58674",
      "cp": "",
      "ville": "Rometta",
      "adresse": "Via Nazionale Km 24 + 134",
      "brand": "q8",
      "lat": 38.232023548689014,
      "lng": 15.413014440407892,
      "fuels": {
        "sp95": 1.959,
        "gazole": 2.099
      }
    },
    {
      "id": "43793",
      "cp": "",
      "ville": "Rometta",
      "adresse": "Via s. Cono  98043",
      "brand": "q8",
      "lat": 38.16510657488503,
      "lng": 15.415591739893216,
      "fuels": {
        "sp95": 1.919,
        "gazole": 2.124
      }
    },
    {
      "id": "55920",
      "cp": "",
      "ville": "San Filippo Del Mela",
      "adresse": "Asi Sn 98044",
      "brand": "Pompe Bianche",
      "lat": 38.19654,
      "lng": 15.27699,
      "fuels": {
        "e85": 1.569
      }
    },
    {
      "id": "47716",
      "cp": "",
      "ville": "San Filippo Del Mela",
      "adresse": "Ss 113 Km 37+950  98044",
      "brand": "q8",
      "lat": 38.19068623518559,
      "lng": 15.273320620237735,
      "fuels": {
        "sp95": 1.929,
        "gazole": 2.089
      }
    },
    {
      "id": "47643",
      "cp": "",
      "ville": "San Fratello",
      "adresse": "Via Nazionale s.n. 98075",
      "brand": "q8",
      "lat": 38.026164825842926,
      "lng": 14.596289843320841,
      "fuels": {
        "sp95": 1.999,
        "gazole": 2.159
      }
    },
    {
      "id": "46204",
      "cp": "",
      "ville": "San Marco D'Alunzio",
      "adresse": "Via Farinata  139/A 98070",
      "brand": "q8",
      "lat": 38.07217363777652,
      "lng": 14.70001220703125,
      "fuels": {
        "sp95": 1.959,
        "gazole": 2.14
      }
    },
    {
      "id": "9242",
      "cp": "",
      "ville": "San Pier Niceto",
      "adresse": "Via s.p. Piano Massimo 62 98045",
      "brand": "Bn Petroli",
      "lat": 38.16767743507193,
      "lng": 15.344230000000152,
      "fuels": {
        "sp95": 1.949,
        "gazole": 2.079
      }
    },
    {
      "id": "33449",
      "cp": "",
      "ville": "San Piero Patti",
      "adresse": "Via 2 Giugno 54 98068",
      "brand": "Pompe Bianche",
      "lat": 38.050969053688185,
      "lng": 14.970146229460852,
      "fuels": {
        "sp95": 1.898,
        "gazole": 2.068
      }
    },
    {
      "id": "52972",
      "cp": "",
      "ville": "Sant'Agata Di Militello",
      "adresse": "Medici Snc 98076",
      "brand": "Agip Eni",
      "lat": 38.06713239079209,
      "lng": 14.626658409833908,
      "fuels": {
        "sp95": 1.944,
        "gazole": 2.074
      }
    },
    {
      "id": "51434",
      "cp": "",
      "ville": "Sant'Agata Di Militello",
      "adresse": "s.p.vicinale Papa s.n. 98076",
      "brand": "Pompe Bianche",
      "lat": 38.077077834166126,
      "lng": 14.649914178828691,
      "fuels": {
        "sp95": 1.949,
        "gazole": 2.079,
        "gplc": 0.829
      }
    },
    {
      "id": "25125",
      "cp": "",
      "ville": "Sant'Agata Di Militello",
      "adresse": "Statale 113 Settentrionale sicula, km. 121+138, dir. Palermo-Messina - 98076",
      "brand": "Agip Eni",
      "lat": 38.07025717815299,
      "lng": 14.644497781991959,
      "fuels": {
        "sp95": 1.944,
        "gazole": 2.074
      }
    },
    {
      "id": "50211",
      "cp": "",
      "ville": "Sant'Agata Di Militello",
      "adresse": "Via Medici  (s.s.113 km.121+230) Snc 98076, Sant'Agata Di Militello (me)  98076",
      "brand": "Esso",
      "lat": 38.06997126193195,
      "lng": 14.643554251817525,
      "fuels": {
        "sp95": 1.964,
        "gazole": 2.174
      }
    },
    {
      "id": "6974",
      "cp": "",
      "ville": "Sant'Alessio Siculo",
      "adresse": "c.da Lacco 1 98030",
      "brand": "Pompe Bianche",
      "lat": 37.93109094763015,
      "lng": 15.344323109458855,
      "fuels": {
        "sp95": 1.869,
        "gazole": 1.989,
        "gplc": 0.8
      }
    },
    {
      "id": "49686",
      "cp": "",
      "ville": "Sant'Alessio Siculo",
      "adresse": "Via Consolare Valeria Snc 98030",
      "brand": "Agip Eni",
      "lat": 37.92795819021205,
      "lng": 15.351999832072622,
      "fuels": {
        "sp95": 1.944,
        "gazole": 2.074
      }
    },
    {
      "id": "60623",
      "cp": "",
      "ville": "Sant'Angelo Di Brolo",
      "adresse": "Via s. Carlo Snc 98060",
      "brand": "Esso",
      "lat": 38.11805782913198,
      "lng": 14.882034732431784,
      "fuels": {
        "sp95": 1.949,
        "gazole": 2.099
      }
    },
    {
      "id": "42408",
      "cp": "",
      "ville": "Santa Domenica Vittoria",
      "adresse": "116 Randazzo-Capo D'orlando, km. 116 + 204, Messina  98030",
      "brand": "Pompe Bianche",
      "lat": 37.92142662596967,
      "lng": 14.96079258620739,
      "fuels": {
        "sp95": 1.939,
        "gazole": 2.139
      }
    },
    {
      "id": "56355",
      "cp": "",
      "ville": "Santa Lucia Del Mela",
      "adresse": "Provinciale Per Olivarella Sn 98046",
      "brand": "Sepa",
      "lat": 38.137461,
      "lng": 15.282332,
      "fuels": {
        "sp95": 1.999,
        "gazole": 2.109
      }
    },
    {
      "id": "62225",
      "cp": "",
      "ville": "Santa Marina Salina",
      "adresse": "Pozzo D'Agnello Snc 98050",
      "brand": "Api-Ip",
      "lat": 38.55782684583236,
      "lng": 14.871212840080261,
      "fuels": {
        "sp95": 2.029,
        "gazole": 2.179
      }
    },
    {
      "id": "44838",
      "cp": "",
      "ville": "Santa Teresa Di Riva",
      "adresse": "a18 Messina-catania, km. 26, Est - 98100",
      "brand": "q8",
      "lat": 37.93827551305477,
      "lng": 15.356431901454926,
      "fuels": {
        "sp95": 2.049,
        "gazole": 2.179,
        "gplc": 0.799
      }
    },
    {
      "id": "4835",
      "cp": "",
      "ville": "Santa Teresa Di Riva",
      "adresse": "Statale 114 Orientale sicula, km. 32, dir. Messina-Catania - -",
      "brand": "Esso",
      "lat": 37.954608706440204,
      "lng": 15.375568717718124,
      "fuels": {
        "sp95": 1.986,
        "gazole": 2.196
      }
    },
    {
      "id": "6777",
      "cp": "",
      "ville": "Santa Teresa Di Riva",
      "adresse": "Via naz.ss.114 km.34+139 Snc 98100",
      "brand": "q8",
      "lat": 37.93861480843158,
      "lng": 15.360964089632034,
      "fuels": {
        "sp95": 1.929,
        "gazole": 2.059
      }
    },
    {
      "id": "18804",
      "cp": "",
      "ville": "Santo Stefano Di Camastra",
      "adresse": "Via Leopardi g.",
      "brand": "Agip Eni",
      "lat": 38.01328961428681,
      "lng": 14.347449644705193,
      "fuels": {
        "sp95": 1.964,
        "gazole": 2.109
      }
    },
    {
      "id": "62920",
      "cp": "",
      "ville": "Scaletta Zanclea",
      "adresse": "Via Nazionale Snc 98029",
      "brand": "Api-Ip",
      "lat": 38.04357740978584,
      "lng": 15.460742912187433,
      "fuels": {
        "sp95": 1.949,
        "gazole": 2.079
      }
    },
    {
      "id": "41058",
      "cp": "",
      "ville": "Sinagra",
      "adresse": "Contrada Molino Vecchio Snc 98069",
      "brand": "Pompe Bianche",
      "lat": 38.09259304884983,
      "lng": 14.829854250019707,
      "fuels": {
        "sp95": 1.949,
        "gazole": 2.069,
        "e85": 1.699,
        "gplc": 0.829
      }
    },
    {
      "id": "62661",
      "cp": "",
      "ville": "Sinagra",
      "adresse": "s.p. 146 Bis Ponte Naso Km 5+800 22  98069",
      "brand": "Petrol Company",
      "lat": 38.10374,
      "lng": 14.8154,
      "fuels": {
        "sp95": 1.909,
        "gazole": 2.029
      }
    },
    {
      "id": "5022",
      "cp": "",
      "ville": "Spadafora",
      "adresse": "Statale 113 Settentrionale sicula, km. 26,250, dir. Messina - 98048",
      "brand": "Esso",
      "lat": 38.225521804341426,
      "lng": 15.39082646369934,
      "fuels": {
        "sp95": 1.989,
        "gazole": 2.189,
        "gplc": 0.839
      }
    },
    {
      "id": "48195",
      "cp": "",
      "ville": "Spadafora",
      "adresse": "Via Del Carmine Sn 98048",
      "brand": "Ego",
      "lat": 38.2214146916548,
      "lng": 15.374093312012675,
      "fuels": {
        "sp95": 1.959,
        "gazole": 2.099
      }
    },
    {
      "id": "18838",
      "cp": "",
      "ville": "Spadafora",
      "adresse": "Via Nazionale-Arcipretato  98048",
      "brand": "Tamoil",
      "lat": 38.225719504484424,
      "lng": 15.391471355911222,
      "fuels": {
        "sp95": 1.959,
        "gazole": 2.089
      }
    },
    {
      "id": "49091",
      "cp": "",
      "ville": "Taormina",
      "adresse": "a18 Messina-catania, km. 42,9, Sud - 98039",
      "brand": "q8",
      "lat": 37.824289550610125,
      "lng": 15.245000869035715,
      "fuels": {
        "sp95": 2.059,
        "gazole": 2.169,
        "gplc": 0.966
      }
    },
    {
      "id": "34195",
      "cp": "",
      "ville": "Taormina",
      "adresse": "Via Circumvallazione 21 98039",
      "brand": "q8",
      "lat": 37.85327643952023,
      "lng": 15.286861417161958,
      "fuels": {
        "sp95": 1.939,
        "gazole": 2.189
      }
    },
    {
      "id": "47245",
      "cp": "",
      "ville": "Taormina",
      "adresse": "Via Francavilla 6 98039",
      "brand": "Api-Ip",
      "lat": 37.830021228924004,
      "lng": 15.251655673739334,
      "fuels": {
        "sp95": 1.949,
        "gazole": 2.089
      }
    },
    {
      "id": "59305",
      "cp": "",
      "ville": "Taormina",
      "adresse": "Via Luigi Pirandello Snc 98039",
      "brand": "Agip Eni",
      "lat": 37.85344256523897,
      "lng": 15.293551428241736,
      "fuels": {
        "sp95": 1.904,
        "gazole": 2.019
      }
    },
    {
      "id": "41841",
      "cp": "",
      "ville": "Taormina",
      "adresse": "Via Nazionale 12 98039",
      "brand": "q8",
      "lat": 37.8441287929764,
      "lng": 15.280630588531494,
      "fuels": {
        "sp95": 1.969,
        "gazole": 2.099
      }
    },
    {
      "id": "12373",
      "cp": "",
      "ville": "Taormina",
      "adresse": "Via Porta Pasquale  98039",
      "brand": "Esso",
      "lat": 37.85596184678489,
      "lng": 15.291405022144318,
      "fuels": {
        "sp95": 1.939,
        "gazole": 2.189
      }
    },
    {
      "id": "57707",
      "cp": "",
      "ville": "Terme Vigliatore",
      "adresse": "nazionale,san Biagio Snc 98050",
      "brand": "Agip Eni",
      "lat": 38.12834106066806,
      "lng": 15.142266154289246,
      "fuels": {
        "sp95": 1.949,
        "gazole": 2.079
      }
    },
    {
      "id": "41446",
      "cp": "",
      "ville": "Terme Vigliatore",
      "adresse": "Via Nazionale Terme Km 51.2 Snc 98050",
      "brand": "Pompe Bianche",
      "lat": 38.134478306177996,
      "lng": 15.167098715901375,
      "fuels": {
        "sp95": 2.016,
        "gazole": 2.174
      }
    },
    {
      "id": "59195",
      "cp": "",
      "ville": "Terme Vigliatore",
      "adresse": "Via Nazionale-ss. 113 km. 56+100",
      "brand": "Tamoil",
      "lat": 38.1188005,
      "lng": 15.1247996,
      "fuels": {
        "sp95": 1.929,
        "gazole": 2.059
      }
    },
    {
      "id": "26955",
      "cp": "",
      "ville": "Torregrotta",
      "adresse": "Strada Comunale Cotugnara Sn 98040",
      "brand": "Pompe Bianche",
      "lat": 38.20608717243119,
      "lng": 15.343614220619202,
      "fuels": {
        "sp95": 1.935,
        "gazole": 2.105,
        "e85": 2.039,
        "gplc": 0.835
      }
    },
    {
      "id": "6778",
      "cp": "",
      "ville": "Torregrotta",
      "adresse": "Viale Europa Snc 98040",
      "brand": "q8",
      "lat": 38.203675730171966,
      "lng": 15.351878449737569,
      "fuels": {
        "sp95": 1.945,
        "gazole": 2.115
      }
    },
    {
      "id": "36067",
      "cp": "",
      "ville": "Torrenova",
      "adresse": "Statale 113 Dir Settentrionale sicula, km. 115+555, dir. Messina-Palermo - 98070",
      "brand": "Api-Ip",
      "lat": 38.08921715845478,
      "lng": 14.681761711835861,
      "fuels": {
        "sp95": 1.969,
        "gazole": 2.139
      }
    },
    {
      "id": "36105",
      "cp": "",
      "ville": "Torrenova",
      "adresse": "Statale 113 Settentrionale sicula, km. 114,567, dir. Palermo - Messina - 98070",
      "brand": "q8",
      "lat": 38.09470775593722,
      "lng": 14.690625071525574,
      "fuels": {
        "sp95": 1.979,
        "gazole": 2.149
      }
    },
    {
      "id": "49537",
      "cp": "",
      "ville": "Torrenova",
      "adresse": "Via Fragale Snc 98070",
      "brand": "q8",
      "lat": 38.0966125985246,
      "lng": 14.690270423889155,
      "fuels": {
        "gplc": 0.799
      }
    },
    {
      "id": "4917",
      "cp": "",
      "ville": "Tortorici",
      "adresse": "Strada Tortorici-Caprileone  98078",
      "brand": "Esso",
      "lat": 38.04898863362165,
      "lng": 14.819614937859342,
      "fuels": {
        "sp95": 1.979,
        "gazole": 2.199
      }
    },
    {
      "id": "31019",
      "cp": "",
      "ville": "Tripi",
      "adresse": "Via Aldo Moro 27 98060",
      "brand": "Pompe Bianche",
      "lat": 38.07375784242715,
      "lng": 15.099862166235766,
      "fuels": {
        "sp95": 1.969,
        "gazole": 2.099
      }
    },
    {
      "id": "11226",
      "cp": "",
      "ville": "Tusa",
      "adresse": "Via Roma Snc 98079",
      "brand": "q8",
      "lat": 37.9817371897579,
      "lng": 14.236629449101656,
      "fuels": {
        "sp95": 1.979,
        "gazole": 2.119
      }
    },
    {
      "id": "49796",
      "cp": "",
      "ville": "Ucria",
      "adresse": "Via Francesco Crispi 10 98060",
      "brand": "Giap",
      "lat": 38.04848847678497,
      "lng": 14.883851454543578,
      "fuels": {
        "sp95": 1.999,
        "gazole": 2.199
      }
    },
    {
      "id": "9903",
      "cp": "",
      "ville": "Venetico",
      "adresse": "Nazionale km. 26  98040",
      "brand": "Esso",
      "lat": 38.21746804765425,
      "lng": 15.361593067646027,
      "fuels": {
        "sp95": 1.969,
        "gazole": 2.179
      }
    },
    {
      "id": "59375",
      "cp": "",
      "ville": "Venetico",
      "adresse": "s.s.113 Via Nazionale  s.n.c",
      "brand": "Agip Eni",
      "lat": 38.21951,
      "lng": 15.3698845,
      "fuels": {
        "sp95": 1.949,
        "gazole": 2.079
      }
    },
    {
      "id": "24023",
      "cp": "",
      "ville": "Villafranca Tirrena",
      "adresse": "Autostrada a20 Messina-palermo,  km. 161, dir. Est 98049",
      "brand": "Esso",
      "lat": 38.236658204474075,
      "lng": 15.438934564590454,
      "fuels": {
        "sp95": 2.019,
        "gazole": 2.199
      }
    },
    {
      "id": "56940",
      "cp": "",
      "ville": "Villafranca Tirrena",
      "adresse": "Autostrada a20 Messina-palermo, dir. Palermo",
      "brand": "Api-Ip",
      "lat": 38.23848027738817,
      "lng": 15.437875793142405,
      "fuels": {
        "sp95": 2.019,
        "gazole": 2.149
      }
    },
    {
      "id": "26989",
      "cp": "",
      "ville": "Villafranca Tirrena",
      "adresse": "Statale 113 Settentrionale sicula, km. 21+959, dir. Messina - 98049",
      "brand": "Agip Eni",
      "lat": 38.237596659480985,
      "lng": 15.435682386159897,
      "fuels": {
        "sp95": 1.949,
        "gazole": 2.079
      }
    },
    {
      "id": "62113",
      "cp": "",
      "ville": "Villafranca Tirrena",
      "adresse": "Via Antonello Da Messina 102 98049",
      "brand": "Itala Petroli",
      "lat": 38.2439897,
      "lng": 15.4466669,
      "fuels": {
        "sp95": 1.969,
        "gazole": 2.139,
        "gplc": 0.899
      }
    }
  ]
}