{
  "code": "MS",
  "name": "Massa-Carrara",
  "regionCode": "TOS",
  "regionName": "Toscana",
  "asOf": "2026-06-13T08:17:19.160Z",
  "source": "https://www.mimit.gov.it/it/open-data/elenco-dataset/2032336-dataset-prezzi-carburanti",
  "stationCount": 77,
  "fuels": {
    "gazole": {
      "count": 73,
      "mean": 2.0355,
      "median": 2.029,
      "min": 1.987,
      "max": 2.216
    },
    "sp95": {
      "count": 72,
      "mean": 1.9001,
      "median": 1.889,
      "min": 1.739,
      "max": 2.039
    },
    "e85": {
      "count": 4,
      "mean": 1.6015,
      "median": 1.614,
      "min": 1.479,
      "max": 1.699
    },
    "gplc": {
      "count": 12,
      "mean": 0.8611,
      "median": 0.8415,
      "min": 0.764,
      "max": 0.999
    }
  },
  "stations": [
    {
      "id": "54941",
      "cp": "",
      "ville": "Aulla",
      "adresse": "Nazionale Della Cisa Snc 54011",
      "brand": "Esso",
      "lat": 44.204731,
      "lng": 9.968881,
      "fuels": {
        "sp95": 1.919,
        "gazole": 2.039
      }
    },
    {
      "id": "13392",
      "cp": "",
      "ville": "Aulla",
      "adresse": "Pallerone - -",
      "brand": "Kerotris",
      "lat": 44.203781688673764,
      "lng": 10.012644142138697,
      "fuels": {
        "sp95": 1.909,
        "gazole": 2.029
      }
    },
    {
      "id": "6599",
      "cp": "",
      "ville": "Aulla",
      "adresse": "v.le Lunigiana Snc 54011",
      "brand": "q8",
      "lat": 44.216639047231965,
      "lng": 9.966753846032702,
      "fuels": {
        "sp95": 1.889,
        "gazole": 2.019
      }
    },
    {
      "id": "42766",
      "cp": "",
      "ville": "Aulla",
      "adresse": "Via Guido Rossa Snc 54011",
      "brand": "Agip Eni",
      "lat": 44.20422006224492,
      "lng": 10.010496794124037,
      "fuels": {
        "e85": 1.599
      }
    },
    {
      "id": "9869",
      "cp": "",
      "ville": "Aulla",
      "adresse": "Via Lunigiana 5, 54011    54011",
      "brand": "Agip Eni",
      "lat": 44.216585734177414,
      "lng": 9.966339660713174,
      "fuels": {
        "sp95": 1.895,
        "gazole": 2.024,
        "gplc": 0.854
      }
    },
    {
      "id": "58275",
      "cp": "",
      "ville": "Aulla",
      "adresse": "Via Ripa 14  54011",
      "brand": "Api-Ip",
      "lat": 44.2377599,
      "lng": 9.997100699999999,
      "fuels": {
        "sp95": 1.979,
        "gazole": 2.069
      }
    },
    {
      "id": "62784",
      "cp": "",
      "ville": "Bagnone",
      "adresse": "Via Lorenzo Quartieri 3  54021",
      "brand": "Pompe Bianche",
      "lat": 44.313604,
      "lng": 9.9914058,
      "fuels": {
        "sp95": 1.739,
        "gazole": 2.129
      }
    },
    {
      "id": "56324",
      "cp": "",
      "ville": "Carrara",
      "adresse": "Aurelia 127 54033",
      "brand": "Shell",
      "lat": 44.05963372767596,
      "lng": 10.04494049167418,
      "fuels": {
        "sp95": 1.889,
        "gazole": 2.029
      }
    },
    {
      "id": "16687",
      "cp": "",
      "ville": "Carrara",
      "adresse": "Don Minzoni 27 54033",
      "brand": "Api-Ip",
      "lat": 44.074577653404305,
      "lng": 10.095852983373334,
      "fuels": {
        "sp95": 1.919,
        "gazole": 2.059
      }
    },
    {
      "id": "55436",
      "cp": "",
      "ville": "Carrara",
      "adresse": "Galilei 15bis 54033",
      "brand": "Esso",
      "lat": 44.055679,
      "lng": 10.043139,
      "fuels": {
        "sp95": 1.889,
        "gazole": 2.029
      }
    },
    {
      "id": "58086",
      "cp": "",
      "ville": "Carrara",
      "adresse": "Loc Nazzano - Via Aurelia  Snc",
      "brand": "Agip Eni",
      "lat": 44.05017,
      "lng": 10.074896,
      "fuels": {
        "sp95": 1.874,
        "gazole": 2.024
      }
    },
    {
      "id": "56156",
      "cp": "",
      "ville": "Carrara",
      "adresse": "loc.marina -v.le Da Verrazzano 13 54033",
      "brand": "Shell",
      "lat": 44.032586,
      "lng": 10.0530024,
      "fuels": {
        "sp95": 1.899,
        "gazole": 2.039
      }
    },
    {
      "id": "53819",
      "cp": "",
      "ville": "Carrara",
      "adresse": "Nazioni Unite Snc 54033",
      "brand": "Europam",
      "lat": 44.03828304930243,
      "lng": 10.042401026261638,
      "fuels": {
        "sp95": 1.896,
        "gazole": 2.048
      }
    },
    {
      "id": "62372",
      "cp": "",
      "ville": "Carrara",
      "adresse": "Roma 31 54033",
      "brand": "Esso",
      "lat": 44.073673,
      "lng": 10.094056,
      "fuels": {
        "sp95": 1.899,
        "gazole": 2.059
      }
    },
    {
      "id": "58660",
      "cp": "",
      "ville": "Carrara",
      "adresse": "Via Aurelia km387 Carrara Ms 39 54033",
      "brand": "Italiana Carburanti",
      "lat": 44.0556959169692,
      "lng": 10.044273951927705,
      "fuels": {
        "sp95": 1.899,
        "gazole": 2.019
      }
    },
    {
      "id": "49982",
      "cp": "",
      "ville": "Carrara",
      "adresse": "Via Covetta 19 54033",
      "brand": "Agip Eni",
      "lat": 44.04865500009899,
      "lng": 10.052870634469386,
      "fuels": {
        "sp95": 1.884,
        "gazole": 2.034
      }
    },
    {
      "id": "19271",
      "cp": "",
      "ville": "Carrara",
      "adresse": "Via Covetta 3 54031",
      "brand": "Pompe Bianche",
      "lat": 44.04625300869024,
      "lng": 10.058365613222122,
      "fuels": {
        "e85": 1.479
      }
    },
    {
      "id": "43783",
      "cp": "",
      "ville": "Carrara",
      "adresse": "Via Covetta 53 54033",
      "brand": "q8",
      "lat": 44.053323003801694,
      "lng": 10.043061966662208,
      "fuels": {
        "sp95": 1.919,
        "gazole": 2.216
      }
    },
    {
      "id": "41321",
      "cp": "",
      "ville": "Carrara",
      "adresse": "Via g. Da Verrazzano 1 54033",
      "brand": "Pompe Bianche",
      "lat": 44.03438444181884,
      "lng": 10.048762452709184,
      "fuels": {
        "sp95": 1.879,
        "gazole": 1.989
      }
    },
    {
      "id": "46051",
      "cp": "",
      "ville": "Carrara",
      "adresse": "Via Galileo Galilei 80 54033",
      "brand": "Agip Eni",
      "lat": 44.049236000123,
      "lng": 10.035472000123,
      "fuels": {
        "sp95": 1.884,
        "gazole": 2.034
      }
    },
    {
      "id": "24780",
      "cp": "",
      "ville": "Carrara",
      "adresse": "Via Xx Settembre 271  54033",
      "brand": "Api-Ip",
      "lat": 44.04231232849551,
      "lng": 10.048612804435379,
      "fuels": {
        "sp95": 1.889,
        "gazole": 1.989
      }
    },
    {
      "id": "48271",
      "cp": "",
      "ville": "Carrara",
      "adresse": "Via Xx Settembre 55b-loc.fossola  54033",
      "brand": "q8",
      "lat": 44.06902023750535,
      "lng": 10.07967892331353,
      "fuels": {
        "sp95": 1.879,
        "gazole": 1.999
      }
    },
    {
      "id": "62031",
      "cp": "",
      "ville": "Carrara",
      "adresse": "Viale Cristoforo Colombo  54033",
      "brand": "Ala",
      "lat": 44.036635694722314,
      "lng": 10.042321890173355,
      "fuels": {
        "sp95": 1.879,
        "gazole": 1.999
      }
    },
    {
      "id": "45721",
      "cp": "",
      "ville": "Carrara",
      "adresse": "Viale Galilei 13 54033",
      "brand": "Api-Ip",
      "lat": 44.055769261407896,
      "lng": 10.0440070049533,
      "fuels": {
        "sp95": 1.889,
        "gazole": 2.029
      }
    },
    {
      "id": "10241",
      "cp": "",
      "ville": "Carrara",
      "adresse": "Viale Galilei 31 54033",
      "brand": "Agip Eni",
      "lat": 44.05325478202659,
      "lng": 10.040425658226013,
      "fuels": {
        "sp95": 1.874,
        "gazole": 2.024,
        "gplc": 0.829
      }
    },
    {
      "id": "49992",
      "cp": "",
      "ville": "Carrara",
      "adresse": "Viale Turigliano 5 54033",
      "brand": "Coil",
      "lat": 44.0545454481178,
      "lng": 10.066049563456456,
      "fuels": {
        "sp95": 1.869,
        "gazole": 1.987
      }
    },
    {
      "id": "35615",
      "cp": "",
      "ville": "Carrara",
      "adresse": "Viale Xx Settembre 173 54033",
      "brand": "Pompe Bianche",
      "lat": 44.05702677915408,
      "lng": 10.064895463962557,
      "fuels": {
        "sp95": 1.875,
        "gazole": 1.998
      }
    },
    {
      "id": "38873",
      "cp": "",
      "ville": "Carrara",
      "adresse": "Viale Xx Settembre 93 54033",
      "brand": "Agip Eni",
      "lat": 44.064427223415905,
      "lng": 10.073037930874648,
      "fuels": {
        "sp95": 1.874,
        "gazole": 2.024
      }
    },
    {
      "id": "50481",
      "cp": "",
      "ville": "Carrara",
      "adresse": "Viale Xx Settembre Loc Turigliano  54033",
      "brand": "Agip Eni",
      "lat": 44.056797558582,
      "lng": 10.065194903364038,
      "fuels": {
        "sp95": 1.874,
        "gazole": 2.024,
        "e85": 1.699,
        "gplc": 0.802
      }
    },
    {
      "id": "29203",
      "cp": "",
      "ville": "Carrara",
      "adresse": "Xx Settembre 284 54033",
      "brand": "Pompe Bianche",
      "lat": 44.04593572981138,
      "lng": 10.05310413491816,
      "fuels": {
        "sp95": 1.895,
        "gazole": 1.999
      }
    },
    {
      "id": "61243",
      "cp": "",
      "ville": "Casola In Lunigiana",
      "adresse": "Piazza Della Torre  54014",
      "brand": "Tamoil",
      "lat": 44.19998,
      "lng": 10.17523,
      "fuels": {
        "sp95": 1.979,
        "gazole": 2.099
      }
    },
    {
      "id": "46441",
      "cp": "",
      "ville": "Filattiera",
      "adresse": "62 Della cisa, km. 30+746 , Filattiera - 54023",
      "brand": "Giap",
      "lat": 44.331629412512896,
      "lng": 9.930874365036061,
      "fuels": {
        "sp95": 1.889,
        "gazole": 2.029
      }
    },
    {
      "id": "45932",
      "cp": "",
      "ville": "Fivizzano",
      "adresse": "Nazionale Nord 12 54013",
      "brand": "Esso",
      "lat": 44.241947453407086,
      "lng": 10.13088607147387,
      "fuels": {
        "sp95": 1.949,
        "gazole": 2.059
      }
    },
    {
      "id": "52756",
      "cp": "",
      "ville": "Fivizzano",
      "adresse": "Nazionale Snc 54013",
      "brand": "Api-Ip",
      "lat": 44.2382456,
      "lng": 10.1271607,
      "fuels": {
        "sp95": 2.004,
        "gazole": 2.104
      }
    },
    {
      "id": "26879",
      "cp": "",
      "ville": "Fivizzano",
      "adresse": "Via Cesare Battisti 119 54013",
      "brand": "Api-Ip",
      "lat": 44.166786968081674,
      "lng": 10.122404542489676,
      "fuels": {
        "sp95": 1.994,
        "gazole": 2.12
      }
    },
    {
      "id": "51843",
      "cp": "",
      "ville": "Fivizzano",
      "adresse": "Via Ss 63 Del Cerreto Km 10+500 54013, Fivizzano (ms) Snc 54013",
      "brand": "Ala",
      "lat": 44.2070413101123,
      "lng": 10.082535743713374,
      "fuels": {
        "sp95": 1.949,
        "gazole": 2.059
      }
    },
    {
      "id": "47478",
      "cp": "",
      "ville": "Licciana Nardi",
      "adresse": "Giarella Snc 54016",
      "brand": "Tamoil",
      "lat": 44.25009936514591,
      "lng": 10.013217907357607,
      "fuels": {
        "sp95": 1.899,
        "gazole": 1.999
      }
    },
    {
      "id": "54830",
      "cp": "",
      "ville": "Licciana Nardi",
      "adresse": "Via Nazionale 82 54016",
      "brand": "Api-Ip",
      "lat": 44.24115769890915,
      "lng": 9.960169974227915,
      "fuels": {
        "sp95": 1.899,
        "gazole": 2.029,
        "gplc": 0.949
      }
    },
    {
      "id": "19961",
      "cp": "",
      "ville": "Massa",
      "adresse": "Bozzone 143 54037",
      "brand": "Pompe Bianche",
      "lat": 44.03105870502335,
      "lng": 10.078521072864532,
      "fuels": {
        "e85": 1.629
      }
    },
    {
      "id": "60614",
      "cp": "",
      "ville": "Massa",
      "adresse": "Del Cacciatore 2 54100",
      "brand": "Socogas",
      "lat": 44.02776998863212,
      "lng": 10.078180072586019,
      "fuels": {
        "gplc": 0.8
      }
    },
    {
      "id": "60019",
      "cp": "",
      "ville": "Massa",
      "adresse": "Della Repubblica 126 54100",
      "brand": "Ala",
      "lat": 44.00846289034958,
      "lng": 10.125698447227478,
      "fuels": {
        "sp95": 1.899,
        "gazole": 2.029
      }
    },
    {
      "id": "55663",
      "cp": "",
      "ville": "Massa",
      "adresse": "Giosue Carducci Snc 54100",
      "brand": "Api-Ip",
      "lat": 44.03283993876145,
      "lng": 10.12446029898582,
      "fuels": {
        "sp95": 1.886,
        "gazole": 1.999
      }
    },
    {
      "id": "50353",
      "cp": "",
      "ville": "Massa",
      "adresse": "Località Frigido  54100",
      "brand": "Agip Eni",
      "lat": 44.022465581832265,
      "lng": 10.11998885129703,
      "fuels": {
        "sp95": 1.874,
        "gazole": 2.024
      }
    },
    {
      "id": "56773",
      "cp": "",
      "ville": "Massa",
      "adresse": "Marina Vecchia Snc 54100",
      "brand": "Shell",
      "lat": 44.029651,
      "lng": 10.130691,
      "fuels": {
        "sp95": 1.889,
        "gazole": 2.049
      }
    },
    {
      "id": "19822",
      "cp": "",
      "ville": "Massa",
      "adresse": "Statale 1 Via aurelia, km. 383, dir. Ovest - 54100",
      "brand": "Esso",
      "lat": 44.038955786756276,
      "lng": 10.095707327127457,
      "fuels": {
        "sp95": 1.899,
        "gazole": 2.059
      }
    },
    {
      "id": "6600",
      "cp": "",
      "ville": "Massa",
      "adresse": "Via Aurelia loc. Castagnola Snc 54100",
      "brand": "q8",
      "lat": 44.040371777817114,
      "lng": 10.124801631946525,
      "fuels": {
        "sp95": 1.869,
        "gazole": 1.999
      }
    },
    {
      "id": "37614",
      "cp": "",
      "ville": "Massa",
      "adresse": "Via Aurelia Ovest 154 54100",
      "brand": "Pompe Bianche",
      "lat": 44.039995206375146,
      "lng": 10.120924014251386,
      "fuels": {
        "sp95": 1.879,
        "gazole": 1.997,
        "gplc": 0.795
      }
    },
    {
      "id": "61809",
      "cp": "",
      "ville": "Massa",
      "adresse": "Via Aurelia Ovest 372  54100",
      "brand": "Ala",
      "lat": 44.037157706468435,
      "lng": 10.104457898596205,
      "fuels": {
        "sp95": 1.879,
        "gazole": 1.999
      }
    },
    {
      "id": "62123",
      "cp": "",
      "ville": "Massa",
      "adresse": "Via Delle Pinete 344 54100",
      "brand": "Ala",
      "lat": 44.021503119178234,
      "lng": 10.08070480207483,
      "fuels": {
        "sp95": 1.899,
        "gazole": 2.019
      }
    },
    {
      "id": "4841",
      "cp": "",
      "ville": "Massa",
      "adresse": "Via Democrazia 34 54100",
      "brand": "Agip Eni",
      "lat": 44.03382551779129,
      "lng": 10.141129673016394,
      "fuels": {
        "sp95": 1.869,
        "gazole": 2.019
      }
    },
    {
      "id": "58694",
      "cp": "",
      "ville": "Massa",
      "adresse": "Via Democrazia 41 54100",
      "brand": "Pompe Bianche",
      "lat": 44.032230278141235,
      "lng": 10.143336506175986,
      "fuels": {
        "sp95": 1.868,
        "gazole": 1.998
      }
    },
    {
      "id": "62997",
      "cp": "",
      "ville": "Massa",
      "adresse": "Via Enrico Mattei 4  54100",
      "brand": "Api-Ip",
      "lat": 44.01896266861949,
      "lng": 10.102214014283808,
      "fuels": {
        "sp95": 1.879,
        "gazole": 2.039
      }
    },
    {
      "id": "12924",
      "cp": "",
      "ville": "Massa",
      "adresse": "Via Massa Avenza Snc 54100",
      "brand": "Tamoil",
      "lat": 44.03026110957324,
      "lng": 10.090928971767426,
      "fuels": {
        "sp95": 1.899,
        "gazole": 1.989
      }
    },
    {
      "id": "4920",
      "cp": "",
      "ville": "Massa",
      "adresse": "Via Oliveti 106 54100",
      "brand": "q8",
      "lat": 44.02720699509203,
      "lng": 10.110791884655782,
      "fuels": {
        "sp95": 1.886,
        "gazole": 2.036,
        "gplc": 0.794
      }
    },
    {
      "id": "37275",
      "cp": "",
      "ville": "Massa",
      "adresse": "Via Pellegrini 8 54100",
      "brand": "Agip Eni",
      "lat": 44.022076264843086,
      "lng": 10.139780044555664,
      "fuels": {
        "sp95": 1.874,
        "gazole": 2.024,
        "gplc": 0.764
      }
    },
    {
      "id": "13602",
      "cp": "",
      "ville": "Massa",
      "adresse": "Via San Leonardo 218, 54100 - -",
      "brand": "Coil",
      "lat": 44.01577332501576,
      "lng": 10.109748483605927,
      "fuels": {
        "sp95": 1.864,
        "gazole": 1.997
      }
    },
    {
      "id": "54912",
      "cp": "",
      "ville": "Massa",
      "adresse": "Via X Aprile  54100",
      "brand": "q8",
      "lat": 44.03885,
      "lng": 10.1387961,
      "fuels": {
        "sp95": 1.879,
        "gazole": 1.999
      }
    },
    {
      "id": "11725",
      "cp": "",
      "ville": "Massa",
      "adresse": "Viale Democrazia S/N 54100",
      "brand": "q8",
      "lat": 44.03337327674089,
      "lng": 10.141655568122815,
      "fuels": {
        "sp95": 1.869,
        "gazole": 1.989
      }
    },
    {
      "id": "25269",
      "cp": "",
      "ville": "Massa",
      "adresse": "Viale Mattei 55, 54100 - -",
      "brand": "Api-Ip",
      "lat": 44.014347067920845,
      "lng": 10.096215605735779,
      "fuels": {
        "sp95": 1.899,
        "gazole": 2.029
      }
    },
    {
      "id": "11257",
      "cp": "",
      "ville": "Massa",
      "adresse": "Viale Roma 252/A 54100",
      "brand": "Api-Ip",
      "lat": 44.01509615302672,
      "lng": 10.119211499722269,
      "fuels": {
        "sp95": 1.889,
        "gazole": 2.019
      }
    },
    {
      "id": "16699",
      "cp": "",
      "ville": "Massa",
      "adresse": "Viale Roma 285 54100",
      "brand": "Api-Ip",
      "lat": 44.01221985604788,
      "lng": 10.117011839811767,
      "fuels": {
        "sp95": 1.899,
        "gazole": 2.029
      }
    },
    {
      "id": "26489",
      "cp": "",
      "ville": "Montignoso",
      "adresse": "Via 8 Aprile Snc 54038",
      "brand": "Api-Ip",
      "lat": 44.01420586824598,
      "lng": 10.166631639003754,
      "fuels": {
        "sp95": 1.879,
        "gazole": 2.019
      }
    },
    {
      "id": "61582",
      "cp": "",
      "ville": "Montignoso",
      "adresse": "Via Aurelia loc.debbia km.376+300  Snc",
      "brand": "Agip Eni",
      "lat": 44.015293,
      "lng": 10.1562805,
      "fuels": {
        "sp95": 1.874,
        "gazole": 2.024
      }
    },
    {
      "id": "22094",
      "cp": "",
      "ville": "Montignoso",
      "adresse": "Viale Iv Novembre  54030",
      "brand": "Pompe Bianche",
      "lat": 43.97728416251269,
      "lng": 10.144764930009842,
      "fuels": {
        "sp95": 1.906,
        "gazole": 2.026
      }
    },
    {
      "id": "62095",
      "cp": "",
      "ville": "Montignoso",
      "adresse": "Viale Marina 102  54038",
      "brand": "Keropetrol",
      "lat": 44.000084988903744,
      "lng": 10.156828165054321,
      "fuels": {
        "sp95": 1.889,
        "gazole": 2.019
      }
    },
    {
      "id": "43569",
      "cp": "",
      "ville": "Mulazzo",
      "adresse": "a15 Parma-La spezia, km. 28, Nord - 54026",
      "brand": "Api-Ip",
      "lat": 44.31270038024247,
      "lng": 9.927226954370099,
      "fuels": {
        "sp95": 1.999,
        "gazole": 2.099,
        "gplc": 0.899
      }
    },
    {
      "id": "29505",
      "cp": "",
      "ville": "Mulazzo",
      "adresse": "Autostrada a15 Parma-La spezia, km. 80, dir. Sud - 54026",
      "brand": "q8",
      "lat": 44.311285118058024,
      "lng": 9.926801919937134,
      "fuels": {
        "sp95": 2.039,
        "gazole": 2.169,
        "gplc": 0.949
      }
    },
    {
      "id": "37291",
      "cp": "",
      "ville": "Pontremoli",
      "adresse": "Autostrada a15 Parma-La spezia, km. 65+430, dir. Sud - 54027",
      "brand": "Sarni Oil",
      "lat": 44.4148049,
      "lng": 9.870882499999999,
      "fuels": {
        "sp95": 1.979,
        "gazole": 2.099,
        "gplc": 0.899
      }
    },
    {
      "id": "62743",
      "cp": "",
      "ville": "Pontremoli",
      "adresse": "Autostrada a15 Parma-La spezia, km. 65+430, dir. Sud - 54027",
      "brand": "Sarni Oil",
      "lat": 44.4148049,
      "lng": 9.870882499999999,
      "fuels": {
        "gazole": 1.999
      }
    },
    {
      "id": "39589",
      "cp": "",
      "ville": "Pontremoli",
      "adresse": "Statale 62 Della cisa, km. 35+22, dir. Parma - 54027",
      "brand": "Api-Ip",
      "lat": 44.36091050587076,
      "lng": 9.89906202331349,
      "fuels": {
        "sp95": 1.919,
        "gazole": 2.039,
        "gplc": 0.999
      }
    },
    {
      "id": "27683",
      "cp": "",
      "ville": "Pontremoli",
      "adresse": "Statale 62 Della cisa, km. 38, dir. La Spezia \\ 54027",
      "brand": "Api-Ip",
      "lat": 44.37724474510354,
      "lng": 9.884962141513824,
      "fuels": {
        "sp95": 1.919,
        "gazole": 2.049
      }
    },
    {
      "id": "62162",
      "cp": "",
      "ville": "Pontremoli",
      "adresse": "Via Nazionale 112  54027",
      "brand": "Agip Eni",
      "lat": 44.3684954,
      "lng": 9.88516749,
      "fuels": {
        "sp95": 1.874,
        "gazole": 2.024
      }
    },
    {
      "id": "47002",
      "cp": "",
      "ville": "Pontremoli",
      "adresse": "Via Nazionale Della Cisa - loc. Santa Giustina  54027",
      "brand": "Esso",
      "lat": 44.35956576203467,
      "lng": 9.899957340254936,
      "fuels": {
        "sp95": 1.919,
        "gazole": 2.039
      }
    },
    {
      "id": "57765",
      "cp": "",
      "ville": "Tresana",
      "adresse": "Loc Barbarasco Via Roma   54012",
      "brand": "Api-Ip",
      "lat": 44.24218,
      "lng": 9.9947,
      "fuels": {
        "sp95": 1.899,
        "gazole": 2.029
      }
    },
    {
      "id": "8013",
      "cp": "",
      "ville": "Villafranca In Lunigiana",
      "adresse": "Piazza Della Resistenza  54028",
      "brand": "Api-Ip",
      "lat": 44.2930238,
      "lng": 9.9521351,
      "fuels": {
        "sp95": 1.899,
        "gazole": 2.029
      }
    },
    {
      "id": "44778",
      "cp": "",
      "ville": "Villafranca In Lunigiana",
      "adresse": "s.s. n. 62 km. 26,800 Sn 54028",
      "brand": "Tamoil",
      "lat": 44.294000258989115,
      "lng": 9.951088252557838,
      "fuels": {
        "sp95": 1.899,
        "gazole": 2.029
      }
    },
    {
      "id": "46884",
      "cp": "",
      "ville": "Zeri",
      "adresse": "loc. Coloretta  54029",
      "brand": "Giap",
      "lat": 44.3436432184112,
      "lng": 9.757895365131617,
      "fuels": {
        "sp95": 1.949,
        "gazole": 2.099
      }
    }
  ]
}