{
  "code": "NO",
  "name": "Novara",
  "regionCode": "PIE",
  "regionName": "Piemonte",
  "asOf": "2026-07-18T18:35:27.508Z",
  "source": "https://www.mimit.gov.it/it/open-data/elenco-dataset/2032336-dataset-prezzi-carburanti",
  "stationCount": 146,
  "fuels": {
    "gazole": {
      "count": 141,
      "mean": 2.0527,
      "median": 2.059,
      "min": 1.589,
      "max": 2.199
    },
    "sp95": {
      "count": 141,
      "mean": 1.9141,
      "median": 1.919,
      "min": 1.629,
      "max": 2.039
    },
    "e85": {
      "count": 8,
      "mean": 1.513,
      "median": 1.574,
      "min": 1.329,
      "max": 1.629
    },
    "gplc": {
      "count": 36,
      "mean": 0.7497,
      "median": 0.7415,
      "min": 0.669,
      "max": 0.899
    }
  },
  "stations": [
    {
      "id": "55556",
      "cp": "",
      "ville": "Armeno",
      "adresse": "Via Viale Cadorna 4 28011, Armeno (no) 4 28011",
      "brand": "E-Smart",
      "lat": 45.821497791668016,
      "lng": 8.439220546605485,
      "fuels": {
        "sp95": 1.959,
        "gazole": 2.099
      }
    },
    {
      "id": "29796",
      "cp": "",
      "ville": "Arona",
      "adresse": "Sempione 8 28041",
      "brand": "Pompe Bianche",
      "lat": 45.767113953003246,
      "lng": 8.552495017647743,
      "fuels": {
        "sp95": 1.949,
        "gazole": 2.099
      }
    },
    {
      "id": "9983",
      "cp": "",
      "ville": "Arona",
      "adresse": "Viale Baracca 40/A 28041",
      "brand": "Pompe Bianche",
      "lat": 45.75060701542171,
      "lng": 8.563799858093262,
      "fuels": {
        "sp95": 1.92,
        "gazole": 2.04
      }
    },
    {
      "id": "39405",
      "cp": "",
      "ville": "Arona",
      "adresse": "vitt. Veneto 76 28041",
      "brand": "Tamoil",
      "lat": 45.75522288140477,
      "lng": 8.550458550453186,
      "fuels": {
        "sp95": 1.959,
        "gazole": 2.069
      }
    },
    {
      "id": "30044",
      "cp": "",
      "ville": "Bellinzago Novarese",
      "adresse": "32 ticinese, km. 13+900, Nord - 28043",
      "brand": "Sommese Petroli",
      "lat": 45.56569310976566,
      "lng": 8.634843528270721,
      "fuels": {
        "sp95": 1.889,
        "gazole": 2.099
      }
    },
    {
      "id": "52749",
      "cp": "",
      "ville": "Bellinzago Novarese",
      "adresse": "Liberta' 29 28043",
      "brand": "Agip Eni",
      "lat": 45.57537,
      "lng": 8.64006,
      "fuels": {
        "sp95": 1.914,
        "gazole": 2.024
      }
    },
    {
      "id": "62692",
      "cp": "",
      "ville": "Bellinzago Novarese",
      "adresse": "ss. 32 km. 11+280 Lato Sx  28043",
      "brand": "Tamoil",
      "lat": 45.542565,
      "lng": 8.638161,
      "fuels": {
        "sp95": 1.879,
        "gazole": 2.029,
        "gplc": 0.699
      }
    },
    {
      "id": "59755",
      "cp": "",
      "ville": "Biandrate",
      "adresse": "Valsesia 35 28061",
      "brand": "Itala Petroli",
      "lat": 45.456734760432774,
      "lng": 8.46359521150589,
      "fuels": {
        "sp95": 1.929,
        "gazole": 2.079
      }
    },
    {
      "id": "51115",
      "cp": "",
      "ville": "Boca",
      "adresse": "s.s. 142 Biellese Km 37+860 - Km 37+820 Snc 28010",
      "brand": "Api-Ip",
      "lat": 45.660898531298635,
      "lng": 8.435487747192377,
      "fuels": {
        "sp95": 1.946,
        "gazole": 2.086
      }
    },
    {
      "id": "47154",
      "cp": "",
      "ville": "Bogogno",
      "adresse": "Via Guglielmo Marconi 17 28010",
      "brand": "Api-Ip",
      "lat": 45.664933000123,
      "lng": 8.540174000123,
      "fuels": {
        "sp95": 1.939,
        "gazole": 2.099
      }
    },
    {
      "id": "9546",
      "cp": "",
      "ville": "Borgo Ticino",
      "adresse": "Statale 32 ticinese, km. 28, dir. Novara - 28040",
      "brand": "Tamoil",
      "lat": 45.68241223129521,
      "lng": 8.606913685798645,
      "fuels": {
        "sp95": 1.899,
        "gazole": 2.049
      }
    },
    {
      "id": "38920",
      "cp": "",
      "ville": "Borgo Ticino",
      "adresse": "Via Sempione 2 28040",
      "brand": "Agip Eni",
      "lat": 45.67986867709533,
      "lng": 8.608160014715168,
      "fuels": {
        "sp95": 1.914,
        "gazole": 2.059
      }
    },
    {
      "id": "47652",
      "cp": "",
      "ville": "Borgomanero",
      "adresse": "Cascina Beatrice Sn 28021",
      "brand": "Tamoil",
      "lat": 45.71594996380735,
      "lng": 8.448210475819682,
      "fuels": {
        "sp95": 1.959,
        "gazole": 2.079
      }
    },
    {
      "id": "29422",
      "cp": "",
      "ville": "Borgomanero",
      "adresse": "Matteotti 75 28021",
      "brand": "Tamoil",
      "lat": 45.693422095711874,
      "lng": 8.457353711128235,
      "fuels": {
        "sp95": 1.959,
        "gazole": 2.079
      }
    },
    {
      "id": "60823",
      "cp": "",
      "ville": "Borgomanero",
      "adresse": "Santa Cristinetta 1 28021",
      "brand": "Esso",
      "lat": 45.70851394765081,
      "lng": 8.470500750036923,
      "fuels": {
        "sp95": 1.919,
        "gazole": 2.089
      }
    },
    {
      "id": "63090",
      "cp": "",
      "ville": "Borgomanero",
      "adresse": "v. Novara 326  28021",
      "brand": "Esso",
      "lat": 45.67758503304538,
      "lng": 8.483184089119348,
      "fuels": {
        "sp95": 1.899,
        "gazole": 2.059,
        "gplc": 0.739
      }
    },
    {
      "id": "35221",
      "cp": "",
      "ville": "Borgomanero",
      "adresse": "Via Gozzano  28021",
      "brand": "Vega",
      "lat": 45.71430939769307,
      "lng": 8.452392965555191,
      "fuels": {
        "sp95": 1.899,
        "gazole": 2.059,
        "gplc": 0.729
      }
    },
    {
      "id": "11745",
      "cp": "",
      "ville": "Borgomanero",
      "adresse": "Via Maggiora 70 28021",
      "brand": "q8",
      "lat": 45.702662535881196,
      "lng": 8.446847872352578,
      "fuels": {
        "sp95": 1.989,
        "gazole": 2.129
      }
    },
    {
      "id": "31441",
      "cp": "",
      "ville": "Borgomanero",
      "adresse": "Via Matteotti s.r. 142 km.41+32 183 28021",
      "brand": "Vega",
      "lat": 45.681836945658766,
      "lng": 8.456677794456482,
      "fuels": {
        "sp95": 1.879,
        "gazole": 2.059
      }
    },
    {
      "id": "49148",
      "cp": "",
      "ville": "Borgomanero",
      "adresse": "Via Novara 188 28021",
      "brand": "Pompe Bianche",
      "lat": 45.68752718464642,
      "lng": 8.472279561060846,
      "fuels": {
        "gplc": 0.729
      }
    },
    {
      "id": "11750",
      "cp": "",
      "ville": "Borgomanero",
      "adresse": "Viale Kennedy - Via Gozzano S/N 28021",
      "brand": "q8",
      "lat": 45.70641961491004,
      "lng": 8.456394262017966,
      "fuels": {
        "sp95": 1.969,
        "gazole": 2.089
      }
    },
    {
      "id": "51377",
      "cp": "",
      "ville": "Borgomanero",
      "adresse": "Viale Marconi 16 28021",
      "brand": "q8",
      "lat": 45.692636378971585,
      "lng": 8.463558895700846,
      "fuels": {
        "sp95": 1.969,
        "gazole": 2.099
      }
    },
    {
      "id": "6422",
      "cp": "",
      "ville": "Briga Novarese",
      "adresse": "Via Borgomanero 47 28010",
      "brand": "q8",
      "lat": 45.727098422551144,
      "lng": 8.445178175532533,
      "fuels": {
        "sp95": 1.899,
        "gazole": 2.059
      }
    },
    {
      "id": "57541",
      "cp": "",
      "ville": "Briona",
      "adresse": "s.p. 299 Della Valsesia Km 14 +  00",
      "brand": "Agip Eni",
      "lat": 45.53616,
      "lng": 8.486165,
      "fuels": {
        "sp95": 1.929,
        "gazole": 2.029,
        "gplc": 0.734
      }
    },
    {
      "id": "61785",
      "cp": "",
      "ville": "Caltignaga",
      "adresse": "sp229 6+967  28010",
      "brand": "Retitalia",
      "lat": 45.506491986048275,
      "lng": 8.597703213324722,
      "fuels": {
        "sp95": 1.919,
        "gazole": 2.069,
        "gplc": 0.689
      }
    },
    {
      "id": "21956",
      "cp": "",
      "ville": "Cameri",
      "adresse": "Guglielmo Marconi Snc 28062",
      "brand": "Agip Eni",
      "lat": 45.494093957931845,
      "lng": 8.65576945245266,
      "fuels": {
        "sp95": 1.949,
        "gazole": 2.059
      }
    },
    {
      "id": "44557",
      "cp": "",
      "ville": "Casalino",
      "adresse": "Fraz Cameriano\t  28060",
      "brand": "Europam",
      "lat": 45.39932180817781,
      "lng": 8.54391681167408,
      "fuels": {
        "sp95": 1.887,
        "gazole": 2.017
      }
    },
    {
      "id": "47148",
      "cp": "",
      "ville": "Castelletto Sopra Ticino",
      "adresse": "33 Del sempione, km. 57+100, Arona  28053",
      "brand": "Coil",
      "lat": 45.71983399947224,
      "lng": 8.618449796627047,
      "fuels": {
        "sp95": 1.917,
        "gazole": 2.057
      }
    },
    {
      "id": "51213",
      "cp": "",
      "ville": "Castelletto Sopra Ticino",
      "adresse": "33 Del sempione, km. 58, Nord - 28053",
      "brand": "Pompe Bianche",
      "lat": 45.71872300215542,
      "lng": 8.592177284108857,
      "fuels": {
        "gplc": 0.739
      }
    },
    {
      "id": "56242",
      "cp": "",
      "ville": "Castelletto Sopra Ticino",
      "adresse": "ss32 31 + 600 28040",
      "brand": "Vega",
      "lat": 45.7102116,
      "lng": 8.5901649,
      "fuels": {
        "sp95": 1.879,
        "gazole": 2.059,
        "gplc": 0.739
      }
    },
    {
      "id": "5532",
      "cp": "",
      "ville": "Castelletto Sopra Ticino",
      "adresse": "ss33 Sempione Km 57 + 200  28053",
      "brand": "Api-Ip",
      "lat": 45.71927036325096,
      "lng": 8.608878411045112,
      "fuels": {
        "sp95": 1.919,
        "gazole": 2.069
      }
    },
    {
      "id": "6420",
      "cp": "",
      "ville": "Castelletto Sopra Ticino",
      "adresse": "Strada Croce Pietra Snc 28053",
      "brand": "q8",
      "lat": 45.71293117493445,
      "lng": 8.642468963229362,
      "fuels": {
        "sp95": 1.939,
        "gazole": 2.089
      }
    },
    {
      "id": "28170",
      "cp": "",
      "ville": "Castelletto Sopra Ticino",
      "adresse": "Via Repubblica 4 28053",
      "brand": "Api-Ip",
      "lat": 45.71413770063717,
      "lng": 8.639075101852427,
      "fuels": {
        "sp95": 1.999,
        "gazole": 2.199
      }
    },
    {
      "id": "33672",
      "cp": "",
      "ville": "Castelletto Sopra Ticino",
      "adresse": "Via Via Diaz 51 28053, Castelletto Sopra Ticino (no) 55 28053",
      "brand": "Tamoil",
      "lat": 45.71933996237126,
      "lng": 8.637193936176345,
      "fuels": {
        "sp95": 1.909,
        "gazole": 2.079
      }
    },
    {
      "id": "60503",
      "cp": "",
      "ville": "Cerano",
      "adresse": "Via Novara 58  28065",
      "brand": "Tamoil",
      "lat": 45.41603695308275,
      "lng": 8.775966965947246,
      "fuels": {
        "sp95": 1.929,
        "gazole": 2.099
      }
    },
    {
      "id": "40495",
      "cp": "",
      "ville": "Cressa",
      "adresse": "a26 (ge) Voltri-Gravellona t., km. 154, Genova  - 28012",
      "brand": "Tamoil",
      "lat": 45.6613289284367,
      "lng": 8.499645441770554,
      "fuels": {
        "sp95": 1.868,
        "gazole": 1.979,
        "gplc": 0.899
      }
    },
    {
      "id": "41123",
      "cp": "",
      "ville": "Cressa",
      "adresse": "a26 (ge) Voltri-Gravellona t., km. 154+800, Gravellona - 28012",
      "brand": "Tamoil",
      "lat": 45.66074030377374,
      "lng": 8.502123802900314,
      "fuels": {
        "sp95": 1.868,
        "gazole": 1.979,
        "gplc": 0.899
      }
    },
    {
      "id": "61508",
      "cp": "",
      "ville": "Dormelletto",
      "adresse": "Cavour 58 Ss 33 28040",
      "brand": "Retitalia",
      "lat": 45.73889624266873,
      "lng": 8.570261538180597,
      "fuels": {
        "sp95": 1.929,
        "gazole": 2.119
      }
    },
    {
      "id": "39481",
      "cp": "",
      "ville": "Dormelletto",
      "adresse": "Statale 33 Del sempione, km. 62+550, dir. Novara - 28040",
      "brand": "Api-Ip",
      "lat": 45.74269024318982,
      "lng": 8.56716200709343,
      "fuels": {
        "sp95": 1.959,
        "gazole": 2.079
      }
    },
    {
      "id": "54470",
      "cp": "",
      "ville": "Dormelletto",
      "adresse": "Strada stat. ss33 Del Sempione km61+240 Sn 28040, Dormelletto (no) 41 28040",
      "brand": "Tamoil",
      "lat": 45.732567,
      "lng": 8.575648,
      "fuels": {
        "sp95": 1.929,
        "gazole": 2.059
      }
    },
    {
      "id": "9175",
      "cp": "",
      "ville": "Dormelletto",
      "adresse": "Via Cavour 7 28040",
      "brand": "Tamoil",
      "lat": 45.74527737813549,
      "lng": 8.565547322090197,
      "fuels": {
        "sp95": 1.929,
        "gazole": 2.059,
        "gplc": 0.789
      }
    },
    {
      "id": "6417",
      "cp": "",
      "ville": "Dormelletto",
      "adresse": "Via Cavour 90 28040",
      "brand": "q8",
      "lat": 45.7335616053297,
      "lng": 8.574434820901502,
      "fuels": {
        "sp95": 1.939,
        "gazole": 2.059
      }
    },
    {
      "id": "38088",
      "cp": "",
      "ville": "Galliate",
      "adresse": "Novara 96 28066",
      "brand": "Agip Eni",
      "lat": 45.46966415273374,
      "lng": 8.685973137617111,
      "fuels": {
        "sp95": 1.944,
        "gazole": 2.054
      }
    },
    {
      "id": "62026",
      "cp": "",
      "ville": "Galliate",
      "adresse": "Ticino 97 28066",
      "brand": "Esso",
      "lat": 45.48512989144204,
      "lng": 8.705066735459566,
      "fuels": {
        "sp95": 1.919,
        "gazole": 2.069
      }
    },
    {
      "id": "59766",
      "cp": "",
      "ville": "Galliate",
      "adresse": "Via Ticino  14 10/A",
      "brand": "Agip Eni",
      "lat": 45.48103,
      "lng": 8.69948,
      "fuels": {
        "sp95": 1.919,
        "gazole": 2.04
      }
    },
    {
      "id": "38591",
      "cp": "",
      "ville": "Galliate",
      "adresse": "Via Vittime Di Kabul  28066",
      "brand": "q8",
      "lat": 45.4687719482225,
      "lng": 8.693452554175565,
      "fuels": {
        "sp95": 1.859,
        "gazole": 1.999,
        "gplc": 0.759
      }
    },
    {
      "id": "11748",
      "cp": "",
      "ville": "Gattico-Veruno",
      "adresse": "s.s. 32 Dir S/N 28013",
      "brand": "q8",
      "lat": 45.7093614,
      "lng": 8.5258632,
      "fuels": {
        "sp95": 1.929,
        "gazole": 2.079
      }
    },
    {
      "id": "44584",
      "cp": "",
      "ville": "Gattico-Veruno",
      "adresse": "ss. 142 Del Biellese km42+910 28013",
      "brand": "Api-Ip",
      "lat": 45.72560291782744,
      "lng": 8.494067192077637,
      "fuels": {
        "sp95": 1.919,
        "gazole": 2.059,
        "e85": 1.605
      }
    },
    {
      "id": "54457",
      "cp": "",
      "ville": "Ghemme",
      "adresse": "Papa Giovanni Xxiii 5 28074",
      "brand": "q8",
      "lat": 45.6014053,
      "lng": 8.4243892,
      "fuels": {
        "sp95": 1.919,
        "gazole": 2.069,
        "gplc": 0.749
      }
    },
    {
      "id": "8278",
      "cp": "",
      "ville": "Ghemme",
      "adresse": "Statale 299 Di alagna, km. 21,3, dir. Alagna  28074",
      "brand": "Agip Eni",
      "lat": 45.587958163623924,
      "lng": 8.429453372955322,
      "fuels": {
        "sp95": 1.929,
        "gazole": 2.029
      }
    },
    {
      "id": "51418",
      "cp": "",
      "ville": "Ghemme",
      "adresse": "Via Novara 160 28074",
      "brand": "Tamoil",
      "lat": 45.58960550792159,
      "lng": 8.427906910458432,
      "fuels": {
        "sp95": 1.929,
        "gazole": 2.079
      }
    },
    {
      "id": "61395",
      "cp": "",
      "ville": "Gozzano",
      "adresse": "Giuseppe Fava 62 28024",
      "brand": "Api-Ip",
      "lat": 45.75307672350134,
      "lng": 8.431802988052368,
      "fuels": {
        "sp95": 1.949,
        "gazole": 2.079
      }
    },
    {
      "id": "29804",
      "cp": "",
      "ville": "Gozzano",
      "adresse": "Ss 229 km. 36,020 - 28024",
      "brand": "Tamoil",
      "lat": 45.73764767924596,
      "lng": 8.439315855503082,
      "fuels": {
        "sp95": 1.959,
        "gazole": 2.079
      }
    },
    {
      "id": "28175",
      "cp": "",
      "ville": "Gozzano",
      "adresse": "Via Xxv Aprile 8 28024",
      "brand": "Api-Ip",
      "lat": 45.74276521133686,
      "lng": 8.435453474521637,
      "fuels": {
        "sp95": 1.959,
        "gazole": 2.099
      }
    },
    {
      "id": "39420",
      "cp": "",
      "ville": "Gozzano",
      "adresse": "Viale Parona 3 28024",
      "brand": "Agip Eni",
      "lat": 45.743771515559374,
      "lng": 8.433543741703033,
      "fuels": {
        "sp95": 1.979,
        "gazole": 2.099
      }
    },
    {
      "id": "39184",
      "cp": "",
      "ville": "Granozzo Con Monticello",
      "adresse": "s.p. 9 Novara Robbio Km 5+200  28060",
      "brand": "Agip Eni",
      "lat": 45.37925062544124,
      "lng": 8.578592240810394,
      "fuels": {
        "sp95": 1.879,
        "gazole": 1.979,
        "gplc": 0.674
      }
    },
    {
      "id": "63473",
      "cp": "",
      "ville": "Granozzo Con Monticello",
      "adresse": "Sp Novara - Robbio Km 5+200",
      "brand": "Economysrl",
      "lat": 45.37924345384649,
      "lng": 8.578598586996645,
      "fuels": {
        "sp95": 1.899,
        "gazole": 1.999,
        "gplc": 0.719
      }
    },
    {
      "id": "25502",
      "cp": "",
      "ville": "Grignasco",
      "adresse": "Peretti 11 28075",
      "brand": "Agip Eni",
      "lat": 45.67393863150705,
      "lng": 8.345312476158142,
      "fuels": {
        "sp95": 1.934,
        "gazole": 2.059
      }
    },
    {
      "id": "33169",
      "cp": "",
      "ville": "Grignasco",
      "adresse": "Via Iv Novembre 22 28075",
      "brand": "Esso",
      "lat": 45.67927667542936,
      "lng": 8.34009849933625,
      "fuels": {
        "sp95": 1.899,
        "gazole": 2.029
      }
    },
    {
      "id": "51824",
      "cp": "",
      "ville": "Grignasco",
      "adresse": "Via Iv Novembre 29 28075",
      "brand": "Tamoil",
      "lat": 45.68030986666079,
      "lng": 8.339023070699104,
      "fuels": {
        "sp95": 1.878,
        "gazole": 2.028
      }
    },
    {
      "id": "9956",
      "cp": "",
      "ville": "Invorio",
      "adresse": "Via Pulazzini 27 28045, Invorio (no) 27 28045",
      "brand": "Retitalia",
      "lat": 45.75934670075717,
      "lng": 8.485216498374939,
      "fuels": {
        "sp95": 1.919,
        "gazole": 2.029
      }
    },
    {
      "id": "61375",
      "cp": "",
      "ville": "Marano Ticino",
      "adresse": "ss32 Km 22+462 28040",
      "brand": "Pompe Bianche",
      "lat": 45.636731,
      "lng": 8.621992,
      "fuels": {
        "sp95": 1.869,
        "gazole": 2.019,
        "gplc": 0.669
      }
    },
    {
      "id": "17688",
      "cp": "",
      "ville": "Marano Ticino",
      "adresse": "Statale 32 ticinese, km. 22+362, dir. Novara - 28040",
      "brand": "Api-Ip",
      "lat": 45.6358830743925,
      "lng": 8.622824549674988,
      "fuels": {
        "sp95": 1.849,
        "gazole": 2.019,
        "gplc": 0.674
      }
    },
    {
      "id": "12299",
      "cp": "",
      "ville": "Miasino",
      "adresse": "Via Martelli 2 28010",
      "brand": "Tamoil",
      "lat": 45.80178862158393,
      "lng": 8.430174485464704,
      "fuels": {
        "sp95": 1.999,
        "gazole": 2.079
      }
    },
    {
      "id": "45627",
      "cp": "",
      "ville": "Momo",
      "adresse": "Sp 229 Km 12  28015",
      "brand": "Agip Eni",
      "lat": 45.55437291294031,
      "lng": 8.567601354397084,
      "fuels": {
        "sp95": 1.925,
        "gazole": 2.024,
        "e85": 1.629,
        "gplc": 0.699
      }
    },
    {
      "id": "56872",
      "cp": "",
      "ville": "Momo",
      "adresse": "Sr 229 km. 14+700  28015",
      "brand": "Agip Eni",
      "lat": 45.5737737,
      "lng": 8.5559174,
      "fuels": {
        "sp95": 1.925,
        "gazole": 2.024
      }
    },
    {
      "id": "55971",
      "cp": "",
      "ville": "Nebbiuno",
      "adresse": "Via Per Meina 19 28010",
      "brand": "Sommese Petroli",
      "lat": 45.799519,
      "lng": 8.52081,
      "fuels": {
        "sp95": 1.919,
        "gazole": 2.099
      }
    },
    {
      "id": "43629",
      "cp": "",
      "ville": "Novara",
      "adresse": "88 - Tangenziale Di novara, km. Km 5557, a4 Mi-To - 28100",
      "brand": "Api-Ip",
      "lat": 45.473906642568885,
      "lng": 8.649479775463078,
      "fuels": {
        "sp95": 1.899,
        "gazole": 2.099
      }
    },
    {
      "id": "53330",
      "cp": "",
      "ville": "Novara",
      "adresse": "Alessandro Volta 79/D 28100",
      "brand": "Esso",
      "lat": 45.44700373187933,
      "lng": 8.604927326516774,
      "fuels": {
        "sp95": 1.899,
        "gazole": 2.099
      }
    },
    {
      "id": "31411",
      "cp": "",
      "ville": "Novara",
      "adresse": "Autostrada a4 Torino-milano, dir. Milano-Torino",
      "brand": "Api-Ip",
      "lat": 45.46944614466569,
      "lng": 8.657451868057251,
      "fuels": {
        "sp95": 2.039,
        "gazole": 2.169,
        "e85": 1.439,
        "gplc": 0.875
      }
    },
    {
      "id": "37965",
      "cp": "",
      "ville": "Novara",
      "adresse": "Autostrada a4 Torino-milano, km. 89, dir. Milano - 28100",
      "brand": "Tamoil",
      "lat": 45.468334580874675,
      "lng": 8.660130813716478,
      "fuels": {
        "sp95": 2.029,
        "gazole": 2.159,
        "gplc": 0.859
      }
    },
    {
      "id": "62958",
      "cp": "",
      "ville": "Novara",
      "adresse": "Borgomanero",
      "brand": "Agip Eni",
      "lat": 45.68846,
      "lng": 8.474639,
      "fuels": {
        "sp95": 1.944,
        "gazole": 2.059
      }
    },
    {
      "id": "11743",
      "cp": "",
      "ville": "Novara",
      "adresse": "c.so Della Vittoria 95 28100",
      "brand": "q8",
      "lat": 45.46398435665939,
      "lng": 8.625396152114831,
      "fuels": {
        "sp95": 1.899,
        "gazole": 2.029
      }
    },
    {
      "id": "45956",
      "cp": "",
      "ville": "Novara",
      "adresse": "Corso Della Vittoria  60 28100",
      "brand": "Tamoil",
      "lat": 45.46473395667196,
      "lng": 8.625935980273653,
      "fuels": {
        "sp95": 1.899,
        "gazole": 2.029
      }
    },
    {
      "id": "39208",
      "cp": "",
      "ville": "Novara",
      "adresse": "Corso Della Vittoria 14/A 28100",
      "brand": "Agip Eni",
      "lat": 45.45549262718488,
      "lng": 8.623740524053574,
      "fuels": {
        "sp95": 1.909,
        "gazole": 1.994
      }
    },
    {
      "id": "24659",
      "cp": "",
      "ville": "Novara",
      "adresse": "Corso Della Vittoria 44 28100",
      "brand": "Api-Ip",
      "lat": 45.4588858898209,
      "lng": 8.624487171793021,
      "fuels": {
        "sp95": 1.909,
        "gazole": 2.059
      }
    },
    {
      "id": "26284",
      "cp": "",
      "ville": "Novara",
      "adresse": "Corso Milano 114 28100",
      "brand": "Agip Eni",
      "lat": 45.44307543554505,
      "lng": 8.653930127620697,
      "fuels": {
        "sp95": 1.949,
        "gazole": 2.059
      }
    },
    {
      "id": "39319",
      "cp": "",
      "ville": "Novara",
      "adresse": "Corso Milano 145 28100",
      "brand": "Metanauto Group",
      "lat": 45.44313189197797,
      "lng": 8.65909606218338,
      "fuels": {
        "e85": 1.33
      }
    },
    {
      "id": "11744",
      "cp": "",
      "ville": "Novara",
      "adresse": "Corso Milano 24/F 28100",
      "brand": "q8",
      "lat": 45.445719347804506,
      "lng": 8.637042157077758,
      "fuels": {
        "sp95": 1.939,
        "gazole": 2.059
      }
    },
    {
      "id": "52325",
      "cp": "",
      "ville": "Novara",
      "adresse": "Corso Milano 56/D 28100",
      "brand": "Esso",
      "lat": 45.444528715754736,
      "lng": 8.64461931437911,
      "fuels": {
        "sp95": 1.929,
        "gazole": 2.079
      }
    },
    {
      "id": "61683",
      "cp": "",
      "ville": "Novara",
      "adresse": "Corso Risorgimento 174 28100",
      "brand": "Agip Eni",
      "lat": 45.47273,
      "lng": 8.61357,
      "fuels": {
        "sp95": 1.934,
        "gazole": 2.059
      }
    },
    {
      "id": "52151",
      "cp": "",
      "ville": "Novara",
      "adresse": "Corso Risorgimento 18 28100",
      "brand": "Tamoil",
      "lat": 45.45539441115191,
      "lng": 8.61797372580591,
      "fuels": {
        "sp95": 1.868,
        "gazole": 2.068
      }
    },
    {
      "id": "63143",
      "cp": "",
      "ville": "Novara",
      "adresse": "Corso Risorgimento 26b  28100",
      "brand": "Esso",
      "lat": 45.45653979999999,
      "lng": 8.6177239,
      "fuels": {
        "sp95": 1.899,
        "gazole": 2.079
      }
    },
    {
      "id": "33776",
      "cp": "",
      "ville": "Novara",
      "adresse": "Corso Trieste 54b 28100",
      "brand": "Agip Eni",
      "lat": 45.44940850836902,
      "lng": 8.640518316671773,
      "fuels": {
        "sp95": 1.929,
        "gazole": 2.059
      }
    },
    {
      "id": "6548",
      "cp": "",
      "ville": "Novara",
      "adresse": "Corso Trieste 56/A 28100",
      "brand": "q8",
      "lat": 45.44972843182474,
      "lng": 8.641552414749867,
      "fuels": {
        "sp95": 1.879,
        "gazole": 2.029
      }
    },
    {
      "id": "54714",
      "cp": "",
      "ville": "Novara",
      "adresse": "Corso Vercelli 10  28100",
      "brand": "q8",
      "lat": 45.4375897,
      "lng": 8.6060805,
      "fuels": {
        "sp95": 1.899,
        "gazole": 2.029
      }
    },
    {
      "id": "55017",
      "cp": "",
      "ville": "Novara",
      "adresse": "Corso Vercelli 138  28100",
      "brand": "Agip Eni",
      "lat": 45.427086,
      "lng": 8.578184,
      "fuels": {
        "sp95": 1.959,
        "gazole": 2.049
      }
    },
    {
      "id": "11747",
      "cp": "",
      "ville": "Novara",
      "adresse": "Corso Vercelli 24 28100",
      "brand": "q8",
      "lat": 45.43660113694155,
      "lng": 8.60421183795927,
      "fuels": {
        "sp95": 1.899,
        "gazole": 2.019
      }
    },
    {
      "id": "63029",
      "cp": "",
      "ville": "Novara",
      "adresse": "Corso Vercelli 75  28100",
      "brand": "Esso",
      "lat": 45.4319552,
      "lng": 8.5940555,
      "fuels": {
        "sp95": 1.899,
        "gazole": 2.079
      }
    },
    {
      "id": "36613",
      "cp": "",
      "ville": "Novara",
      "adresse": "Corso Vercelli Angolo Viale Volta 12 28100",
      "brand": "Agip Eni",
      "lat": 45.43717560567321,
      "lng": 8.605551444152525,
      "fuels": {
        "sp95": 1.909,
        "gazole": 1.994
      }
    },
    {
      "id": "47335",
      "cp": "",
      "ville": "Novara",
      "adresse": "Corso Xxiii Marzo 188 28100",
      "brand": "q8",
      "lat": 45.43516024407655,
      "lng": 8.631497552618294,
      "fuels": {
        "sp95": 1.899,
        "gazole": 2.029
      }
    },
    {
      "id": "52324",
      "cp": "",
      "ville": "Novara",
      "adresse": "Corso Xxiii Marzo 206 28100",
      "brand": "Esso",
      "lat": 45.43362628349613,
      "lng": 8.633764780569607,
      "fuels": {
        "sp95": 1.929,
        "gazole": 2.079
      }
    },
    {
      "id": "17237",
      "cp": "",
      "ville": "Novara",
      "adresse": "Giulio Cesare 149 28100",
      "brand": "Agip Eni",
      "lat": 45.4347790563139,
      "lng": 8.621445260574319,
      "fuels": {
        "sp95": 1.949,
        "gazole": 2.059
      }
    },
    {
      "id": "56799",
      "cp": "",
      "ville": "Novara",
      "adresse": "Luigi Gherzi 15 28100",
      "brand": "Og Clean Fuels",
      "lat": 45.454214522946366,
      "lng": 8.648874406509199,
      "fuels": {
        "e85": 1.329
      }
    },
    {
      "id": "48227",
      "cp": "",
      "ville": "Novara",
      "adresse": "Monte Rosa 6 28100",
      "brand": "Agip Eni",
      "lat": 45.45032481643392,
      "lng": 8.601939364418042,
      "fuels": {
        "sp95": 1.919,
        "gazole": 2.024
      }
    },
    {
      "id": "55149",
      "cp": "",
      "ville": "Novara",
      "adresse": "ss703 Snc 28100",
      "brand": "Api-Ip",
      "lat": 45.4213547,
      "lng": 8.5840352,
      "fuels": {
        "sp95": 1.899,
        "gazole": 2.029
      }
    },
    {
      "id": "43634",
      "cp": "",
      "ville": "Novara",
      "adresse": "Strada prov. Per Fara  28064",
      "brand": "Europam",
      "lat": 45.53682794605346,
      "lng": 8.423163620272476,
      "fuels": {
        "sp95": 1.897,
        "gazole": 2.037
      }
    },
    {
      "id": "42355",
      "cp": "",
      "ville": "Novara",
      "adresse": "Tangenziale Est Case Sparse 53 28100",
      "brand": "Api-Ip",
      "lat": 45.476518388761335,
      "lng": 8.648417544668519,
      "fuels": {
        "sp95": 1.909,
        "gazole": 2.059
      }
    },
    {
      "id": "42352",
      "cp": "",
      "ville": "Novara",
      "adresse": "Tangenziale Est Due  28100",
      "brand": "Api-Ip",
      "lat": 45.449973627390506,
      "lng": 8.666063100099564,
      "fuels": {
        "sp95": 1.909,
        "gazole": 2.059
      }
    },
    {
      "id": "63222",
      "cp": "",
      "ville": "Novara",
      "adresse": "Tangenziale Est Strada Statale 703 Km 8+650 28100 Novara Snc",
      "brand": "Api-Ip",
      "lat": 45.449035888061246,
      "lng": 8.66714335799406,
      "fuels": {
        "sp95": 1.879,
        "gazole": 1.999,
        "gplc": 0.759
      }
    },
    {
      "id": "32041",
      "cp": "",
      "ville": "Novara",
      "adresse": "Trieste 46 28100",
      "brand": "Tamoil",
      "lat": 45.450187232417605,
      "lng": 8.64329919219017,
      "fuels": {
        "sp95": 1.929,
        "gazole": 2.039
      }
    },
    {
      "id": "21704",
      "cp": "",
      "ville": "Novara",
      "adresse": "v.le Europa 100 28100",
      "brand": "q8",
      "lat": 45.46406929400045,
      "lng": 8.609904590212977,
      "fuels": {
        "sp95": 1.899,
        "gazole": 2.059,
        "gplc": 0.744
      }
    },
    {
      "id": "50196",
      "cp": "",
      "ville": "Novara",
      "adresse": "Valsesia 50 28100",
      "brand": "Agip Eni",
      "lat": 45.454868930772165,
      "lng": 8.60035509706246,
      "fuels": {
        "sp95": 1.929,
        "gazole": 2.054
      }
    },
    {
      "id": "51026",
      "cp": "",
      "ville": "Novara",
      "adresse": "Via 23 Marzo 1849 482 28100",
      "brand": "Pompe Bianche",
      "lat": 45.41920163778996,
      "lng": 8.648385720007354,
      "fuels": {
        "sp95": 1.855,
        "gazole": 2.005,
        "gplc": 0.735
      }
    },
    {
      "id": "46715",
      "cp": "",
      "ville": "Novara",
      "adresse": "Via Bolori 14 28100",
      "brand": "Agip Eni",
      "lat": 45.467296719756995,
      "lng": 8.599705473013842,
      "fuels": {
        "sp95": 1.934,
        "gazole": 2.029,
        "gplc": 0.724
      }
    },
    {
      "id": "34964",
      "cp": "",
      "ville": "Novara",
      "adresse": "Via Delle Americhe  28100",
      "brand": "Vega",
      "lat": 45.468162344090175,
      "lng": 8.621968924999237,
      "fuels": {
        "sp95": 1.899,
        "gazole": 2.079,
        "gplc": 0.749
      }
    },
    {
      "id": "11746",
      "cp": "",
      "ville": "Novara",
      "adresse": "Via g.cesare 241 28100",
      "brand": "q8",
      "lat": 45.434943289608206,
      "lng": 8.613105364418061,
      "fuels": {
        "sp95": 1.899,
        "gazole": 2.039
      }
    },
    {
      "id": "54879",
      "cp": "",
      "ville": "Novara",
      "adresse": "Via Mario Pavesi  28100",
      "brand": "Esso",
      "lat": 45.46653984186392,
      "lng": 8.631698901152786,
      "fuels": {
        "sp95": 1.888,
        "gazole": 1.998,
        "gplc": 0.744
      }
    },
    {
      "id": "48470",
      "cp": "",
      "ville": "Novara",
      "adresse": "Via Pietro Generali 25 28100",
      "brand": "Greenfuelcompany",
      "lat": 45.429152421614965,
      "lng": 8.603957007270795,
      "fuels": {
        "sp95": 1.869,
        "gazole": 1.949,
        "e85": 1.549,
        "gplc": 0.759
      }
    },
    {
      "id": "36062",
      "cp": "",
      "ville": "Novara",
      "adresse": "Via Sforzesca 3 28100",
      "brand": "Api-Ip",
      "lat": 45.436651692236396,
      "lng": 8.633881813811286,
      "fuels": {
        "sp95": 1.929,
        "gazole": 2.079,
        "gplc": 0.751
      }
    },
    {
      "id": "48649",
      "cp": "",
      "ville": "Novara",
      "adresse": "Via Ugo Porzio Giovandola 15 28100",
      "brand": "Api-Ip",
      "lat": 45.44263553531069,
      "lng": 8.599180991401685,
      "fuels": {
        "sp95": 1.878,
        "gazole": 2.028
      }
    },
    {
      "id": "42961",
      "cp": "",
      "ville": "Novara",
      "adresse": "Via Xxiii  Marzo  364 28100",
      "brand": "Agip Eni",
      "lat": 45.42503694397231,
      "lng": 8.643836975062186,
      "fuels": {
        "sp95": 1.949,
        "gazole": 2.059
      }
    },
    {
      "id": "48483",
      "cp": "",
      "ville": "Novara",
      "adresse": "Viale Giulio Cesare 217 28100",
      "brand": "Pompe Bianche",
      "lat": 45.43493141078355,
      "lng": 8.614511457672132,
      "fuels": {
        "sp95": 1.888,
        "gazole": 2.019
      }
    },
    {
      "id": "61068",
      "cp": "",
      "ville": "Oleggio",
      "adresse": "ss32 Km 16+676  28047",
      "brand": "Tamoil",
      "lat": 45.5894953,
      "lng": 8.64250952,
      "fuels": {
        "sp95": 1.899,
        "gazole": 2.069
      }
    },
    {
      "id": "39209",
      "cp": "",
      "ville": "Oleggio",
      "adresse": "Via Novara 42 28047",
      "brand": "Agip Eni",
      "lat": 45.591435000308806,
      "lng": 8.638497942922186,
      "fuels": {
        "sp95": 1.944,
        "gazole": 2.059
      }
    },
    {
      "id": "60989",
      "cp": "",
      "ville": "Oleggio",
      "adresse": "Via Novara 78 28047",
      "brand": "Esso",
      "lat": 45.58875590252208,
      "lng": 8.6384779214859,
      "fuels": {
        "sp95": 1.869,
        "gazole": 2.029
      }
    },
    {
      "id": "45637",
      "cp": "",
      "ville": "Oleggio",
      "adresse": "Via s.s. 527 Km 2+688 Sn 28047, Oleggio (no) ss527 28047",
      "brand": "Tamoil",
      "lat": 45.591184000123,
      "lng": 8.672263000123,
      "fuels": {
        "sp95": 1.799,
        "gazole": 2.069
      }
    },
    {
      "id": "22500",
      "cp": "",
      "ville": "Oleggio",
      "adresse": "Via Valsesia 44 28047",
      "brand": "Api-Ip",
      "lat": 45.594871402835174,
      "lng": 8.623468675393724,
      "fuels": {
        "sp95": 1.849,
        "gazole": 2.019
      }
    },
    {
      "id": "50120",
      "cp": "",
      "ville": "Orta San Giulio",
      "adresse": "229 Del Lago D'orta, km. 44+165, Omegna - 28016",
      "brand": "Tamoil",
      "lat": 45.79781804487363,
      "lng": 8.418249958989579,
      "fuels": {
        "sp95": 1.629,
        "gazole": 1.589
      }
    },
    {
      "id": "47402",
      "cp": "",
      "ville": "Paruzzaro",
      "adresse": "Via Borgomanero 10 28040",
      "brand": "Agip Eni",
      "lat": 45.74571463482317,
      "lng": 8.522142511674135,
      "fuels": {
        "sp95": 1.944,
        "gazole": 2.054,
        "gplc": 0.719
      }
    },
    {
      "id": "31442",
      "cp": "",
      "ville": "Paruzzaro",
      "adresse": "Via Borgomanero s.s.142km 47+600 9/A 28040",
      "brand": "Vega",
      "lat": 45.72843463993083,
      "lng": 8.497560024261475,
      "fuels": {
        "sp95": 1.899,
        "gazole": 2.059,
        "gplc": 0.729
      }
    },
    {
      "id": "6421",
      "cp": "",
      "ville": "Pettenasco",
      "adresse": "Corso Roma 52 28028",
      "brand": "q8",
      "lat": 45.816538251193236,
      "lng": 8.408403037434368,
      "fuels": {
        "sp95": 1.959,
        "gazole": 2.059
      }
    },
    {
      "id": "51583",
      "cp": "",
      "ville": "Pisano",
      "adresse": "Via Circonvallazione 9 28010",
      "brand": "Api-Ip",
      "lat": 45.78744549192845,
      "lng": 8.505059459979975,
      "fuels": {
        "sp95": 1.969,
        "gazole": 2.149
      }
    },
    {
      "id": "54302",
      "cp": "",
      "ville": "Prato Sesia",
      "adresse": "Fra Dolcino 83 28077",
      "brand": "Keropetrol",
      "lat": 45.63960905322052,
      "lng": 8.377316507649757,
      "fuels": {
        "sp95": 1.869,
        "gazole": 1.999,
        "gplc": 0.749
      }
    },
    {
      "id": "5760",
      "cp": "",
      "ville": "Prato Sesia",
      "adresse": "Via s.p. Novara/Valsesia km. 2+480 - 28077, Prato Sesia (no)  28077",
      "brand": "Api-Ip",
      "lat": 45.656855225748025,
      "lng": 8.361800014972687,
      "fuels": {
        "sp95": 1.956,
        "gazole": 2.086,
        "gplc": 0.769
      }
    },
    {
      "id": "11749",
      "cp": "",
      "ville": "Romagnano Sesia",
      "adresse": "C/O Centro Commle Bennet S/N 28078",
      "brand": "q8",
      "lat": 45.61891500808657,
      "lng": 8.403135626983612,
      "fuels": {
        "sp95": 1.899,
        "gazole": 2.059
      }
    },
    {
      "id": "54524",
      "cp": "",
      "ville": "Romagnano Sesia",
      "adresse": "Roma 109 28078",
      "brand": "Gamma Petroli",
      "lat": 45.63821487340359,
      "lng": 8.377467972216778,
      "fuels": {
        "sp95": 1.879,
        "gazole": 2.079
      }
    },
    {
      "id": "61154",
      "cp": "",
      "ville": "Romentino",
      "adresse": "Tangenziale Ovest  Sn",
      "brand": "q8",
      "lat": 45.4688768,
      "lng": 9.2012544,
      "fuels": {
        "sp95": 1.849,
        "gazole": 2.019
      }
    },
    {
      "id": "28526",
      "cp": "",
      "ville": "San Maurizio D'Opaglio",
      "adresse": "Via Roma 88 28017",
      "brand": "Esso",
      "lat": 45.77314590409656,
      "lng": 8.391731644180254,
      "fuels": {
        "sp95": 1.919,
        "gazole": 2.089
      }
    },
    {
      "id": "46431",
      "cp": "",
      "ville": "San Maurizio D'Opaglio",
      "adresse": "Via Xxv Aprile 44 28017",
      "brand": "Agip Eni",
      "lat": 45.76712206569155,
      "lng": 8.408473758266382,
      "fuels": {
        "sp95": 1.944,
        "gazole": 2.059
      }
    },
    {
      "id": "31509",
      "cp": "",
      "ville": "San Pietro Mosezzo",
      "adresse": "s.p.novara Briandrate Km 3,165 13 28060",
      "brand": "Api-Ip",
      "lat": 45.45379589140723,
      "lng": 8.561219573020935,
      "fuels": {
        "sp95": 1.959,
        "gazole": 2.069
      }
    },
    {
      "id": "32432",
      "cp": "",
      "ville": "San Pietro Mosezzo",
      "adresse": "Via Roma 66 28060",
      "brand": "Api-Ip",
      "lat": 45.45375878670366,
      "lng": 8.547444193883166,
      "fuels": {
        "sp95": 1.898,
        "gazole": 1.998
      }
    },
    {
      "id": "39421",
      "cp": "",
      "ville": "Suno",
      "adresse": "s.r.229 Km 22 28019",
      "brand": "Agip Eni",
      "lat": 45.627187472046685,
      "lng": 8.509475737810135,
      "fuels": {
        "sp95": 1.954,
        "gazole": 2.059
      }
    },
    {
      "id": "58845",
      "cp": "",
      "ville": "Trecate",
      "adresse": "Italia Snc 28069",
      "brand": "q8",
      "lat": 45.43969,
      "lng": 8.75144,
      "fuels": {
        "sp95": 1.889,
        "gazole": 2.089
      }
    },
    {
      "id": "42755",
      "cp": "",
      "ville": "Trecate",
      "adresse": "Novara 97/H 28069",
      "brand": "Api-Ip",
      "lat": 45.43319220693398,
      "lng": 8.717942426155673,
      "fuels": {
        "sp95": 1.849,
        "gazole": 1.984
      }
    },
    {
      "id": "45067",
      "cp": "",
      "ville": "Trecate",
      "adresse": "Piazza Riccardo Cattaneo 11/A 28069",
      "brand": "Economysrl",
      "lat": 45.431199000123,
      "lng": 8.739827000123,
      "fuels": {
        "sp95": 1.848,
        "gazole": 1.988
      }
    },
    {
      "id": "61990",
      "cp": "",
      "ville": "Trecate",
      "adresse": "Roma 140 28069",
      "brand": "Agip Eni",
      "lat": 45.4354885,
      "lng": 8.7481206,
      "fuels": {
        "sp95": 1.909,
        "gazole": 2.029
      }
    },
    {
      "id": "54631",
      "cp": "",
      "ville": "Trecate",
      "adresse": "s.p. 4 Ovest Ticino Snc 28069",
      "brand": "Agip Eni",
      "lat": 45.44517,
      "lng": 8.78904,
      "fuels": {
        "sp95": 1.949,
        "gazole": 2.059,
        "e85": 1.624,
        "gplc": 0.749
      }
    },
    {
      "id": "33121",
      "cp": "",
      "ville": "Trecate",
      "adresse": "s.s. 11 Km 100,005 Sn 28069",
      "brand": "Tamoil",
      "lat": 45.44620018122547,
      "lng": 8.786627054214478,
      "fuels": {
        "sp95": 1.899,
        "gazole": 2.049
      }
    },
    {
      "id": "61851",
      "cp": "",
      "ville": "Trecate",
      "adresse": "Ss 11 Km 103+409 Snc 28069",
      "brand": "Esso",
      "lat": 45.435179253444105,
      "lng": 8.707644084944873,
      "fuels": {
        "sp95": 1.929,
        "gazole": 2.099
      }
    },
    {
      "id": "31457",
      "cp": "",
      "ville": "Trecate",
      "adresse": "Strada Regionale 11 Snc 28069",
      "brand": "Pompe Bianche",
      "lat": 45.44022204940769,
      "lng": 8.730399906635284,
      "fuels": {
        "sp95": 1.859,
        "gazole": 2.059
      }
    },
    {
      "id": "36615",
      "cp": "",
      "ville": "Trecate",
      "adresse": "Via Torino 70 28069",
      "brand": "Pompe Bianche",
      "lat": 45.443167644382875,
      "lng": 8.775389467459036,
      "fuels": {
        "gplc": 0.76
      }
    },
    {
      "id": "13247",
      "cp": "",
      "ville": "Trecate",
      "adresse": "Via Vigevano 14 28069",
      "brand": "Api-Ip",
      "lat": 45.44517012264805,
      "lng": 8.789040371775627,
      "fuels": {
        "sp95": 1.869,
        "gazole": 1.999
      }
    },
    {
      "id": "36433",
      "cp": "",
      "ville": "Varallo Pombia",
      "adresse": "Piazza Risorgimento 9 28040",
      "brand": "Api-Ip",
      "lat": 45.664965941482734,
      "lng": 8.628291720237712,
      "fuels": {
        "sp95": 1.889,
        "gazole": 2.099
      }
    },
    {
      "id": "37641",
      "cp": "",
      "ville": "Vespolate",
      "adresse": "s.p. 211 Lomellina  28079",
      "brand": "Tamoil",
      "lat": 45.36043600532839,
      "lng": 8.667282164096832,
      "fuels": {
        "sp95": 1.889,
        "gazole": 2.029,
        "e85": 1.599,
        "gplc": 0.799
      }
    },
    {
      "id": "38680",
      "cp": "",
      "ville": "Vicolungo",
      "adresse": "Via s.p.  15/A km. 0+800 Angolo Via Della Castagna - 28060, Vicolungo (no) Snc 28060",
      "brand": "Keropetrol",
      "lat": 45.470895252340576,
      "lng": 8.45726989209652,
      "fuels": {
        "sp95": 1.929,
        "gazole": 2.099,
        "gplc": 0.689
      }
    }
  ]
}