{
  "code": "OR",
  "name": "Oristano",
  "regionCode": "SAR",
  "regionName": "Sardegna",
  "asOf": "2026-07-21T14:27:49.522Z",
  "source": "https://www.mimit.gov.it/it/open-data/elenco-dataset/2032336-dataset-prezzi-carburanti",
  "stationCount": 65,
  "fuels": {
    "gazole": {
      "count": 64,
      "mean": 2.0967,
      "median": 2.099,
      "min": 2.019,
      "max": 2.196
    },
    "sp95": {
      "count": 65,
      "mean": 1.9356,
      "median": 1.929,
      "min": 1.889,
      "max": 2.039
    },
    "gplc": {
      "count": 11,
      "mean": 0.8108,
      "median": 0.799,
      "min": 0.749,
      "max": 0.866
    }
  },
  "stations": [
    {
      "id": "56115",
      "cp": "",
      "ville": "Abbasanta",
      "adresse": "s.s. 131 Lato Est km.122.7 09071",
      "brand": "Agip Eni",
      "lat": 40.11024,
      "lng": 8.79256,
      "fuels": {
        "sp95": 1.924,
        "gazole": 2.024
      }
    },
    {
      "id": "56116",
      "cp": "",
      "ville": "Abbasanta",
      "adresse": "s.s. 131 Lato Ovest Km 122,7 09071",
      "brand": "Agip Eni",
      "lat": 40.11024,
      "lng": 8.79256,
      "fuels": {
        "sp95": 1.944,
        "gazole": 2.074,
        "gplc": 0.762
      }
    },
    {
      "id": "16372",
      "cp": "",
      "ville": "Abbasanta",
      "adresse": "Via Sant'Agostino s.n.c. 09071",
      "brand": "q8",
      "lat": 40.12970923284904,
      "lng": 8.81028950214386,
      "fuels": {
        "sp95": 1.949,
        "gazole": 2.099
      }
    },
    {
      "id": "56468",
      "cp": "",
      "ville": "Ales",
      "adresse": "Via Umberto I - s.p. 46 Sn 09091",
      "brand": "Api-Ip",
      "lat": 39.76899,
      "lng": 8.81774,
      "fuels": {
        "sp95": 1.949,
        "gazole": 2.129
      }
    },
    {
      "id": "12801",
      "cp": "",
      "ville": "Arborea",
      "adresse": "Roma 8 09092",
      "brand": "Agip Eni",
      "lat": 39.76965644261587,
      "lng": 8.582612949737495,
      "fuels": {
        "sp95": 1.944,
        "gazole": 2.074
      }
    },
    {
      "id": "21753",
      "cp": "",
      "ville": "Bonarcado",
      "adresse": "Via Segni s.n. 09070",
      "brand": "Esso",
      "lat": 40.09188596925724,
      "lng": 8.655994087457657,
      "fuels": {
        "sp95": 1.949,
        "gazole": 2.099
      }
    },
    {
      "id": "45042",
      "cp": "",
      "ville": "Bosa",
      "adresse": "Via Gioberti Snc 09089",
      "brand": "q8",
      "lat": 40.29574100012,
      "lng": 8.500205000123,
      "fuels": {
        "sp95": 2.039,
        "gazole": 2.139
      }
    },
    {
      "id": "15970",
      "cp": "",
      "ville": "Bosa",
      "adresse": "Viale Alghero 26 08013",
      "brand": "Agip Eni",
      "lat": 40.29748358855091,
      "lng": 8.490579532575566,
      "fuels": {
        "sp95": 1.979,
        "gazole": 2.124
      }
    },
    {
      "id": "21270",
      "cp": "",
      "ville": "Cabras",
      "adresse": "Corso Italia 172 09072",
      "brand": "Api-Ip",
      "lat": 39.92427329106812,
      "lng": 8.538574704368557,
      "fuels": {
        "sp95": 1.919,
        "gazole": 2.099
      }
    },
    {
      "id": "61265",
      "cp": "",
      "ville": "Cabras",
      "adresse": "Martiri 5 09072",
      "brand": "Isola Gas",
      "lat": 39.92861024393629,
      "lng": 8.532470761524902,
      "fuels": {
        "sp95": 1.967,
        "gazole": 2.157
      }
    },
    {
      "id": "54529",
      "cp": "",
      "ville": "Cabras",
      "adresse": "Via Dell'Artigianato Snc 09072",
      "brand": "Pompe Bianche",
      "lat": 39.914455519175064,
      "lng": 8.541042668232505,
      "fuels": {
        "sp95": 1.996,
        "gazole": 2.196
      }
    },
    {
      "id": "44464",
      "cp": "",
      "ville": "Cuglieri",
      "adresse": "Piazza Littorio  09073",
      "brand": "q8",
      "lat": 40.187883576438814,
      "lng": 8.564596593343595,
      "fuels": {
        "sp95": 2.029,
        "gazole": 2.149
      }
    },
    {
      "id": "35865",
      "cp": "",
      "ville": "Cuglieri",
      "adresse": "Statale 292 Nord Occidentale sarda, km. 103, dir. Oristano - 09073",
      "brand": "Tamoil",
      "lat": 40.11103966965822,
      "lng": 8.490065732238804,
      "fuels": {
        "sp95": 1.929,
        "gazole": 2.089
      }
    },
    {
      "id": "36426",
      "cp": "",
      "ville": "Fordongianus",
      "adresse": "Via Terme Snc 09083",
      "brand": "Tamoil",
      "lat": 39.996607250837165,
      "lng": 8.810750842094421,
      "fuels": {
        "sp95": 1.929,
        "gazole": 2.099
      }
    },
    {
      "id": "47714",
      "cp": "",
      "ville": "Ghilarza",
      "adresse": "s.p.15 Snc 09074",
      "brand": "Pompe Bianche",
      "lat": 40.12166779589824,
      "lng": 8.855854110450743,
      "fuels": {
        "sp95": 1.947,
        "gazole": 2.157,
        "gplc": 0.839
      }
    },
    {
      "id": "52695",
      "cp": "",
      "ville": "Ghilarza",
      "adresse": "Strada Provinciale Per Sorgono Via Del Mandrolisai  2 09074",
      "brand": "Agip Eni",
      "lat": 40.12558,
      "lng": 8.842672,
      "fuels": {
        "sp95": 1.949,
        "gazole": 2.079
      }
    },
    {
      "id": "44509",
      "cp": "",
      "ville": "Gonnostramatza",
      "adresse": "Strada Provinciale 44 km.12 Sn 09093",
      "brand": "Isola Gas",
      "lat": 39.687938000123,
      "lng": 8.830126000123,
      "fuels": {
        "sp95": 1.939,
        "gazole": 2.127
      }
    },
    {
      "id": "28076",
      "cp": "",
      "ville": "Marrubiu",
      "adresse": "Napoli Sn 09094",
      "brand": "Pompe Bianche",
      "lat": 39.75624690145577,
      "lng": 8.645199537277222,
      "fuels": {
        "sp95": 1.952,
        "gazole": 2.192,
        "gplc": 0.866
      }
    },
    {
      "id": "34067",
      "cp": "",
      "ville": "Marrubiu",
      "adresse": "Via s.s. 131 Km 77,963 Lato Est Sn 09094, Marrubiu (or)  09094",
      "brand": "Costantin",
      "lat": 39.78396501208529,
      "lng": 8.655122369527817,
      "fuels": {
        "sp95": 1.909,
        "gazole": 2.089,
        "gplc": 0.799
      }
    },
    {
      "id": "34066",
      "cp": "",
      "ville": "Marrubiu",
      "adresse": "Via s.s. 131 Km 77,963 Lato Ovest Sn 09094, Marrubiu (or)  09094",
      "brand": "Costantin",
      "lat": 39.7838392801483,
      "lng": 8.653737008571625,
      "fuels": {
        "sp95": 1.909,
        "gazole": 2.089,
        "gplc": 0.799
      }
    },
    {
      "id": "11338",
      "cp": "",
      "ville": "Milis",
      "adresse": "km.  13,917 15 09070",
      "brand": "Agip Eni",
      "lat": 40.038830856643735,
      "lng": 8.63656338888552,
      "fuels": {
        "sp95": 1.944,
        "gazole": 2.074
      }
    },
    {
      "id": "46544",
      "cp": "",
      "ville": "Mogoro",
      "adresse": "131 Carlo felice, km. 63+300, Cagliari Sassari - 09095",
      "brand": "Agip Eni",
      "lat": 39.668246746876,
      "lng": 8.731355017888063,
      "fuels": {
        "sp95": 1.949,
        "gazole": 2.079
      }
    },
    {
      "id": "61102",
      "cp": "",
      "ville": "Mogoro",
      "adresse": "s.s. 131 km. 62,573  09095",
      "brand": "Fiamma 2000",
      "lat": 39.662604713998896,
      "lng": 8.735695942883032,
      "fuels": {
        "sp95": 1.937,
        "gazole": 2.067,
        "gplc": 0.779
      }
    },
    {
      "id": "14773",
      "cp": "",
      "ville": "Mogoro",
      "adresse": "Via Gramsci Sp 44  09095",
      "brand": "q8",
      "lat": 39.680442547567566,
      "lng": 8.771288841962814,
      "fuels": {
        "sp95": 1.979,
        "gazole": 2.119
      }
    },
    {
      "id": "61377",
      "cp": "",
      "ville": "Narbolia",
      "adresse": "Via Umberto 1",
      "brand": "q8",
      "lat": 40.04573690557,
      "lng": 8.571732737,
      "fuels": {
        "sp95": 1.899,
        "gazole": 2.069
      }
    },
    {
      "id": "57255",
      "cp": "",
      "ville": "Neoneli",
      "adresse": "Via Roma  09080",
      "brand": "Tamoil",
      "lat": 40.06595,
      "lng": 8.9477,
      "fuels": {
        "sp95": 1.929,
        "gazole": 2.099
      }
    },
    {
      "id": "28306",
      "cp": "",
      "ville": "Nurachi",
      "adresse": "s.s.292 Per Riola Km 120+455  09070",
      "brand": "q8",
      "lat": 39.981080071099136,
      "lng": 8.539367765676161,
      "fuels": {
        "sp95": 1.889,
        "gazole": 2.059
      }
    },
    {
      "id": "57093",
      "cp": "",
      "ville": "Oristano",
      "adresse": "Cagliari Snc 09170",
      "brand": "Isola Gas",
      "lat": 39.890551318896385,
      "lng": 8.599262422701827,
      "fuels": {
        "sp95": 1.967,
        "gazole": 2.147,
        "gplc": 0.859
      }
    },
    {
      "id": "12773",
      "cp": "",
      "ville": "Oristano",
      "adresse": "s.p. n. 1 km. 0,369 Sn 09170",
      "brand": "Beyfin",
      "lat": 39.92462660783538,
      "lng": 8.574887746032687,
      "fuels": {
        "sp95": 1.919,
        "gazole": 2.089
      }
    },
    {
      "id": "6696",
      "cp": "",
      "ville": "Oristano",
      "adresse": "sp70 Km 1 Oristano-Fenosu  Snc 09170",
      "brand": "q8",
      "lat": 39.90431932108915,
      "lng": 8.619881010620134,
      "fuels": {
        "sp95": 1.899,
        "gazole": 2.069
      }
    },
    {
      "id": "29940",
      "cp": "",
      "ville": "Oristano",
      "adresse": "Ss 292  09080",
      "brand": "Api-Ip",
      "lat": 39.94160822578977,
      "lng": 8.600291195106479,
      "fuels": {
        "sp95": 1.909,
        "gazole": 2.089,
        "gplc": 0.749
      }
    },
    {
      "id": "62386",
      "cp": "",
      "ville": "Oristano",
      "adresse": "Vandalino Casu Snc 09170",
      "brand": "Esso",
      "lat": 39.91182126043661,
      "lng": 8.60676648371748,
      "fuels": {
        "sp95": 1.899,
        "gazole": 2.029
      }
    },
    {
      "id": "34518",
      "cp": "",
      "ville": "Oristano",
      "adresse": "Via Cagliari 226 09170",
      "brand": "Esso",
      "lat": 39.90454691219705,
      "lng": 8.58823423498768,
      "fuels": {
        "sp95": 1.899,
        "gazole": 2.039
      }
    },
    {
      "id": "24474",
      "cp": "",
      "ville": "Oristano",
      "adresse": "Via Cagliari 36 09017",
      "brand": "Esso",
      "lat": 39.912502565245795,
      "lng": 8.5868239402771,
      "fuels": {
        "sp95": 1.929,
        "gazole": 2.129
      }
    },
    {
      "id": "23459",
      "cp": "",
      "ville": "Oristano",
      "adresse": "Via Cagliari 462 09170",
      "brand": "q8",
      "lat": 39.89608209059705,
      "lng": 8.595713750331925,
      "fuels": {
        "sp95": 1.899,
        "gazole": 2.069
      }
    },
    {
      "id": "62553",
      "cp": "",
      "ville": "Oristano",
      "adresse": "Via Cagliari 466  09170",
      "brand": "Agip Eni",
      "lat": 39.8945826,
      "lng": 8.5965571,
      "fuels": {
        "sp95": 1.929,
        "gazole": 2.079
      }
    },
    {
      "id": "58153",
      "cp": "",
      "ville": "Oristano",
      "adresse": "Via Cagliari 51  09170",
      "brand": "Agip Eni",
      "lat": 39.912178,
      "lng": 8.587308,
      "fuels": {
        "sp95": 1.929,
        "gazole": 2.079
      }
    },
    {
      "id": "6693",
      "cp": "",
      "ville": "Oristano",
      "adresse": "Via Solferino 33 09170",
      "brand": "q8",
      "lat": 39.90363764864987,
      "lng": 8.595446679167935,
      "fuels": {
        "sp95": 1.899,
        "gazole": 2.069
      }
    },
    {
      "id": "63145",
      "cp": "",
      "ville": "Oristano",
      "adresse": "Via Vandalino Casu 56  09170",
      "brand": "Esso",
      "lat": 39.91181957254015,
      "lng": 8.606749332868402,
      "fuels": {
        "sp95": 1.899,
        "gazole": 2.099
      }
    },
    {
      "id": "37540",
      "cp": "",
      "ville": "Paulilatino",
      "adresse": "Via nazionale, Piano Terra s.n. 09070",
      "brand": "Tamoil",
      "lat": 40.08961260504121,
      "lng": 8.76863345503807,
      "fuels": {
        "sp95": 1.929,
        "gazole": 2.099
      }
    },
    {
      "id": "57990",
      "cp": "",
      "ville": "Riola Sardo",
      "adresse": "Statale 292 09070",
      "brand": "Agip Eni",
      "lat": 39.97935362304526,
      "lng": 8.53663645406086,
      "fuels": {
        "sp95": 1.909,
        "gazole": 2.019
      }
    },
    {
      "id": "21269",
      "cp": "",
      "ville": "Riola Sardo",
      "adresse": "Statale 292 Nord Occidentale sarda, km. 118+100, dir. Nord - 09070",
      "brand": "Api-Ip",
      "lat": 40.00064808798956,
      "lng": 8.535803630948067,
      "fuels": {
        "sp95": 1.919,
        "gazole": 2.099
      }
    },
    {
      "id": "58960",
      "cp": "",
      "ville": "Samugheo",
      "adresse": "Kennedy Snc 09086",
      "brand": "Isola Gas",
      "lat": 39.94254,
      "lng": 8.93657,
      "fuels": {
        "sp95": 1.969,
        "gazole": 2.157,
        "gplc": 0.859
      }
    },
    {
      "id": "35829",
      "cp": "",
      "ville": "San Nicolò D'Arcidano",
      "adresse": "Viale Repubblica 164 09097",
      "brand": "Esso",
      "lat": 39.68082516298911,
      "lng": 8.649491157741522,
      "fuels": {
        "sp95": 1.969,
        "gazole": 2.149
      }
    },
    {
      "id": "27899",
      "cp": "",
      "ville": "San Vero Milis",
      "adresse": "San Vero Milis - s.p. 9 Km 19,000  09070",
      "brand": "Api-Ip",
      "lat": 40.00434658144757,
      "lng": 8.597705364418061,
      "fuels": {
        "sp95": 1.919,
        "gazole": 2.099
      }
    },
    {
      "id": "45772",
      "cp": "",
      "ville": "Santa Giusta",
      "adresse": "131 Carlo felice, km. 87+192, Sud - 09096",
      "brand": "Agip Eni",
      "lat": 39.86055556592945,
      "lng": 8.61292693599546,
      "fuels": {
        "sp95": 1.944,
        "gazole": 2.074
      }
    },
    {
      "id": "39072",
      "cp": "",
      "ville": "Santa Giusta",
      "adresse": "Via Giovanni Xxiii Snc 09170",
      "brand": "Esso",
      "lat": 39.87099916801926,
      "lng": 8.609474524855614,
      "fuels": {
        "sp95": 1.929,
        "gazole": 2.149
      }
    },
    {
      "id": "15208",
      "cp": "",
      "ville": "Santu Lussurgiu",
      "adresse": "Via San Giuseppe  09075",
      "brand": "Tamoil",
      "lat": 40.141376828877526,
      "lng": 8.659479937671449,
      "fuels": {
        "sp95": 1.929,
        "gazole": 2.099
      }
    },
    {
      "id": "4049",
      "cp": "",
      "ville": "Sedilo",
      "adresse": "s.s. 131 d.c.n.  Km 19,100  09076",
      "brand": "Fiamma 2000",
      "lat": 40.19091720389931,
      "lng": 8.979888260364532,
      "fuels": {
        "sp95": 1.899,
        "gazole": 2.059,
        "gplc": 0.749
      }
    },
    {
      "id": "55044",
      "cp": "",
      "ville": "Sedilo",
      "adresse": "Viale Martiri Della Liberta' Sn 09076, Sedilo (or) Sn 09076",
      "brand": "Pompe Bianche",
      "lat": 40.17149686463873,
      "lng": 8.930331063774103,
      "fuels": {
        "sp95": 1.939,
        "gazole": 2.129
      }
    },
    {
      "id": "56274",
      "cp": "",
      "ville": "Siamanna",
      "adresse": "Sardegna 2-4 09080",
      "brand": "Tamoil",
      "lat": 39.92116546373679,
      "lng": 8.756715372322068,
      "fuels": {
        "sp95": 1.999,
        "gazole": 2.099
      }
    },
    {
      "id": "41228",
      "cp": "",
      "ville": "Simaxis",
      "adresse": "s.s. 388 km. 7,075 Snc 09088",
      "brand": "Isola Gas",
      "lat": 39.92502474966883,
      "lng": 8.663748353719711,
      "fuels": {
        "sp95": 1.947,
        "gazole": 2.137,
        "gplc": 0.859
      }
    },
    {
      "id": "59008",
      "cp": "",
      "ville": "Simaxis",
      "adresse": "s.s. 388 km. 8,786  Snc",
      "brand": "Agip Eni",
      "lat": 39.931137,
      "lng": 8.6832695,
      "fuels": {
        "sp95": 1.949,
        "gazole": 2.079
      }
    },
    {
      "id": "47623",
      "cp": "",
      "ville": "Solarussa",
      "adresse": "Gramsci 39 09077",
      "brand": "Pompe Bianche",
      "lat": 39.955474190124576,
      "lng": 8.67540303608826,
      "fuels": {
        "sp95": 1.949,
        "gazole": 2.099
      }
    },
    {
      "id": "37631",
      "cp": "",
      "ville": "Suni",
      "adresse": "Statale 129 Trasversale sarda, km. 19, dir. Nuoro - 08010",
      "brand": "Esso",
      "lat": 40.28240980465883,
      "lng": 8.558975905179977,
      "fuels": {
        "sp95": 1.929,
        "gazole": 2.099
      }
    },
    {
      "id": "31475",
      "cp": "",
      "ville": "Suni",
      "adresse": "Statale 292 Nord Occidentale sarda, km. 72+926, dir. Tinnura - 08010",
      "brand": "Tamoil",
      "lat": 40.275582419154134,
      "lng": 8.550136685371399,
      "fuels": {
        "sp95": 1.959,
        "gazole": 2.099
      }
    },
    {
      "id": "19753",
      "cp": "",
      "ville": "Terralba",
      "adresse": "ss. 126 km. 112+887  09098",
      "brand": "q8",
      "lat": 39.724368670527554,
      "lng": 8.638197657077853,
      "fuels": {
        "sp95": 1.934,
        "gazole": 2.054
      }
    },
    {
      "id": "58529",
      "cp": "",
      "ville": "Terralba",
      "adresse": "Via Marceddi 16 09098",
      "brand": "Isola Gas",
      "lat": 39.72327846172841,
      "lng": 8.636044387445654,
      "fuels": {
        "sp95": 1.917,
        "gazole": 2.037
      }
    },
    {
      "id": "23021",
      "cp": "",
      "ville": "Terralba",
      "adresse": "Via Porcella 180 09098",
      "brand": "Agip Eni",
      "lat": 39.725716756511495,
      "lng": 8.637914457672082,
      "fuels": {
        "sp95": 1.944,
        "gazole": 2.074
      }
    },
    {
      "id": "5150",
      "cp": "",
      "ville": "Tramatza",
      "adresse": "Statale 131 Carlo felice, km. 102+933, dir. Est - 09070",
      "brand": "Esso",
      "lat": 39.99011667201604,
      "lng": 8.642851263284683,
      "fuels": {
        "sp95": 1.899,
        "gazole": 2.079
      }
    },
    {
      "id": "5151",
      "cp": "",
      "ville": "Tramatza",
      "adresse": "Statale 131 Carlo felice, km. 102+933, dir. Ovest - 09070",
      "brand": "Esso",
      "lat": 39.99009406710545,
      "lng": 8.641453832387924,
      "fuels": {
        "sp95": 1.929,
        "gazole": 2.129
      }
    },
    {
      "id": "55533",
      "cp": "",
      "ville": "Uras",
      "adresse": "Sp 47 Km 5.150  09099",
      "brand": "Costantin",
      "lat": 39.692722,
      "lng": 8.701682,
      "fuels": {
        "sp95": 1.909
      }
    },
    {
      "id": "61515",
      "cp": "",
      "ville": "Usellus",
      "adresse": "Via Eleonora d’arborea Snc 09090",
      "brand": "Api-Ip",
      "lat": 39.80181043248165,
      "lng": 8.853092193603516,
      "fuels": {
        "sp95": 1.897,
        "gazole": 2.087
      }
    },
    {
      "id": "12819",
      "cp": "",
      "ville": "Usellus",
      "adresse": "Via Quadrivio 1 09090",
      "brand": "Esso",
      "lat": 39.794758825649,
      "lng": 8.856989923942592,
      "fuels": {
        "sp95": 1.899,
        "gazole": 2.099
      }
    },
    {
      "id": "61514",
      "cp": "",
      "ville": "Villaurbana",
      "adresse": "Via v.emanuele Snc 09080",
      "brand": "Api-Ip",
      "lat": 39.888813347385145,
      "lng": 8.777110576629639,
      "fuels": {
        "sp95": 1.947,
        "gazole": 2.047
      }
    }
  ]
}