{
  "code": "PA",
  "name": "Palermo",
  "regionCode": "SIC",
  "regionName": "Sicilia",
  "asOf": "2026-07-19T18:37:08.641Z",
  "source": "https://www.mimit.gov.it/it/open-data/elenco-dataset/2032336-dataset-prezzi-carburanti",
  "stationCount": 390,
  "fuels": {
    "gazole": {
      "count": 388,
      "mean": 2.1265,
      "median": 2.139,
      "min": 1.887,
      "max": 2.59
    },
    "sp95": {
      "count": 385,
      "mean": 1.9781,
      "median": 1.969,
      "min": 1.755,
      "max": 2.58
    },
    "e85": {
      "count": 12,
      "mean": 1.9706,
      "median": 1.937,
      "min": 1.583,
      "max": 2.999
    },
    "gplc": {
      "count": 47,
      "mean": 0.7584,
      "median": 0.739,
      "min": 0.645,
      "max": 1.099
    }
  },
  "stations": [
    {
      "id": "18624",
      "cp": "",
      "ville": "Alia",
      "adresse": "Via Palermo 127 90021",
      "brand": "Api-Ip",
      "lat": 37.776737307506764,
      "lng": 13.709708428977706,
      "fuels": {
        "sp95": 2.097,
        "gazole": 2.237
      }
    },
    {
      "id": "62857",
      "cp": "",
      "ville": "Alia",
      "adresse": "Viale Della Regione Siciliana 3616  90121",
      "brand": "Esso",
      "lat": 38.13709679999999,
      "lng": 13.3303508,
      "fuels": {
        "sp95": 1.955,
        "gazole": 2.185
      }
    },
    {
      "id": "51825",
      "cp": "",
      "ville": "Alimena",
      "adresse": "Piazza Giovanni Xxiii Sn 90020, Alimena (pa) Sn 90020",
      "brand": "Sicilpetroli",
      "lat": 37.69282000951342,
      "lng": 14.114067631499058,
      "fuels": {
        "sp95": 1.909,
        "gazole": 2.129
      }
    },
    {
      "id": "12153",
      "cp": "",
      "ville": "Alimena",
      "adresse": "Via Resuttano  90020",
      "brand": "Sp Energia Siciliana",
      "lat": 37.6897520122872,
      "lng": 14.112167879623485,
      "fuels": {
        "sp95": 1.919,
        "gazole": 2.099
      }
    },
    {
      "id": "50824",
      "cp": "",
      "ville": "Aliminusa",
      "adresse": "Generale Grisanti Snc 90020",
      "brand": "q8",
      "lat": 37.86204189254564,
      "lng": 13.779628276824946,
      "fuels": {
        "sp95": 1.959,
        "gazole": 2.159
      }
    },
    {
      "id": "7494",
      "cp": "",
      "ville": "Altavilla Milicia",
      "adresse": "Via c. Colombo snc, 90010 Snc 90010",
      "brand": "Esso",
      "lat": 38.04526316900312,
      "lng": 13.551174402236938,
      "fuels": {
        "sp95": 1.939,
        "gazole": 2.179
      }
    },
    {
      "id": "24522",
      "cp": "",
      "ville": "Altavilla Milicia",
      "adresse": "Via Comunale  90010",
      "brand": "q8",
      "lat": 38.04561847942345,
      "lng": 13.551143987172054,
      "fuels": {
        "sp95": 1.909,
        "gazole": 2.109
      }
    },
    {
      "id": "60815",
      "cp": "",
      "ville": "Altofonte",
      "adresse": "s.s. 624 Km 4 + 770  Snc 90030",
      "brand": "Taoil",
      "lat": 38.05947506286021,
      "lng": 13.313257098197937,
      "fuels": {
        "sp95": 1.979,
        "gazole": 2.199
      }
    },
    {
      "id": "39990",
      "cp": "",
      "ville": "Altofonte",
      "adresse": "Via Del Fante  90030",
      "brand": "Agip Eni",
      "lat": 38.050728763727335,
      "lng": 13.308972269296646,
      "fuels": {
        "sp95": 1.979,
        "gazole": 2.104
      }
    },
    {
      "id": "54134",
      "cp": "",
      "ville": "Bagheria",
      "adresse": "Butera Snc 90011",
      "brand": "q8",
      "lat": 38.08610447627151,
      "lng": 13.505598970020161,
      "fuels": {
        "sp95": 1.979,
        "gazole": 2.149
      }
    },
    {
      "id": "36993",
      "cp": "",
      "ville": "Bagheria",
      "adresse": "Corso Baldassare Scaduto 85 90011",
      "brand": "Agip Eni",
      "lat": 38.09903999163175,
      "lng": 13.503350615501404,
      "fuels": {
        "sp95": 1.949,
        "gazole": 2.079,
        "gplc": 0.689
      }
    },
    {
      "id": "58970",
      "cp": "",
      "ville": "Bagheria",
      "adresse": "Papa Giovanni Xxiii Snc 90011",
      "brand": "Gan",
      "lat": 38.07731495722886,
      "lng": 13.517170634422655,
      "fuels": {
        "sp95": 1.979,
        "gazole": 2.149
      }
    },
    {
      "id": "42428",
      "cp": "",
      "ville": "Bagheria",
      "adresse": "Ramacca Snc 90011",
      "brand": "Tamoil",
      "lat": 38.08891612415581,
      "lng": 13.504139184951782,
      "fuels": {
        "sp95": 1.979,
        "gazole": 2.099
      }
    },
    {
      "id": "43986",
      "cp": "",
      "ville": "Bagheria",
      "adresse": "s.s.113 km. 249+080 Snc 90011",
      "brand": "q8",
      "lat": 38.09154645001254,
      "lng": 13.481559753417969,
      "fuels": {
        "sp95": 1.979,
        "gazole": 2.149,
        "gplc": 0.799
      }
    },
    {
      "id": "52294",
      "cp": "",
      "ville": "Bagheria",
      "adresse": "Via Bagnera 2 90011",
      "brand": "Pompe Bianche",
      "lat": 38.08883072632916,
      "lng": 13.500352104741355,
      "fuels": {
        "sp95": 1.959,
        "gazole": 2.089
      }
    },
    {
      "id": "33501",
      "cp": "",
      "ville": "Bagheria",
      "adresse": "Via Citta' Di Palermo 5 90011",
      "brand": "Agip Eni",
      "lat": 38.088292307877275,
      "lng": 13.500770330429077,
      "fuels": {
        "sp95": 1.949,
        "gazole": 2.079
      }
    },
    {
      "id": "47527",
      "cp": "",
      "ville": "Bagheria",
      "adresse": "Via Consolare 12 90011",
      "brand": "Eos",
      "lat": 38.08879791751814,
      "lng": 13.504841327667231,
      "fuels": {
        "sp95": 1.979,
        "gazole": 2.149
      }
    },
    {
      "id": "50240",
      "cp": "",
      "ville": "Bagheria",
      "adresse": "Via f.buttitta Sn 90011",
      "brand": "Lukoil",
      "lat": 38.07330193870318,
      "lng": 13.501983360717416,
      "fuels": {
        "sp95": 1.994,
        "gazole": 2.094
      }
    },
    {
      "id": "53043",
      "cp": "",
      "ville": "Bagheria",
      "adresse": "Via Federico Ii  90011",
      "brand": "Agip Eni",
      "lat": 38.08810252314023,
      "lng": 13.503401577472687,
      "fuels": {
        "sp95": 1.979,
        "gazole": 2.149
      }
    },
    {
      "id": "56070",
      "cp": "",
      "ville": "Bagheria",
      "adresse": "Via Fiume D'Italia Sn 90011, Bagheria (pa)  90011",
      "brand": "Sicilpetroli",
      "lat": 38.1064833902802,
      "lng": 13.500424325466156,
      "fuels": {
        "sp95": 1.959,
        "gazole": 2.099
      }
    },
    {
      "id": "34762",
      "cp": "",
      "ville": "Bagheria",
      "adresse": "Via ing. g.ppe Bagnera 24 90011",
      "brand": "Agip Eni",
      "lat": 38.08497281748931,
      "lng": 13.50126699668544,
      "fuels": {
        "sp95": 1.947,
        "gazole": 2.057
      }
    },
    {
      "id": "41201",
      "cp": "",
      "ville": "Bagheria",
      "adresse": "Via ing. Giuseppe Bagnera 60 90011",
      "brand": "Esso",
      "lat": 38.08869519481002,
      "lng": 13.500760829360956,
      "fuels": {
        "sp95": 1.949,
        "gazole": 2.089
      }
    },
    {
      "id": "48404",
      "cp": "",
      "ville": "Bagheria",
      "adresse": "Via Leonardo Sciascia Snc 90011",
      "brand": "Pompe Bianche",
      "lat": 38.06463781528475,
      "lng": 13.514174705522532,
      "fuels": {
        "sp95": 1.999,
        "gazole": 2.139,
        "gplc": 0.685
      }
    },
    {
      "id": "33574",
      "cp": "",
      "ville": "Bagheria",
      "adresse": "Via Papa Giovanni Xxiii 161 90011",
      "brand": "Pompe Bianche",
      "lat": 38.08581060985904,
      "lng": 13.513509168261749,
      "fuels": {
        "sp95": 1.969,
        "gazole": 2.139
      }
    },
    {
      "id": "53158",
      "cp": "",
      "ville": "Bagheria",
      "adresse": "Via Papa Giovanni Xxiii Snc 90011",
      "brand": "Dbcarburanti",
      "lat": 38.08381,
      "lng": 13.5156546,
      "fuels": {
        "sp95": 1.959,
        "gazole": 2.099
      }
    },
    {
      "id": "20340",
      "cp": "",
      "ville": "Bagheria",
      "adresse": "Via Papa giovanni,bagheria  90011",
      "brand": "q8",
      "lat": 38.08061840462841,
      "lng": 13.51760521531105,
      "fuels": {
        "sp95": 1.969,
        "gazole": 2.129
      }
    },
    {
      "id": "59604",
      "cp": "",
      "ville": "Bagheria",
      "adresse": "Via Passo Del Carretto 86  90011",
      "brand": "Agip Eni",
      "lat": 38.06959,
      "lng": 13.508675,
      "fuels": {
        "sp95": 1.949,
        "gazole": 2.079
      }
    },
    {
      "id": "51284",
      "cp": "",
      "ville": "Balestrate",
      "adresse": "187 Di Castellammare Del golfo, km. 57+000, Trapani - 90041",
      "brand": "Pompe Bianche",
      "lat": 38.05916896290119,
      "lng": 13.025974192328324,
      "fuels": {
        "sp95": 1.969,
        "gazole": 2.099,
        "gplc": 0.73
      }
    },
    {
      "id": "55456",
      "cp": "",
      "ville": "Balestrate",
      "adresse": "Madonna Del Ponte Lato Est 27 90041",
      "brand": "Rpetroli",
      "lat": 38.05183425295842,
      "lng": 13.009960949420929,
      "fuels": {
        "sp95": 2.019,
        "gazole": 2.149
      }
    },
    {
      "id": "33482",
      "cp": "",
      "ville": "Baucina",
      "adresse": "C/Da Passo Di Piede s.p.6  90020",
      "brand": "Esso",
      "lat": 37.92160964869795,
      "lng": 13.526303619146347,
      "fuels": {
        "sp95": 1.999,
        "gazole": 2.139
      }
    },
    {
      "id": "40322",
      "cp": "",
      "ville": "Belmonte Mezzagno",
      "adresse": "Piersanti Mattarella 14 90031",
      "brand": "Agip Eni",
      "lat": 38.04598282756764,
      "lng": 13.397548198699951,
      "fuels": {
        "sp95": 1.949,
        "gazole": 2.079
      }
    },
    {
      "id": "19518",
      "cp": "",
      "ville": "Bisacquino",
      "adresse": "Decano Di Vincenti 78 90032",
      "brand": "Agip Eni",
      "lat": 37.700217566114574,
      "lng": 13.264281208717756,
      "fuels": {
        "sp95": 1.959,
        "gazole": 2.074
      }
    },
    {
      "id": "54742",
      "cp": "",
      "ville": "Bolognetta",
      "adresse": "s.s. 121 Pa/Ag  km.240+393  90030",
      "brand": "Agip Eni",
      "lat": 37.97878,
      "lng": 13.45393,
      "fuels": {
        "sp95": 1.954,
        "gazole": 2.094
      }
    },
    {
      "id": "22269",
      "cp": "",
      "ville": "Bolognetta",
      "adresse": "Via s.p. 77 Bivio Marineo   90030",
      "brand": "Esso",
      "lat": 37.97157870145079,
      "lng": 13.454405665397644,
      "fuels": {
        "sp95": 1.959,
        "gazole": 2.139
      }
    },
    {
      "id": "14928",
      "cp": "",
      "ville": "Borgetto",
      "adresse": "Contrada Mazzarca S/P 135  90042",
      "brand": "Sp Energia Siciliana",
      "lat": 38.06765354987086,
      "lng": 13.15225213766098,
      "fuels": {
        "gplc": 1.099
      }
    },
    {
      "id": "46503",
      "cp": "",
      "ville": "Borgetto",
      "adresse": "Via Porta Palermo 1 90042",
      "brand": "q8",
      "lat": 38.05049348215544,
      "lng": 13.148735165596008,
      "fuels": {
        "sp95": 1.959,
        "gazole": 2.099
      }
    },
    {
      "id": "36481",
      "cp": "",
      "ville": "Borgetto",
      "adresse": "Via Vecchia Di Borgetto Snc 90042",
      "brand": "Pompe Bianche",
      "lat": 38.04801481616296,
      "lng": 13.132354170084,
      "fuels": {
        "sp95": 2.027,
        "gazole": 2.147
      }
    },
    {
      "id": "5629",
      "cp": "",
      "ville": "Caccamo",
      "adresse": "285  km. 13+0,60 Sx  90012",
      "brand": "Pompe Bianche",
      "lat": 37.91828095753367,
      "lng": 13.672986841725105,
      "fuels": {
        "sp95": 1.949,
        "gazole": 2.099,
        "gplc": 0.839
      }
    },
    {
      "id": "62030",
      "cp": "",
      "ville": "Caccamo",
      "adresse": "Via Porta Euracea Sn 90012",
      "brand": "Lukoil",
      "lat": 37.9320745,
      "lng": 13.667151,
      "fuels": {
        "sp95": 1.954,
        "gazole": 2.094
      }
    },
    {
      "id": "46833",
      "cp": "",
      "ville": "Caccamo",
      "adresse": "Via Termitana 55 90012",
      "brand": "q8",
      "lat": 37.93921473901198,
      "lng": 13.662257492542267,
      "fuels": {
        "sp95": 1.959,
        "gazole": 2.149
      }
    },
    {
      "id": "16131",
      "cp": "",
      "ville": "Caccamo",
      "adresse": "Via Via Termitana Bivio Circonvallazione Sn 90012, Caccamo (pa)  90012",
      "brand": "Pompe Bianche",
      "lat": 37.93417179540448,
      "lng": 13.661555467323069,
      "fuels": {
        "sp95": 1.899,
        "gazole": 2.199
      }
    },
    {
      "id": "50198",
      "cp": "",
      "ville": "Caltavuturo",
      "adresse": "120 Dell'Etna E Delle madonie, km. 29,800, Caltavuturo  90022",
      "brand": "Messina Carburanti",
      "lat": 37.81718869245987,
      "lng": 13.891192428241736,
      "fuels": {
        "sp95": 1.959,
        "gazole": 2.099
      }
    },
    {
      "id": "53325",
      "cp": "",
      "ville": "Campofelice Di Roccella",
      "adresse": "s.s.113 Km 201+328 Snc 90010",
      "brand": "Api-Ip",
      "lat": 38.1943808,
      "lng": 13.3234688,
      "fuels": {
        "sp95": 1.958,
        "gazole": 2.098
      }
    },
    {
      "id": "43981",
      "cp": "",
      "ville": "Campofelice Di Roccella",
      "adresse": "s.s.113 km.199+920 Snc 90010",
      "brand": "q8",
      "lat": 37.99483716861094,
      "lng": 13.886034166559966,
      "fuels": {
        "sp95": 1.989,
        "gazole": 2.149,
        "gplc": 0.859
      }
    },
    {
      "id": "16557",
      "cp": "",
      "ville": "Campofelice Di Roccella",
      "adresse": "ss113  90010",
      "brand": "Esso",
      "lat": 37.987566,
      "lng": 13.862591841,
      "fuels": {
        "sp95": 1.999,
        "gazole": 2.199
      }
    },
    {
      "id": "19507",
      "cp": "",
      "ville": "Campofelice Di Roccella",
      "adresse": "Statale 113 Settentrionale sicula, km. 205+0.50, dir. Cefalu'  90010",
      "brand": "Agip Eni",
      "lat": 37.977897018536304,
      "lng": 13.836998641490936,
      "fuels": {
        "sp95": 1.949,
        "gazole": 2.079
      }
    },
    {
      "id": "46193",
      "cp": "",
      "ville": "Campofelice Di Roccella",
      "adresse": "Via avv. Cipolla 15 90010",
      "brand": "q8",
      "lat": 37.992208467206595,
      "lng": 13.88469668513801,
      "fuels": {
        "sp95": 1.959,
        "gazole": 2.059
      }
    },
    {
      "id": "61207",
      "cp": "",
      "ville": "Campofiorito",
      "adresse": "Via Gramsci/Falcone E Borsellino s.n. 90030",
      "brand": "Pompe Bianche",
      "lat": 37.75326228,
      "lng": 13.26918551,
      "fuels": {
        "sp95": 1.959,
        "gazole": 2.079
      }
    },
    {
      "id": "47691",
      "cp": "",
      "ville": "Camporeale",
      "adresse": "Via Eugenio Montale 1 90043",
      "brand": "Esso",
      "lat": 37.890142000123,
      "lng": 13.098212000123,
      "fuels": {
        "sp95": 1.855,
        "gazole": 1.995
      }
    },
    {
      "id": "36754",
      "cp": "",
      "ville": "Capaci",
      "adresse": "Monsignor Siino ss113 Snc 90040",
      "brand": "Agip Eni",
      "lat": 38.170715062961925,
      "lng": 13.23363572359085,
      "fuels": {
        "sp95": 2.039,
        "gazole": 2.199,
        "gplc": 0.747
      }
    },
    {
      "id": "40104",
      "cp": "",
      "ville": "Capaci",
      "adresse": "Quattro Vanelle Ss 113  Snc 90040",
      "brand": "q8",
      "lat": 38.18100806816016,
      "lng": 13.246519714593887,
      "fuels": {
        "sp95": 2.039,
        "gazole": 2.199,
        "e85": 1.937
      }
    },
    {
      "id": "56899",
      "cp": "",
      "ville": "Capaci",
      "adresse": "Vittorio Emanuele 183 90040",
      "brand": "Agip Eni",
      "lat": 38.177857475822904,
      "lng": 13.243506784848034,
      "fuels": {
        "sp95": 2.039,
        "gazole": 2.199
      }
    },
    {
      "id": "48482",
      "cp": "",
      "ville": "Carini",
      "adresse": "113 Settentrionale sicula, km. 10, Carini - 90044",
      "brand": "Esso",
      "lat": 38.15765672735595,
      "lng": 13.198062752149568,
      "fuels": {
        "sp95": 1.999,
        "gazole": 2.199
      }
    },
    {
      "id": "18855",
      "cp": "",
      "ville": "Carini",
      "adresse": "Corso Italia  90044",
      "brand": "q8",
      "lat": 38.13906369662364,
      "lng": 13.186657120901486,
      "fuels": {
        "sp95": 1.929,
        "gazole": 2.059
      }
    },
    {
      "id": "38669",
      "cp": "",
      "ville": "Carini",
      "adresse": "Corso Italia  90044",
      "brand": "Pompe Bianche",
      "lat": 38.137594413256565,
      "lng": 13.186214938759804,
      "fuels": {
        "sp95": 1.935,
        "gazole": 2.079
      }
    },
    {
      "id": "39069",
      "cp": "",
      "ville": "Carini",
      "adresse": "Corso Italia 49 90044",
      "brand": "Agip Eni",
      "lat": 38.13648884917538,
      "lng": 13.18614050745964,
      "fuels": {
        "sp95": 1.949,
        "gazole": 2.059
      }
    },
    {
      "id": "42557",
      "cp": "",
      "ville": "Carini",
      "adresse": "Lungomare Cristoforo Colombo 881 90044",
      "brand": "Pompe Bianche",
      "lat": 38.17007937097069,
      "lng": 13.16874544285281,
      "fuels": {
        "sp95": 2.169,
        "gazole": 2.059
      }
    },
    {
      "id": "47099",
      "cp": "",
      "ville": "Carini",
      "adresse": "Piazza Vittoria  90044",
      "brand": "q8",
      "lat": 38.15901762061601,
      "lng": 13.17030742764473,
      "fuels": {
        "sp95": 1.959,
        "gazole": 2.089
      }
    },
    {
      "id": "40243",
      "cp": "",
      "ville": "Carini",
      "adresse": "Strada Vicinale Finaita Snc 90044",
      "brand": "q8",
      "lat": 38.1759300636686,
      "lng": 13.139779195189476,
      "fuels": {
        "sp95": 1.999,
        "gazole": 2.159
      }
    },
    {
      "id": "32762",
      "cp": "",
      "ville": "Carini",
      "adresse": "Via Angelo Morello  Snc 90044",
      "brand": "Pompe Bianche",
      "lat": 38.145062043512596,
      "lng": 13.174861818552017,
      "fuels": {
        "sp95": 1.894,
        "gazole": 2.044,
        "gplc": 0.739
      }
    },
    {
      "id": "42539",
      "cp": "",
      "ville": "Carini",
      "adresse": "Via Ciachea 35 90044",
      "brand": "q8",
      "lat": 38.1691177,
      "lng": 13.2170867,
      "fuels": {
        "sp95": 1.999,
        "gazole": 2.199,
        "gplc": 0.747
      }
    },
    {
      "id": "55569",
      "cp": "",
      "ville": "Carini",
      "adresse": "Via Don l. Sturzo Snc 90044",
      "brand": "Esso",
      "lat": 38.15448,
      "lng": 13.213436,
      "fuels": {
        "sp95": 1.999,
        "gazole": 2.199
      }
    },
    {
      "id": "55896",
      "cp": "",
      "ville": "Carini",
      "adresse": "Via Giacomo Matteotti 1  90044",
      "brand": "Esso",
      "lat": 38.133666267403264,
      "lng": 13.186143189668615,
      "fuels": {
        "sp95": 1.889,
        "gazole": 1.999
      }
    },
    {
      "id": "18469",
      "cp": "",
      "ville": "Carini",
      "adresse": "Via Palermo 39 90040",
      "brand": "Api-Ip",
      "lat": 38.13394770748831,
      "lng": 13.183041214942932,
      "fuels": {
        "sp95": 1.929,
        "gazole": 2.109
      }
    },
    {
      "id": "35482",
      "cp": "",
      "ville": "Castelbuono",
      "adresse": "Statale 286 Di castelbuono, km. 13+343, dir. Gangi  90013",
      "brand": "Agip Eni",
      "lat": 37.935630373218274,
      "lng": 14.091729372739792,
      "fuels": {
        "sp95": 1.949,
        "gazole": 2.059
      }
    },
    {
      "id": "40544",
      "cp": "",
      "ville": "Castelbuono",
      "adresse": "Via Cefalu' 92 90013",
      "brand": "q8",
      "lat": 37.9341374840075,
      "lng": 14.090236888568825,
      "fuels": {
        "sp95": 1.999,
        "gazole": 2.099
      }
    },
    {
      "id": "58860",
      "cp": "",
      "ville": "Casteldaccia",
      "adresse": "e. Alliata 26 90014",
      "brand": "q8",
      "lat": 38.04920762328108,
      "lng": 13.52507198609536,
      "fuels": {
        "sp95": 1.969,
        "gazole": 2.123
      }
    },
    {
      "id": "7677",
      "cp": "",
      "ville": "Casteldaccia",
      "adresse": "Via Enrico Alliata 81/C 90014",
      "brand": "Esso",
      "lat": 38.063357466271874,
      "lng": 13.536828607320786,
      "fuels": {
        "sp95": 1.999,
        "gazole": 2.239
      }
    },
    {
      "id": "47750",
      "cp": "",
      "ville": "Castellana Sicula",
      "adresse": "Corso Mazzini Snc 90020",
      "brand": "Agip Eni",
      "lat": 37.78554452089814,
      "lng": 14.038402271163939,
      "fuels": {
        "sp95": 1.979,
        "gazole": 2.104
      }
    },
    {
      "id": "8654",
      "cp": "",
      "ville": "Castronovo Di Sicilia",
      "adresse": "Statale 189 Della Valle Del platani, km. 17+200, dir. Agrigento - 90030",
      "brand": "Esso",
      "lat": 37.66835109663186,
      "lng": 13.654133677482605,
      "fuels": {
        "sp95": 1.997,
        "gazole": 1.917,
        "gplc": 0.9
      }
    },
    {
      "id": "56106",
      "cp": "",
      "ville": "Cefalà Diana",
      "adresse": "s.s.121 km.229+60  90030",
      "brand": "q8",
      "lat": 37.90939572984271,
      "lng": 13.477785412648208,
      "fuels": {
        "sp95": 1.999,
        "gazole": 2.189
      }
    },
    {
      "id": "42228",
      "cp": "",
      "ville": "Cefalù",
      "adresse": "113 Settentrionale sicula, km. 188, Messina - 90015",
      "brand": "Agip Eni",
      "lat": 38.03061033769025,
      "lng": 13.999751061201096,
      "fuels": {
        "sp95": 1.949,
        "gazole": 2.059,
        "e85": 1.786
      }
    },
    {
      "id": "50459",
      "cp": "",
      "ville": "Cefalù",
      "adresse": "Roma Snc 90015",
      "brand": "Esso",
      "lat": 38.03289456732866,
      "lng": 14.014618333759342,
      "fuels": {
        "sp95": 1.994,
        "gazole": 2.094
      }
    },
    {
      "id": "53156",
      "cp": "",
      "ville": "Cefalù",
      "adresse": "Via Del Iii Millennio Snc 90015",
      "brand": "Dbcarburanti",
      "lat": 38.0275955,
      "lng": 14.0097132,
      "fuels": {
        "sp95": 1.999,
        "gazole": 2.099,
        "e85": 2.999
      }
    },
    {
      "id": "43194",
      "cp": "",
      "ville": "Cerda",
      "adresse": "113 Settentrionale sicula, km. 7, Cerda - 90010",
      "brand": "Pompe Bianche",
      "lat": 37.905126004383895,
      "lng": 13.81421972066164,
      "fuels": {
        "sp95": 1.929,
        "gazole": 2.089
      }
    },
    {
      "id": "47728",
      "cp": "",
      "ville": "Chiusa Sclafani",
      "adresse": "Via s. Caterina Snc 90033",
      "brand": "q8",
      "lat": 37.680461954840744,
      "lng": 13.274380564689631,
      "fuels": {
        "sp95": 1.979,
        "gazole": 2.149
      }
    },
    {
      "id": "46214",
      "cp": "",
      "ville": "Ciminna",
      "adresse": "Corso Umberto I Snc 90023",
      "brand": "Eos",
      "lat": 37.89662655256046,
      "lng": 13.559354543685913,
      "fuels": {
        "sp95": 1.999,
        "gazole": 2.149
      }
    },
    {
      "id": "50464",
      "cp": "",
      "ville": "Cinisi",
      "adresse": "Corso Umberto 345/v. Venuti  90045",
      "brand": "q8",
      "lat": 38.160755254484044,
      "lng": 13.103351705522535,
      "fuels": {
        "sp95": 1.989,
        "gazole": 2.109
      }
    },
    {
      "id": "56041",
      "cp": "",
      "ville": "Cinisi",
      "adresse": "Nazionale s.s.113 Snc 90045",
      "brand": "Api-Ip",
      "lat": 38.16471946477896,
      "lng": 13.106099417535772,
      "fuels": {
        "sp95": 2.027,
        "gazole": 2.147
      }
    },
    {
      "id": "56882",
      "cp": "",
      "ville": "Cinisi",
      "adresse": "s.s. 113 Km 289+533 Snc 90045",
      "brand": "Pompe Bianche",
      "lat": 38.1762149,
      "lng": 13.1308592,
      "fuels": {
        "sp95": 1.988,
        "gazole": 2.108
      }
    },
    {
      "id": "39242",
      "cp": "",
      "ville": "Cinisi",
      "adresse": "Via a.moro  90045",
      "brand": "Esso",
      "lat": 38.17225522655147,
      "lng": 13.110166937112808,
      "fuels": {
        "sp95": 1.999,
        "gazole": 1.999,
        "gplc": 0.799
      }
    },
    {
      "id": "8716",
      "cp": "",
      "ville": "Collesano",
      "adresse": "Strada Provinciale n.9 Km 11+510  90016",
      "brand": "Agip Eni",
      "lat": 37.92239145735142,
      "lng": 13.92505556344986,
      "fuels": {
        "sp95": 1.949,
        "gazole": 2.079
      }
    },
    {
      "id": "17707",
      "cp": "",
      "ville": "Corleone",
      "adresse": "Corso Dei Mille 2/A 90034",
      "brand": "q8",
      "lat": 37.816963930518,
      "lng": 13.297295168717255,
      "fuels": {
        "sp95": 1.998,
        "gazole": 2.197
      }
    },
    {
      "id": "31421",
      "cp": "",
      "ville": "Corleone",
      "adresse": "Via Giuseppe Verdi 50 90034",
      "brand": "Pompe Bianche",
      "lat": 37.82129333282633,
      "lng": 13.294263414103531,
      "fuels": {
        "sp95": 1.942,
        "gazole": 2.186
      }
    },
    {
      "id": "59734",
      "cp": "",
      "ville": "Corleone",
      "adresse": "Via Santa Lucia Gia' Largo Cappuccini  Snc",
      "brand": "Agip Eni",
      "lat": 37.81511,
      "lng": 13.29678,
      "fuels": {
        "sp95": 1.949,
        "gazole": 2.079
      }
    },
    {
      "id": "18870",
      "cp": "",
      "ville": "Gangi",
      "adresse": "Contrada Santa Caterina Sn 90024",
      "brand": "Esso",
      "lat": 37.78506710523204,
      "lng": 14.201653003692627,
      "fuels": {
        "sp95": 1.897,
        "gazole": 1.997,
        "gplc": 0.819
      }
    },
    {
      "id": "53635",
      "cp": "",
      "ville": "Gangi",
      "adresse": "Nazionale 212/A 90024",
      "brand": "Agip Eni",
      "lat": 37.79348099120723,
      "lng": 14.20607927383747,
      "fuels": {
        "sp95": 1.949,
        "gazole": 2.059
      }
    },
    {
      "id": "33419",
      "cp": "",
      "ville": "Gangi",
      "adresse": "s.s.120 Km 80+676 Sn 90024",
      "brand": "Pompe Bianche",
      "lat": 37.79794878973098,
      "lng": 14.20122116804123,
      "fuels": {
        "sp95": 1.899,
        "gazole": 2.03
      }
    },
    {
      "id": "42737",
      "cp": "",
      "ville": "Geraci Siculo",
      "adresse": "286 Di castelbuono, km. 35+325, Geraci - Castelbuono  90010",
      "brand": "Eos",
      "lat": 37.86427088437559,
      "lng": 14.15430723229997,
      "fuels": {
        "sp95": 1.909,
        "gazole": 1.969
      }
    },
    {
      "id": "46788",
      "cp": "",
      "ville": "Giardinello",
      "adresse": "Mazzini Snc 90040",
      "brand": "Tamoil",
      "lat": 38.08607578880598,
      "lng": 13.151421295700857,
      "fuels": {
        "sp95": 1.999,
        "gazole": 2.099
      }
    },
    {
      "id": "54253",
      "cp": "",
      "ville": "Giuliana",
      "adresse": "Papa Giovanni Xxii Snc 90030",
      "brand": "Tamoil",
      "lat": 37.672982,
      "lng": 13.2368707,
      "fuels": {
        "sp95": 1.959,
        "gazole": 2.099
      }
    },
    {
      "id": "25818",
      "cp": "",
      "ville": "Gratteri",
      "adresse": "Sp 28 Km 13 +850  90010",
      "brand": "Esso",
      "lat": 37.96920349102368,
      "lng": 13.97257878747132,
      "fuels": {
        "sp95": 1.989,
        "gazole": 2.099
      }
    },
    {
      "id": "41064",
      "cp": "",
      "ville": "Isnello",
      "adresse": "Via Collesano Snc 90010",
      "brand": "Api-Ip",
      "lat": 37.94178169903374,
      "lng": 14.005767482999772,
      "fuels": {
        "sp95": 2.057,
        "gazole": 2.197
      }
    },
    {
      "id": "50670",
      "cp": "",
      "ville": "Isola Delle Femmine",
      "adresse": "Lungomare Eufemio Snc 90040",
      "brand": "Pompe Bianche",
      "lat": 38.198965270051474,
      "lng": 13.246674385460238,
      "fuels": {
        "sp95": 1.999,
        "gazole": 2.099
      }
    },
    {
      "id": "46502",
      "cp": "",
      "ville": "Isola Delle Femmine",
      "adresse": "s.s. 113 snc, Isola Delle Femmine   90040",
      "brand": "q8",
      "lat": 38.19968721572815,
      "lng": 13.256935477256775,
      "fuels": {
        "sp95": 1.989,
        "gazole": 2.149
      }
    },
    {
      "id": "49432",
      "cp": "",
      "ville": "Isola Delle Femmine",
      "adresse": "Via Palermo Snc 90040",
      "brand": "Eos",
      "lat": 38.19862598358429,
      "lng": 13.250447930873186,
      "fuels": {
        "sp95": 1.989,
        "gazole": 2.149
      }
    },
    {
      "id": "59720",
      "cp": "",
      "ville": "Lascari",
      "adresse": "Bellini/Via Dante Snc 90010",
      "brand": "Agip Eni",
      "lat": 38.00248606427414,
      "lng": 13.93715499286348,
      "fuels": {
        "sp95": 1.959,
        "gazole": 2.099
      }
    },
    {
      "id": "53357",
      "cp": "",
      "ville": "Lercara Friddi",
      "adresse": "Carlo Alberto Dalla Chiesa Sn 90025",
      "brand": "Esso",
      "lat": 37.7513568,
      "lng": 13.5983137,
      "fuels": {
        "sp95": 1.949,
        "gazole": 2.149
      }
    },
    {
      "id": "48526",
      "cp": "",
      "ville": "Mezzojuso",
      "adresse": "Piazza Umberto I Snc 90030",
      "brand": "q8",
      "lat": 37.86659454791803,
      "lng": 13.467086553573603,
      "fuels": {
        "sp95": 1.999,
        "gazole": 2.189
      }
    },
    {
      "id": "58649",
      "cp": "",
      "ville": "Mezzojuso",
      "adresse": "s.s. 121 Km 217 + 100  90030",
      "brand": "Agip Eni",
      "lat": 37.836242283440974,
      "lng": 13.535478115081787,
      "fuels": {
        "sp95": 2.017,
        "gazole": 2.197,
        "gplc": 0.719
      }
    },
    {
      "id": "21421",
      "cp": "",
      "ville": "Mezzojuso",
      "adresse": "Statale 121 catanese, km. 221,700, dir. Palermo - 90030",
      "brand": "Esso",
      "lat": 37.86864546822505,
      "lng": 13.506539762020111,
      "fuels": {
        "sp95": 1.999,
        "gazole": 2.149
      }
    },
    {
      "id": "42494",
      "cp": "",
      "ville": "Misilmeri",
      "adresse": "121 catanese, km. 246+741, Palermo - 90036",
      "brand": "Pompe Bianche",
      "lat": 38.03299028601496,
      "lng": 13.458018600940704,
      "fuels": {
        "sp95": 1.999,
        "gazole": 2.199,
        "gplc": 0.717
      }
    },
    {
      "id": "40533",
      "cp": "",
      "ville": "Misilmeri",
      "adresse": "Corso Vittorio Emanuele 552 90036",
      "brand": "Agip Eni",
      "lat": 38.02580422573137,
      "lng": 13.447573177909817,
      "fuels": {
        "sp95": 1.949,
        "gazole": 2.059
      }
    },
    {
      "id": "41766",
      "cp": "",
      "ville": "Misilmeri",
      "adresse": "Europa 193 90036",
      "brand": "Pompe Bianche",
      "lat": 38.03333971892869,
      "lng": 13.453440740704536,
      "fuels": {
        "sp95": 1.999,
        "gazole": 2.149
      }
    },
    {
      "id": "59669",
      "cp": "",
      "ville": "Misilmeri",
      "adresse": "Gaetano Scarpello 75 90036",
      "brand": "q8",
      "lat": 38.04036589764713,
      "lng": 13.459711979536953,
      "fuels": {
        "sp95": 1.999,
        "gazole": 2.199
      }
    },
    {
      "id": "56894",
      "cp": "",
      "ville": "Misilmeri",
      "adresse": "s.s 121 Km 250+416 Sx Snc 90036",
      "brand": "Agip Eni",
      "lat": 38.06584,
      "lng": 13.4605,
      "fuels": {
        "sp95": 2.039,
        "gazole": 2.199,
        "gplc": 0.717
      }
    },
    {
      "id": "42204",
      "cp": "",
      "ville": "Misilmeri",
      "adresse": "s.s.121 km. 250+326 Snc 90036",
      "brand": "q8",
      "lat": 38.06506038765392,
      "lng": 13.461384773254395,
      "fuels": {
        "sp95": 1.999,
        "gazole": 2.199,
        "gplc": 0.717
      }
    },
    {
      "id": "33305",
      "cp": "",
      "ville": "Misilmeri",
      "adresse": "Statale 121 catanese, km. 244+75, dir. Ag - 90036",
      "brand": "Pompe Bianche",
      "lat": 38.01566126907777,
      "lng": 13.453568816184998,
      "fuels": {
        "sp95": 1.999,
        "gazole": 2.199,
        "e85": 1.899,
        "gplc": 0.717
      }
    },
    {
      "id": "33306",
      "cp": "",
      "ville": "Misilmeri",
      "adresse": "Viale Europa 131 90036",
      "brand": "Pompe Bianche",
      "lat": 38.03632231248959,
      "lng": 13.457850159134296,
      "fuels": {
        "sp95": 1.999,
        "gazole": 2.199
      }
    },
    {
      "id": "34863",
      "cp": "",
      "ville": "Monreale",
      "adresse": "c.da Lenzitti 12 90046",
      "brand": "q8",
      "lat": 38.064748061647364,
      "lng": 13.26678179204464,
      "fuels": {
        "sp95": 1.999,
        "gazole": 2.149
      }
    },
    {
      "id": "48607",
      "cp": "",
      "ville": "Monreale",
      "adresse": "Della Repubblica (ex Zeta 7) Snc 90046",
      "brand": "Agip Eni",
      "lat": 38.07919656304128,
      "lng": 13.28668279933666,
      "fuels": {
        "sp95": 2.027,
        "gazole": 2.147
      }
    },
    {
      "id": "50714",
      "cp": "",
      "ville": "Monreale",
      "adresse": "fraz. Pioppo – s.s. 186 Km 13+412,50  90046",
      "brand": "q8",
      "lat": 38.04974577601792,
      "lng": 13.235536813735957,
      "fuels": {
        "sp95": 1.999,
        "gazole": 2.149
      }
    },
    {
      "id": "13440",
      "cp": "",
      "ville": "Monreale",
      "adresse": "Via Circonvallazione 60 90046",
      "brand": "Agip Eni",
      "lat": 38.07795361376547,
      "lng": 13.293952191401672,
      "fuels": {
        "sp95": 1.949,
        "gazole": 2.059
      }
    },
    {
      "id": "47897",
      "cp": "",
      "ville": "Monreale",
      "adresse": "Via Circonvallazione ss186 km5 Sn 90046",
      "brand": "q8",
      "lat": 38.06476602341358,
      "lng": 13.266806006431574,
      "fuels": {
        "sp95": 1.999,
        "gazole": 2.149
      }
    },
    {
      "id": "51856",
      "cp": "",
      "ville": "Monreale",
      "adresse": "Via Vittorio Emanuele Snc 90046",
      "brand": "Api-Ip",
      "lat": 37.95265664773182,
      "lng": 13.092292374859253,
      "fuels": {
        "sp95": 1.927,
        "gazole": 2.147
      }
    },
    {
      "id": "42205",
      "cp": "",
      "ville": "Montelepre",
      "adresse": "s.p.1 km17,300 loc. La Madonna Snc 90040",
      "brand": "Eos",
      "lat": 38.091166546174826,
      "lng": 13.179221685697144,
      "fuels": {
        "sp95": 1.979,
        "gazole": 2.149
      }
    },
    {
      "id": "47532",
      "cp": "",
      "ville": "Montemaggiore Belsito",
      "adresse": "Via Tripi 10 90020",
      "brand": "q8",
      "lat": 37.84994104987144,
      "lng": 13.764371871948237,
      "fuels": {
        "sp95": 1.999,
        "gazole": 2.199
      }
    },
    {
      "id": "60548",
      "cp": "",
      "ville": "Palazzo Adriano",
      "adresse": "Vittorio Veneto Snc 90030",
      "brand": "Pompe Bianche",
      "lat": 37.681406,
      "lng": 13.381326,
      "fuels": {
        "sp95": 1.999,
        "gazole": 2.139
      }
    },
    {
      "id": "51398",
      "cp": "",
      "ville": "Palermo",
      "adresse": "Acquasanta Porto Turistico Marina Di Villa Igiea Snc 90142",
      "brand": "Api-Ip",
      "lat": 38.14412616189906,
      "lng": 13.372153043746948,
      "fuels": {
        "sp95": 1.927,
        "gazole": 1.887
      }
    },
    {
      "id": "55486",
      "cp": "",
      "ville": "Palermo",
      "adresse": "Alessandro Vanni 1 90134",
      "brand": "Agip Eni",
      "lat": 38.10953269051738,
      "lng": 13.356796401622537,
      "fuels": {
        "sp95": 1.997,
        "gazole": 2.097
      }
    },
    {
      "id": "36873",
      "cp": "",
      "ville": "Palermo",
      "adresse": "Alla Falconara (baida) Snc 90136",
      "brand": "Api-Ip",
      "lat": 38.11792006976579,
      "lng": 13.289036750793457,
      "fuels": {
        "sp95": 2.027,
        "gazole": 2.147
      }
    },
    {
      "id": "36888",
      "cp": "",
      "ville": "Palermo",
      "adresse": "Ammiraglio Rizzo Snc 90146",
      "brand": "Api-Ip",
      "lat": 38.14377095449575,
      "lng": 13.36097498524737,
      "fuels": {
        "sp95": 2.027,
        "gazole": 2.147
      }
    },
    {
      "id": "59702",
      "cp": "",
      "ville": "Palermo",
      "adresse": "c.so Calatafimi 1057 90132",
      "brand": "Esso",
      "lat": 38.09626,
      "lng": 13.3125,
      "fuels": {
        "sp95": 1.949,
        "gazole": 2.129
      }
    },
    {
      "id": "36868",
      "cp": "",
      "ville": "Palermo",
      "adresse": "Calatafimi 431/433 90129",
      "brand": "Api-Ip",
      "lat": 38.10619169905658,
      "lng": 13.337864302425272,
      "fuels": {
        "sp95": 2.027,
        "gazole": 2.147
      }
    },
    {
      "id": "17527",
      "cp": "",
      "ville": "Palermo",
      "adresse": "Campania 55 90144",
      "brand": "Api-Ip",
      "lat": 38.14619780438535,
      "lng": 13.338157869808242,
      "fuels": {
        "sp95": 1.927,
        "gazole": 2.147
      }
    },
    {
      "id": "31328",
      "cp": "",
      "ville": "Palermo",
      "adresse": "Campania Snc 90144",
      "brand": "Tamoil",
      "lat": 38.14575999578302,
      "lng": 13.33847411375973,
      "fuels": {
        "sp95": 1.889,
        "gazole": 2.069
      }
    },
    {
      "id": "48260",
      "cp": "",
      "ville": "Palermo",
      "adresse": "Ciaculli Snc 90124",
      "brand": "Tamoil",
      "lat": 38.078138604409496,
      "lng": 13.402602782209016,
      "fuels": {
        "sp95": 1.889,
        "gazole": 2.069
      }
    },
    {
      "id": "48876",
      "cp": "",
      "ville": "Palermo",
      "adresse": "Circonvallazione Rocca (direz. monreale) Snc 90139",
      "brand": "Agip Eni",
      "lat": 38.090372466449125,
      "lng": 13.30448927371421,
      "fuels": {
        "sp95": 2.027,
        "gazole": 2.147,
        "gplc": 0.747
      }
    },
    {
      "id": "50156",
      "cp": "",
      "ville": "Palermo",
      "adresse": "Corso Calatafimi 1031/B 90131",
      "brand": "Agip Eni",
      "lat": 38.09812914276462,
      "lng": 13.317835619190978,
      "fuels": {
        "sp95": 1.934,
        "gazole": 2.064
      }
    },
    {
      "id": "51793",
      "cp": "",
      "ville": "Palermo",
      "adresse": "Corso Calatafimi 1035 90131",
      "brand": "q8",
      "lat": 38.09749807107217,
      "lng": 13.316035196185112,
      "fuels": {
        "sp95": 1.939,
        "gazole": 2.099
      }
    },
    {
      "id": "48761",
      "cp": "",
      "ville": "Palermo",
      "adresse": "Corso Dei Mille  1484 B 90121",
      "brand": "Dp Carburanti",
      "lat": 38.091045332948816,
      "lng": 13.414231023313507,
      "fuels": {
        "sp95": 1.927,
        "gazole": 2.097
      }
    },
    {
      "id": "53045",
      "cp": "",
      "ville": "Palermo",
      "adresse": "Corso Dei Mille  90123",
      "brand": "Agip Eni",
      "lat": 38.10432005790824,
      "lng": 13.376881778240204,
      "fuels": {
        "sp95": 2.027,
        "gazole": 2.147
      }
    },
    {
      "id": "58905",
      "cp": "",
      "ville": "Palermo",
      "adresse": "Ct Bersagliere (molo sud) Snc 90133",
      "brand": "Agip Eni",
      "lat": 38.124412311273566,
      "lng": 13.37212085723877,
      "fuels": {
        "gazole": 2.393
      }
    },
    {
      "id": "59990",
      "cp": "",
      "ville": "Palermo",
      "adresse": "Dell'Orsa Maggiore 9/9-A 90125",
      "brand": "Lukoil",
      "lat": 38.093978921216674,
      "lng": 13.364595775522137,
      "fuels": {
        "sp95": 1.977,
        "gazole": 2.137,
        "e85": 1.937
      }
    },
    {
      "id": "53360",
      "cp": "",
      "ville": "Palermo",
      "adresse": "Delle Alpi 8 90144",
      "brand": "Agip Eni",
      "lat": 38.13900163360319,
      "lng": 13.337152898311615,
      "fuels": {
        "sp95": 2.027,
        "gazole": 2.147
      }
    },
    {
      "id": "51797",
      "cp": "",
      "ville": "Palermo",
      "adresse": "Delle Alpi Snc 90144",
      "brand": "q8",
      "lat": 38.14470998015819,
      "lng": 13.332228362560272,
      "fuels": {
        "sp95": 1.879,
        "gazole": 2.099
      }
    },
    {
      "id": "56112",
      "cp": "",
      "ville": "Palermo",
      "adresse": "Diga Foranea Snc 90142",
      "brand": "Agip Eni",
      "lat": 38.14899138846124,
      "lng": 13.375737213710769,
      "fuels": {
        "sp95": 2.215,
        "gazole": 2.356
      }
    },
    {
      "id": "36878",
      "cp": "",
      "ville": "Palermo",
      "adresse": "Ernesto Basile Snc 90128",
      "brand": "Api-Ip",
      "lat": 38.10737876561868,
      "lng": 13.354834020137787,
      "fuels": {
        "sp95": 2.027,
        "gazole": 2.147
      }
    },
    {
      "id": "59451",
      "cp": "",
      "ville": "Palermo",
      "adresse": "Evangelista Di Blasi 171 90135",
      "brand": "Pompe Bianche",
      "lat": 38.12319918094359,
      "lng": 13.321225262832645,
      "fuels": {
        "sp95": 2.137,
        "gazole": 2.294
      }
    },
    {
      "id": "56728",
      "cp": "",
      "ville": "Palermo",
      "adresse": "f. Crispi ang. Via Onorato Snc 90139",
      "brand": "Agip Eni",
      "lat": 38.12449,
      "lng": 13.36369,
      "fuels": {
        "sp95": 1.939,
        "gazole": 2.069
      }
    },
    {
      "id": "59565",
      "cp": "",
      "ville": "Palermo",
      "adresse": "g. Zappala' Sn 90144",
      "brand": "Agip Eni",
      "lat": 38.1377591839134,
      "lng": 13.335703597171834,
      "fuels": {
        "sp95": 2.027,
        "gazole": 2.147
      }
    },
    {
      "id": "53324",
      "cp": "",
      "ville": "Palermo",
      "adresse": "Galatea 34 90151",
      "brand": "Api-Ip",
      "lat": 38.1943808,
      "lng": 13.3234688,
      "fuels": {
        "sp95": 1.959,
        "gazole": 2.149
      }
    },
    {
      "id": "53054",
      "cp": "",
      "ville": "Palermo",
      "adresse": "Galileo Galilei 98 90145",
      "brand": "Agip Eni",
      "lat": 38.13763882112695,
      "lng": 13.332153260707855,
      "fuels": {
        "sp95": 2.027,
        "gazole": 2.147
      }
    },
    {
      "id": "44386",
      "cp": "",
      "ville": "Palermo",
      "adresse": "Giacchery Snc 90142",
      "brand": "Agip Eni",
      "lat": 38.135174796948455,
      "lng": 13.357909917831421,
      "fuels": {
        "sp95": 2.039,
        "gazole": 2.199
      }
    },
    {
      "id": "44188",
      "cp": "",
      "ville": "Palermo",
      "adresse": "Giachery Snc 90142",
      "brand": "Esso",
      "lat": 38.13523049367836,
      "lng": 13.358477387731568,
      "fuels": {
        "sp95": 1.929,
        "gazole": 2.039
      }
    },
    {
      "id": "36870",
      "cp": "",
      "ville": "Palermo",
      "adresse": "Giacomo Leopardi 44 90144",
      "brand": "Api-Ip",
      "lat": 38.134975491895474,
      "lng": 13.345312172827903,
      "fuels": {
        "sp95": 2.027,
        "gazole": 2.147
      }
    },
    {
      "id": "61964",
      "cp": "",
      "ville": "Palermo",
      "adresse": "Giafar Emiro 9 90123",
      "brand": "q8",
      "lat": 38.09837822643455,
      "lng": 13.391238445369623,
      "fuels": {
        "sp95": 1.889,
        "gazole": 2.129
      }
    },
    {
      "id": "36757",
      "cp": "",
      "ville": "Palermo",
      "adresse": "Giuseppe Lanza Di Scalea 2353 90147",
      "brand": "Agip Eni",
      "lat": 38.18504314413033,
      "lng": 13.302747894442746,
      "fuels": {
        "sp95": 2.039,
        "gazole": 2.199,
        "e85": 1.937
      }
    },
    {
      "id": "46303",
      "cp": "",
      "ville": "Palermo",
      "adresse": "Imperatore Federico 126 90143",
      "brand": "Tamoil",
      "lat": 38.14746395624149,
      "lng": 13.353821162565623,
      "fuels": {
        "sp95": 1.889,
        "gazole": 2.069
      }
    },
    {
      "id": "59315",
      "cp": "",
      "ville": "Palermo",
      "adresse": "Isidoro La Lumia Snc 90139",
      "brand": "q8",
      "lat": 38.1292224,
      "lng": 13.3546339,
      "fuels": {
        "sp95": 1.959,
        "gazole": 2.149
      }
    },
    {
      "id": "41053",
      "cp": "",
      "ville": "Palermo",
      "adresse": "Largo Iccara Snc  90135",
      "brand": "Agip Eni",
      "lat": 38.130301054924324,
      "lng": 13.300186588954944,
      "fuels": {
        "sp95": 1.939,
        "gazole": 2.069
      }
    },
    {
      "id": "60783",
      "cp": "",
      "ville": "Palermo",
      "adresse": "Laudicina Antonino Snc 90121",
      "brand": "q8",
      "lat": 38.091353198976215,
      "lng": 13.408611703315335,
      "fuels": {
        "sp95": 1.949,
        "gazole": 2.099
      }
    },
    {
      "id": "53326",
      "cp": "",
      "ville": "Palermo",
      "adresse": "Leonardo Da Vinci 396 90135",
      "brand": "Agip Eni",
      "lat": 38.12671942297655,
      "lng": 13.315063683986663,
      "fuels": {
        "sp95": 1.927,
        "gazole": 2.147
      }
    },
    {
      "id": "36886",
      "cp": "",
      "ville": "Palermo",
      "adresse": "Leonardo Da Vinci 637 Bis 90135",
      "brand": "Api-Ip",
      "lat": 38.126883351861395,
      "lng": 13.310487919228766,
      "fuels": {
        "sp95": 2.027,
        "gazole": 2.147
      }
    },
    {
      "id": "51313",
      "cp": "",
      "ville": "Palermo",
      "adresse": "Leonardo Da Vinci 66/D 90145",
      "brand": "Agip Eni",
      "lat": 38.12968716784113,
      "lng": 13.334060311317444,
      "fuels": {
        "sp95": 2.039,
        "gazole": 2.199
      }
    },
    {
      "id": "57632",
      "cp": "",
      "ville": "Palermo",
      "adresse": "Leoni 12 90143",
      "brand": "Agip Eni",
      "lat": 38.1463503,
      "lng": 13.3445639,
      "fuels": {
        "sp95": 1.934,
        "gazole": 2.064
      }
    },
    {
      "id": "38099",
      "cp": "",
      "ville": "Palermo",
      "adresse": "lung. Cristoforo Colombo  4521 90100",
      "brand": "Pompe Bianche",
      "lat": 38.192314654935046,
      "lng": 13.350565284490585,
      "fuels": {
        "sp95": 2.216,
        "gazole": 2.349
      }
    },
    {
      "id": "46275",
      "cp": "",
      "ville": "Palermo",
      "adresse": "Lungomare Cristoforo Colombo Sn 90149",
      "brand": "Eos",
      "lat": 38.16775484986008,
      "lng": 13.366289138793945,
      "fuels": {
        "sp95": 1.899,
        "gazole": 2.099
      }
    },
    {
      "id": "38174",
      "cp": "",
      "ville": "Palermo",
      "adresse": "Mandorle Snc 90147",
      "brand": "Agip Eni",
      "lat": 38.188143054379374,
      "lng": 13.288734331727028,
      "fuels": {
        "sp95": 2.099,
        "gazole": 2.299
      }
    },
    {
      "id": "54062",
      "cp": "",
      "ville": "Palermo",
      "adresse": "Margherita Di Savoia 91 90146",
      "brand": "Eos",
      "lat": 38.182122787238285,
      "lng": 13.333950675563335,
      "fuels": {
        "sp95": 1.889,
        "gazole": 2.029
      }
    },
    {
      "id": "21715",
      "cp": "",
      "ville": "Palermo",
      "adresse": "Messina Marine 459 90121",
      "brand": "Agip Eni",
      "lat": 38.09827209605098,
      "lng": 13.407576978206635,
      "fuels": {
        "sp95": 1.939,
        "gazole": 2.069
      }
    },
    {
      "id": "36875",
      "cp": "",
      "ville": "Palermo",
      "adresse": "Michelangelo 1177 90145",
      "brand": "Api-Ip",
      "lat": 38.13656282971518,
      "lng": 13.316891791926537,
      "fuels": {
        "sp95": 2.027,
        "gazole": 2.147
      }
    },
    {
      "id": "38499",
      "cp": "",
      "ville": "Palermo",
      "adresse": "Montegrappa Snc 90128",
      "brand": "Api-Ip",
      "lat": 38.102287131038075,
      "lng": 13.352241263067786,
      "fuels": {
        "sp95": 2.027,
        "gazole": 2.147
      }
    },
    {
      "id": "53183",
      "cp": "",
      "ville": "Palermo",
      "adresse": "Oreto 311 90124",
      "brand": "Sicilpetroli",
      "lat": 38.10183795083215,
      "lng": 13.370342552661896,
      "fuels": {
        "sp95": 1.939,
        "gazole": 2.139
      }
    },
    {
      "id": "37802",
      "cp": "",
      "ville": "Palermo",
      "adresse": "Oreto Sn 90124",
      "brand": "Tamoil",
      "lat": 38.10093413476445,
      "lng": 13.370843455195427,
      "fuels": {
        "sp95": 1.889,
        "gazole": 2.069
      }
    },
    {
      "id": "33592",
      "cp": "",
      "ville": "Palermo",
      "adresse": "p. Platania (villa tasca) s.n.c. 90129",
      "brand": "Pompe Bianche",
      "lat": 38.099894712835976,
      "lng": 13.334523496906854,
      "fuels": {
        "sp95": 1.838,
        "gazole": 1.967
      }
    },
    {
      "id": "62061",
      "cp": "",
      "ville": "Palermo",
      "adresse": "p.za Antonino Caponnetto Snc 90100",
      "brand": "Api-Ip",
      "lat": 38.135054,
      "lng": 13.357665,
      "fuels": {
        "sp95": 2.027,
        "gazole": 2.147
      }
    },
    {
      "id": "31066",
      "cp": "",
      "ville": "Palermo",
      "adresse": "p.zza Principe Di Camporeale  90131",
      "brand": "Esso",
      "lat": 38.119845458150174,
      "lng": 13.340358634594509,
      "fuels": {
        "sp95": 2.077,
        "gazole": 2.147
      }
    },
    {
      "id": "56119",
      "cp": "",
      "ville": "Palermo",
      "adresse": "Piazza Antonino Caponnetto Snc 90142",
      "brand": "q8",
      "lat": 38.13474019598617,
      "lng": 13.358330421565249,
      "fuels": {
        "sp95": 1.899,
        "gazole": 1.999
      }
    },
    {
      "id": "44138",
      "cp": "",
      "ville": "Palermo",
      "adresse": "Piazza Don Bosco Snc 90143",
      "brand": "Pompe Bianche",
      "lat": 38.144402074566095,
      "lng": 13.345088000000032,
      "fuels": {
        "sp95": 1.899,
        "gazole": 2.099
      }
    },
    {
      "id": "51853",
      "cp": "",
      "ville": "Palermo",
      "adresse": "Piazza Generale Turba Snc 90128",
      "brand": "Api-Ip",
      "lat": 38.10098128011673,
      "lng": 13.338624514946526,
      "fuels": {
        "sp95": 1.954,
        "gazole": 2.154
      }
    },
    {
      "id": "46582",
      "cp": "",
      "ville": "Palermo",
      "adresse": "Piazza Indipendenza 7 90129",
      "brand": "Esso",
      "lat": 38.11020206168343,
      "lng": 13.35061490535736,
      "fuels": {
        "sp95": 2.154,
        "gazole": 1.954
      }
    },
    {
      "id": "52212",
      "cp": "",
      "ville": "Palermo",
      "adresse": "Piazza Indipendenza Snc 90129",
      "brand": "Agip Eni",
      "lat": 38.11070069911125,
      "lng": 13.350159871292213,
      "fuels": {
        "sp95": 1.954,
        "gazole": 2.154
      }
    },
    {
      "id": "51438",
      "cp": "",
      "ville": "Palermo",
      "adresse": "Piazza Lolli Snc 90141",
      "brand": "Esso",
      "lat": 38.12328665503141,
      "lng": 13.346696239709548,
      "fuels": {
        "sp95": 1.979,
        "gazole": 2.199
      }
    },
    {
      "id": "51941",
      "cp": "",
      "ville": "Palermo",
      "adresse": "Piazza Montegrappa Snc 90128",
      "brand": "q8",
      "lat": 38.10280901008787,
      "lng": 13.352445162698164,
      "fuels": {
        "sp95": 1.959,
        "gazole": 2.149
      }
    },
    {
      "id": "51437",
      "cp": "",
      "ville": "Palermo",
      "adresse": "Piazza Ottavio Ziino 1/B 90145",
      "brand": "Esso",
      "lat": 38.131195742445136,
      "lng": 13.338154156545299,
      "fuels": {
        "sp95": 1.979,
        "gazole": 2.199
      }
    },
    {
      "id": "53042",
      "cp": "",
      "ville": "Palermo",
      "adresse": "Piazza Pietro Micca Sn 90100",
      "brand": "Agip Eni",
      "lat": 38.1094882,
      "lng": 13.3090055,
      "fuels": {
        "sp95": 2.027,
        "gazole": 2.147
      }
    },
    {
      "id": "51849",
      "cp": "",
      "ville": "Palermo",
      "adresse": "Piazza Principe Di Camporeale Sn 90138",
      "brand": "Agip Eni",
      "lat": 38.11965957285924,
      "lng": 13.340774263435389,
      "fuels": {
        "sp95": 2.027,
        "gazole": 2.147
      }
    },
    {
      "id": "56387",
      "cp": "",
      "ville": "Palermo",
      "adresse": "Piazza Virgilio Angolo Via Selinunte Sn 90141, Palermo (pa) Snc 90141",
      "brand": "Api-Ip",
      "lat": 38.12420834298999,
      "lng": 13.348149500846857,
      "fuels": {
        "sp95": 2.027,
        "gazole": 2.147
      }
    },
    {
      "id": "39176",
      "cp": "",
      "ville": "Palermo",
      "adresse": "Pitre' Snc 90135",
      "brand": "Api-Ip",
      "lat": 38.110518685406845,
      "lng": 13.323112539947033,
      "fuels": {
        "sp95": 2.027,
        "gazole": 2.147
      }
    },
    {
      "id": "58832",
      "cp": "",
      "ville": "Palermo",
      "adresse": "Porto Palermo Snc 90100",
      "brand": "Pompe Bianche",
      "lat": 38.12226850064173,
      "lng": 13.372163772583008,
      "fuels": {
        "sp95": 2.195,
        "gazole": 2.395
      }
    },
    {
      "id": "54125",
      "cp": "",
      "ville": "Palermo",
      "adresse": "Quattro Novembre (via isonzo) Snc 90144",
      "brand": "Api-Ip",
      "lat": 38.14278550769931,
      "lng": 13.342028901384841,
      "fuels": {
        "sp95": 2.027,
        "gazole": 2.147
      }
    },
    {
      "id": "44385",
      "cp": "",
      "ville": "Palermo",
      "adresse": "reg. Siciliana Nord Ovest 5580 90146",
      "brand": "Agip Eni",
      "lat": 38.15096576761043,
      "lng": 13.322998881340027,
      "fuels": {
        "sp95": 2.039,
        "gazole": 2.199,
        "e85": 1.937,
        "gplc": 0.747
      }
    },
    {
      "id": "30050",
      "cp": "",
      "ville": "Palermo",
      "adresse": "reg.siciliana/Via Giafar Snc 90124",
      "brand": "Lukoil",
      "lat": 38.089767422352516,
      "lng": 13.383274906092835,
      "fuels": {
        "sp95": 1.967,
        "gazole": 2.147,
        "gplc": 0.699
      }
    },
    {
      "id": "36880",
      "cp": "",
      "ville": "Palermo",
      "adresse": "Regina Margherita Snc 90149",
      "brand": "Api-Ip",
      "lat": 38.190793987794024,
      "lng": 13.333275752122713,
      "fuels": {
        "sp95": 2.027,
        "gazole": 2.147
      }
    },
    {
      "id": "24082",
      "cp": "",
      "ville": "Palermo",
      "adresse": "Regione Siciliana  90135",
      "brand": "q8",
      "lat": 38.11385041955412,
      "lng": 13.329769723938398,
      "fuels": {
        "sp95": 1.929,
        "gazole": 2.119
      }
    },
    {
      "id": "36876",
      "cp": "",
      "ville": "Palermo",
      "adresse": "Regione Siciliana (angolo Via perpignano) Snc 90135",
      "brand": "Agip Eni",
      "lat": 38.11966443453526,
      "lng": 13.329139798879623,
      "fuels": {
        "sp95": 2.027,
        "gazole": 2.147
      }
    },
    {
      "id": "58631",
      "cp": "",
      "ville": "Palermo",
      "adresse": "Regione Siciliana N O 857 90135",
      "brand": "q8",
      "lat": 38.11155013110078,
      "lng": 13.330085178906245,
      "fuels": {
        "sp95": 1.899,
        "gazole": 2.059
      }
    },
    {
      "id": "54304",
      "cp": "",
      "ville": "Palermo",
      "adresse": "Regione Siciliana S E 5146/A 90124",
      "brand": "Esso",
      "lat": 38.091166,
      "lng": 13.381913,
      "fuels": {
        "sp95": 1.977,
        "gazole": 2.187
      }
    },
    {
      "id": "46929",
      "cp": "",
      "ville": "Palermo",
      "adresse": "Regione Siciliana s.e. (via brasca) 5339 90124",
      "brand": "Api-Ip",
      "lat": 38.089060974038304,
      "lng": 13.38490888215417,
      "fuels": {
        "sp95": 2.027,
        "gazole": 2.147,
        "gplc": 0.731
      }
    },
    {
      "id": "47768",
      "cp": "",
      "ville": "Palermo",
      "adresse": "Regione Siciliana s.e. 3290 90125",
      "brand": "Agip Eni",
      "lat": 38.08850784703822,
      "lng": 13.365007638931274,
      "fuels": {
        "sp95": 2.097,
        "gazole": 2.199,
        "e85": 1.937,
        "gplc": 0.751
      }
    },
    {
      "id": "54872",
      "cp": "",
      "ville": "Palermo",
      "adresse": "Resurrezione 87 90146",
      "brand": "Agip Eni",
      "lat": 38.165539468413655,
      "lng": 13.320088127647391,
      "fuels": {
        "sp95": 2.087,
        "gazole": 2.199
      }
    },
    {
      "id": "40342",
      "cp": "",
      "ville": "Palermo",
      "adresse": "s. Erasmo (lato monte) Snc 90123",
      "brand": "Api-Ip",
      "lat": 38.11244524359282,
      "lng": 13.378014663715353,
      "fuels": {
        "sp95": 2.027,
        "gazole": 2.147
      }
    },
    {
      "id": "43468",
      "cp": "",
      "ville": "Palermo",
      "adresse": "Scaffa Sn 90124",
      "brand": "Tamoil",
      "lat": 38.10348281137876,
      "lng": 13.377734190247793,
      "fuels": {
        "sp95": 1.889,
        "gazole": 2.069
      }
    },
    {
      "id": "43078",
      "cp": "",
      "ville": "Palermo",
      "adresse": "Scipione Li Volsi Snc 90138",
      "brand": "Tamoil",
      "lat": 38.12151505856977,
      "lng": 13.349549300000035,
      "fuels": {
        "sp95": 1.899,
        "gazole": 2.089
      }
    },
    {
      "id": "36871",
      "cp": "",
      "ville": "Palermo",
      "adresse": "Strasburgo 484 90146",
      "brand": "Api-Ip",
      "lat": 38.15998610726969,
      "lng": 13.32331269979477,
      "fuels": {
        "sp95": 2.027,
        "gazole": 2.147
      }
    },
    {
      "id": "45755",
      "cp": "",
      "ville": "Palermo",
      "adresse": "Tommaso Natale 6/A 90147",
      "brand": "Pompe Bianche",
      "lat": 38.15351520601152,
      "lng": 13.321279989476466,
      "fuels": {
        "sp95": 1.977,
        "gazole": 2.077,
        "gplc": 0.729
      }
    },
    {
      "id": "53327",
      "cp": "",
      "ville": "Palermo",
      "adresse": "Trabucco Snc 90146",
      "brand": "Api-Ip",
      "lat": 38.1943808,
      "lng": 13.3234688,
      "fuels": {
        "sp95": 1.959,
        "gazole": 2.149
      }
    },
    {
      "id": "39177",
      "cp": "",
      "ville": "Palermo",
      "adresse": "Tumminello Snc 90123",
      "brand": "Api-Ip",
      "lat": 38.11294072216414,
      "lng": 13.3773284219505,
      "fuels": {
        "sp95": 2.027,
        "gazole": 2.147
      }
    },
    {
      "id": "49367",
      "cp": "",
      "ville": "Palermo",
      "adresse": "Ucciardone (lato mare) Snc 90139",
      "brand": "Api-Ip",
      "lat": 38.13016798569221,
      "lng": 13.360871076583857,
      "fuels": {
        "sp95": 2.039,
        "gazole": 2.199
      }
    },
    {
      "id": "54731",
      "cp": "",
      "ville": "Palermo",
      "adresse": "Ucciardone (lato monte) 8 90139",
      "brand": "Gan",
      "lat": 38.13048469298272,
      "lng": 13.360324501991272,
      "fuels": {
        "sp95": 2.027,
        "gazole": 2.147
      }
    },
    {
      "id": "53014",
      "cp": "",
      "ville": "Palermo",
      "adresse": "Ugo La Malfa 84 90146",
      "brand": "Agip Eni",
      "lat": 38.16217012872389,
      "lng": 13.314315646313458,
      "fuels": {
        "sp95": 2.027,
        "gazole": 2.147
      }
    },
    {
      "id": "53323",
      "cp": "",
      "ville": "Palermo",
      "adresse": "Umberto Maddalena Snc 90136",
      "brand": "Api-Ip",
      "lat": 38.1943808,
      "lng": 13.3234688,
      "fuels": {
        "sp95": 1.959,
        "gazole": 2.149
      }
    },
    {
      "id": "62960",
      "cp": "",
      "ville": "Palermo",
      "adresse": "v. Rosario Nicoletti 25  90147",
      "brand": "Esso",
      "lat": 38.19090788380886,
      "lng": 13.291951400000004,
      "fuels": {
        "sp95": 1.959,
        "gazole": 2.189
      }
    },
    {
      "id": "6784",
      "cp": "",
      "ville": "Palermo",
      "adresse": "v.reg.margherita Di Savoia-Mondello Snc 90146",
      "brand": "q8",
      "lat": 38.17717395339102,
      "lng": 13.335607803075845,
      "fuels": {
        "sp95": 1.899,
        "gazole": 2.024
      }
    },
    {
      "id": "53320",
      "cp": "",
      "ville": "Palermo",
      "adresse": "Venere Snc 90149",
      "brand": "Agip Eni",
      "lat": 38.189146969281566,
      "lng": 13.324775407538558,
      "fuels": {
        "sp95": 1.939,
        "gazole": 2.149,
        "gplc": 0.719
      }
    },
    {
      "id": "26121",
      "cp": "",
      "ville": "Palermo",
      "adresse": "Via a. Laudicina  90122",
      "brand": "q8",
      "lat": 38.096606226852,
      "lng": 13.412503915344246,
      "fuels": {
        "sp95": 1.919,
        "gazole": 2.049
      }
    },
    {
      "id": "37575",
      "cp": "",
      "ville": "Palermo",
      "adresse": "Via Armando Diaz  60/A 90100",
      "brand": "Pompe Bianche",
      "lat": 38.09984101760264,
      "lng": 13.392674624919891,
      "fuels": {
        "sp95": 1.896,
        "gazole": 2.136
      }
    },
    {
      "id": "57522",
      "cp": "",
      "ville": "Palermo",
      "adresse": "Via Atenasio 4850 90146",
      "brand": "Agip Eni",
      "lat": 38.1469,
      "lng": 13.32728,
      "fuels": {
        "sp95": 1.934,
        "gazole": 2.064
      }
    },
    {
      "id": "51854",
      "cp": "",
      "ville": "Palermo",
      "adresse": "Via Carmelo Lazzaro Snc 90127",
      "brand": "Api-Ip",
      "lat": 38.10339843380206,
      "lng": 13.353825744816271,
      "fuels": {
        "sp95": 2.027,
        "gazole": 2.147
      }
    },
    {
      "id": "46835",
      "cp": "",
      "ville": "Palermo",
      "adresse": "Via Castellana 14 90135",
      "brand": "Eos",
      "lat": 38.12566063953271,
      "lng": 13.311034734616783,
      "fuels": {
        "sp95": 1.899,
        "gazole": 2.099
      }
    },
    {
      "id": "55771",
      "cp": "",
      "ville": "Palermo",
      "adresse": "Via Dei Cantieri 41  90142",
      "brand": "Itala Petroli",
      "lat": 38.13683078480324,
      "lng": 13.36198990893298,
      "fuels": {
        "sp95": 1.998,
        "gazole": 2.147
      }
    },
    {
      "id": "37576",
      "cp": "",
      "ville": "Palermo",
      "adresse": "Via Dell Orsa Maggiore  Snc 90100",
      "brand": "Pompe Bianche",
      "lat": 38.09381548275944,
      "lng": 13.361147940158844,
      "fuels": {
        "sp95": 1.997,
        "gazole": 2.077
      }
    },
    {
      "id": "33304",
      "cp": "",
      "ville": "Palermo",
      "adresse": "Via Delle Alpi 51/A 90144",
      "brand": "Pompe Bianche",
      "lat": 38.14039348832011,
      "lng": 13.336185974863042,
      "fuels": {
        "sp95": 1.899,
        "gazole": 2.099
      }
    },
    {
      "id": "43932",
      "cp": "",
      "ville": "Palermo",
      "adresse": "Via Delle Madonie 6/A 90144",
      "brand": "Pompe Bianche",
      "lat": 38.14755359581263,
      "lng": 13.333592458631028,
      "fuels": {
        "sp95": 1.896,
        "gazole": 2.076
      }
    },
    {
      "id": "42734",
      "cp": "",
      "ville": "Palermo",
      "adresse": "Via Duca Degli Abruzzi Snc 90146",
      "brand": "Eos",
      "lat": 38.170328722028934,
      "lng": 13.328026289395439,
      "fuels": {
        "sp95": 1.999,
        "gazole": 2.149
      }
    },
    {
      "id": "51823",
      "cp": "",
      "ville": "Palermo",
      "adresse": "Via Duca Degli Abruzzi Snc 90146",
      "brand": "Api-Ip",
      "lat": 38.17003642792631,
      "lng": 13.328156546841154,
      "fuels": {
        "sp95": 2.027,
        "gazole": 2.147
      }
    },
    {
      "id": "60664",
      "cp": "",
      "ville": "Palermo",
      "adresse": "Via Emiro Giafar 207/209",
      "brand": "Gp Green Power",
      "lat": 38.0936557,
      "lng": 13.3874724,
      "fuels": {
        "sp95": 1.888,
        "gazole": 2.136,
        "gplc": 0.678
      }
    },
    {
      "id": "51605",
      "cp": "",
      "ville": "Palermo",
      "adresse": "Via Empedocle Restivo 78 90144",
      "brand": "q8",
      "lat": 38.14512311929334,
      "lng": 13.335219011656818,
      "fuels": {
        "sp95": 1.939,
        "gazole": 2.089
      }
    },
    {
      "id": "47727",
      "cp": "",
      "ville": "Palermo",
      "adresse": "Via Empedocle Restivo Sn 90144",
      "brand": "Eos",
      "lat": 38.14425519711554,
      "lng": 13.335864841938013,
      "fuels": {
        "sp95": 1.879,
        "gazole": 2.099
      }
    },
    {
      "id": "5499",
      "cp": "",
      "ville": "Palermo",
      "adresse": "Via Ernesto Basile 15/17 90128",
      "brand": "Agip Eni",
      "lat": 38.100147,
      "lng": 13.346591,
      "fuels": {
        "sp95": 1.934,
        "gazole": 2.044,
        "gplc": 0.699
      }
    },
    {
      "id": "58847",
      "cp": "",
      "ville": "Palermo",
      "adresse": "Via Ernesto Basile 204  90128",
      "brand": "Agip Eni",
      "lat": 38.10022749102151,
      "lng": 13.347358703613281,
      "fuels": {
        "sp95": 2.027,
        "gazole": 2.147
      }
    },
    {
      "id": "59351",
      "cp": "",
      "ville": "Palermo",
      "adresse": "Via Ernesto Teodoro Moneta 15  90125",
      "brand": "Agip Eni",
      "lat": 38.08476926139434,
      "lng": 13.35497040992585,
      "fuels": {
        "sp95": 1.929,
        "gazole": 2.049
      }
    },
    {
      "id": "33521",
      "cp": "",
      "ville": "Palermo",
      "adresse": "Via Felice Bisazza Snc 90145",
      "brand": "Pompe Bianche",
      "lat": 38.12477807109917,
      "lng": 13.337791779748954,
      "fuels": {
        "sp95": 1.974,
        "gazole": 2.074
      }
    },
    {
      "id": "14235",
      "cp": "",
      "ville": "Palermo",
      "adresse": "Via Filippo Di Giovanni 10a 90146",
      "brand": "Pompe Bianche",
      "lat": 38.16009742291062,
      "lng": 13.329966371560273,
      "fuels": {
        "sp95": 1.899,
        "gazole": 1.999
      }
    },
    {
      "id": "51817",
      "cp": "",
      "ville": "Palermo",
      "adresse": "Via Filippo Patti Snc 90133",
      "brand": "Api-Ip",
      "lat": 38.12303697444989,
      "lng": 13.365283430997259,
      "fuels": {
        "sp95": 2.027,
        "gazole": 2.147
      }
    },
    {
      "id": "60991",
      "cp": "",
      "ville": "Palermo",
      "adresse": "Via Francesco Omodei 11 90139",
      "brand": "Api-Ip",
      "lat": 38.12977,
      "lng": 13.3555,
      "fuels": {
        "sp95": 2.027,
        "gazole": 2.147
      }
    },
    {
      "id": "56068",
      "cp": "",
      "ville": "Palermo",
      "adresse": "Via Francesco Paolo Di Blasi Sn 90144, Palermo (pa)  90144",
      "brand": "Sicilpetroli",
      "lat": 38.139218484996505,
      "lng": 13.343970214086085,
      "fuels": {
        "sp95": 1.929,
        "gazole": 2.129
      }
    },
    {
      "id": "62323",
      "cp": "",
      "ville": "Palermo",
      "adresse": "Via g. La Farina Snc 90141",
      "brand": "Api-Ip",
      "lat": 38.1292789573455,
      "lng": 13.350553140753169,
      "fuels": {
        "sp95": 1.929,
        "gazole": 2.079
      }
    },
    {
      "id": "62005",
      "cp": "",
      "ville": "Palermo",
      "adresse": "Via Gaetano Costa Snc 90129",
      "brand": "Esso",
      "lat": 38.09266439836976,
      "lng": 13.33638310432434,
      "fuels": {
        "sp95": 2.027,
        "gazole": 2.147,
        "gplc": 0.699
      }
    },
    {
      "id": "42553",
      "cp": "",
      "ville": "Palermo",
      "adresse": "Via Galletti 247 90121",
      "brand": "q8",
      "lat": 38.09156491047357,
      "lng": 13.43160348161473,
      "fuels": {
        "sp95": 1.979,
        "gazole": 2.129
      }
    },
    {
      "id": "62990",
      "cp": "",
      "ville": "Palermo",
      "adresse": "Via Giovanni Evangelista Di Blasi Snc 90135",
      "brand": "357",
      "lat": 38.12572892785362,
      "lng": 13.314056823773178,
      "fuels": {
        "sp95": 1.885,
        "gazole": 2.065
      }
    },
    {
      "id": "53051",
      "cp": "",
      "ville": "Palermo",
      "adresse": "Via Giovanni Zappalà (ang. Via Delle magnolie)  90100",
      "brand": "Agip Eni",
      "lat": 38.139345497131636,
      "lng": 13.335361182689667,
      "fuels": {
        "sp95": 2.027,
        "gazole": 2.147
      }
    },
    {
      "id": "53047",
      "cp": "",
      "ville": "Palermo",
      "adresse": "Via Giuseppe Alessi Sn 90143",
      "brand": "Agip Eni",
      "lat": 38.140687182250836,
      "lng": 13.350982367992401,
      "fuels": {
        "sp95": 2.027,
        "gazole": 2.147
      }
    },
    {
      "id": "49438",
      "cp": "",
      "ville": "Palermo",
      "adresse": "Via Giuseppe Lanza Di Scalea 686 90146",
      "brand": "q8",
      "lat": 38.17104444996436,
      "lng": 13.313283324241633,
      "fuels": {
        "sp95": 1.999,
        "gazole": 2.149,
        "gplc": 0.729
      }
    },
    {
      "id": "59221",
      "cp": "",
      "ville": "Palermo",
      "adresse": "Via Giuseppe Sciuti 102  90144",
      "brand": "Agip Eni",
      "lat": 38.135487,
      "lng": 13.341267,
      "fuels": {
        "sp95": 1.929,
        "gazole": 2.049
      }
    },
    {
      "id": "62508",
      "cp": "",
      "ville": "Palermo",
      "adresse": "Via Guglielmo Il Buono Snc 90138",
      "brand": "Pompe Bianche",
      "lat": 38.1168401,
      "lng": 13.3445182,
      "fuels": {
        "sp95": 1.926,
        "gazole": 2.066
      }
    },
    {
      "id": "42457",
      "cp": "",
      "ville": "Palermo",
      "adresse": "Via L Da Vinci 210 90100",
      "brand": "Pompe Bianche",
      "lat": 38.127446999171916,
      "lng": 13.32542202095567,
      "fuels": {
        "sp95": 1.885,
        "gazole": 2.065
      }
    },
    {
      "id": "62856",
      "cp": "",
      "ville": "Palermo",
      "adresse": "Via Lanza Di Scalea  90100",
      "brand": "Esso",
      "lat": 38.17191315688887,
      "lng": 13.312564681016145,
      "fuels": {
        "sp95": 1.959,
        "gazole": 2.189
      }
    },
    {
      "id": "51439",
      "cp": "",
      "ville": "Palermo",
      "adresse": "Via Largo Traina 1/Bis 90129",
      "brand": "Esso",
      "lat": 38.10225424436713,
      "lng": 13.339770320938372,
      "fuels": {
        "sp95": 1.999,
        "gazole": 2.199
      }
    },
    {
      "id": "37231",
      "cp": "",
      "ville": "Palermo",
      "adresse": "Via Leonardo Da Vinci 173 90145",
      "brand": "q8",
      "lat": 38.12904730646096,
      "lng": 13.330730736176292,
      "fuels": {
        "sp95": 1.959,
        "gazole": 2.099
      }
    },
    {
      "id": "63053",
      "cp": "",
      "ville": "Palermo",
      "adresse": "Via Leonardo Da Vinci 392  90100",
      "brand": "Esso",
      "lat": 38.1265346,
      "lng": 13.3179077,
      "fuels": {
        "sp95": 1.955,
        "gazole": 2.185
      }
    },
    {
      "id": "51855",
      "cp": "",
      "ville": "Palermo",
      "adresse": "Via Leonardo Da Vinci 394/B 90135",
      "brand": "Api-Ip",
      "lat": 38.12665236623076,
      "lng": 13.315978752516452,
      "fuels": {
        "sp95": 2.027,
        "gazole": 2.147
      }
    },
    {
      "id": "17829",
      "cp": "",
      "ville": "Palermo",
      "adresse": "Via Leonardo Da Vinci 597 90135",
      "brand": "Pompe Bianche",
      "lat": 38.126943446027674,
      "lng": 13.314434587955475,
      "fuels": {
        "sp95": 1.884,
        "gazole": 2.094
      }
    },
    {
      "id": "54897",
      "cp": "",
      "ville": "Palermo",
      "adresse": "Via Marchese Di Villabianca 101 90143, Palermo (pa)",
      "brand": "Esso",
      "lat": 38.138100830064886,
      "lng": 13.350352048873901,
      "fuels": {
        "sp95": 1.937,
        "gazole": 2.137
      }
    },
    {
      "id": "46595",
      "cp": "",
      "ville": "Palermo",
      "adresse": "Via Messina Marine 435/A 90123",
      "brand": "q8",
      "lat": 38.10112974171836,
      "lng": 13.399263950209843,
      "fuels": {
        "sp95": 1.939,
        "gazole": 2.129
      }
    },
    {
      "id": "38883",
      "cp": "",
      "ville": "Palermo",
      "adresse": "Via Messina Marine 435/D 90123",
      "brand": "Esso",
      "lat": 38.100616706304216,
      "lng": 13.400572389364243,
      "fuels": {
        "sp95": 1.939,
        "gazole": 2.129
      }
    },
    {
      "id": "60384",
      "cp": "",
      "ville": "Palermo",
      "adresse": "Via Messina Marine 451 90100",
      "brand": "Api-Ip",
      "lat": 38.09907925160408,
      "lng": 13.404747247695923,
      "fuels": {
        "sp95": 2.027,
        "gazole": 2.147
      }
    },
    {
      "id": "47544",
      "cp": "",
      "ville": "Palermo",
      "adresse": "Via Messina Marine 92 90123",
      "brand": "q8",
      "lat": 38.106588000123,
      "lng": 13.385384000123,
      "fuels": {
        "sp95": 1.947,
        "gazole": 2.147
      }
    },
    {
      "id": "50713",
      "cp": "",
      "ville": "Palermo",
      "adresse": "Via Messina Montagne  90121",
      "brand": "q8",
      "lat": 38.0828825224145,
      "lng": 13.430410027503962,
      "fuels": {
        "sp95": 1.999,
        "gazole": 2.149
      }
    },
    {
      "id": "52210",
      "cp": "",
      "ville": "Palermo",
      "adresse": "Via Messina Montagne 11 90121",
      "brand": "Agip Eni",
      "lat": 38.08234146684868,
      "lng": 13.431706059252004,
      "fuels": {
        "sp95": 2.027,
        "gazole": 2.147
      }
    },
    {
      "id": "38844",
      "cp": "",
      "ville": "Palermo",
      "adresse": "Via Messina Montagne 36 90121",
      "brand": "Esso",
      "lat": 38.082323879909836,
      "lng": 13.433562219142914,
      "fuels": {
        "sp95": 1.959,
        "gazole": 2.159
      }
    },
    {
      "id": "60385",
      "cp": "",
      "ville": "Palermo",
      "adresse": "Via Messina Montagne Snc 90100",
      "brand": "Api-Ip",
      "lat": 38.083158235093926,
      "lng": 13.430099487304688,
      "fuels": {
        "sp95": 2.027,
        "gazole": 2.147
      }
    },
    {
      "id": "62700",
      "cp": "",
      "ville": "Palermo",
      "adresse": "Via Montepellegrino 109  90100",
      "brand": "Esso",
      "lat": 38.138462314921625,
      "lng": 13.358480053355608,
      "fuels": {
        "sp95": 1.959,
        "gazole": 2.189
      }
    },
    {
      "id": "25137",
      "cp": "",
      "ville": "Palermo",
      "adresse": "Via Nicoletti  90151",
      "brand": "q8",
      "lat": 38.18911196741004,
      "lng": 13.297261009787007,
      "fuels": {
        "sp95": 1.909,
        "gazole": 2.049
      }
    },
    {
      "id": "5497",
      "cp": "",
      "ville": "Palermo",
      "adresse": "Via Nicoletti Snc 90151",
      "brand": "Agip Eni",
      "lat": 38.18872242902749,
      "lng": 13.297875801258101,
      "fuels": {
        "sp95": 1.934,
        "gazole": 2.044,
        "gplc": 0.679
      }
    },
    {
      "id": "62559",
      "cp": "",
      "ville": "Palermo",
      "adresse": "Via Oreto 315   90100",
      "brand": "Esso",
      "lat": 38.1004583,
      "lng": 13.3710336,
      "fuels": {
        "sp95": 1.959,
        "gazole": 2.189
      }
    },
    {
      "id": "53046",
      "cp": "",
      "ville": "Palermo",
      "adresse": "Via Oreto Sn 90124",
      "brand": "Agip Eni",
      "lat": 38.0992312255052,
      "lng": 13.372421264648438,
      "fuels": {
        "sp95": 2.027,
        "gazole": 2.147
      }
    },
    {
      "id": "36987",
      "cp": "",
      "ville": "Palermo",
      "adresse": "Via Papa Sergio 44 90142",
      "brand": "Agip Eni",
      "lat": 38.15114435876185,
      "lng": 13.370519008810447,
      "fuels": {
        "sp95": 1.939,
        "gazole": 2.069
      }
    },
    {
      "id": "46212",
      "cp": "",
      "ville": "Palermo",
      "adresse": "Via Papa Sergio I Snc 90142",
      "brand": "q8",
      "lat": 38.14920082285968,
      "lng": 13.370811939239502,
      "fuels": {
        "sp95": 1.959,
        "gazole": 2.129
      }
    },
    {
      "id": "53027",
      "cp": "",
      "ville": "Palermo",
      "adresse": "Via Piazza Cappuccini Sn 90129, Palermo (pa)  90134",
      "brand": "Pompe Bianche",
      "lat": 38.1085487,
      "lng": 13.3471888,
      "fuels": {
        "sp95": 1.919,
        "gazole": 2.099
      }
    },
    {
      "id": "52956",
      "cp": "",
      "ville": "Palermo",
      "adresse": "Via Pitre' Giuseppe 280/A 90135",
      "brand": "q8",
      "lat": 38.10932039849432,
      "lng": 13.310953720834732,
      "fuels": {
        "sp95": 1.909,
        "gazole": 2.119
      }
    },
    {
      "id": "49039",
      "cp": "",
      "ville": "Palermo",
      "adresse": "Via Rocco Jemma Adiacente Al 3 Sn 90127",
      "brand": "q8",
      "lat": 38.10499382139809,
      "lng": 13.3631727131444,
      "fuels": {
        "sp95": 1.939,
        "gazole": 2.139
      }
    },
    {
      "id": "56571",
      "cp": "",
      "ville": "Palermo",
      "adresse": "Via Sampolo 5",
      "brand": "Agip Eni",
      "lat": 38.137302,
      "lng": 13.354352,
      "fuels": {
        "sp95": 1.934,
        "gazole": 2.064
      }
    },
    {
      "id": "23672",
      "cp": "",
      "ville": "Palermo",
      "adresse": "Via San Lorenzo Colli 267/D 90146",
      "brand": "Esso",
      "lat": 38.164145385376735,
      "lng": 13.319412767887115,
      "fuels": {
        "sp95": 1.976,
        "gazole": 2.206
      }
    },
    {
      "id": "59716",
      "cp": "",
      "ville": "Palermo",
      "adresse": "Via Terrasanta  77/C",
      "brand": "Agip Eni",
      "lat": 38.12991,
      "lng": 13.345567,
      "fuels": {
        "sp95": 1.934,
        "gazole": 2.064
      }
    },
    {
      "id": "40242",
      "cp": "",
      "ville": "Palermo",
      "adresse": "Via Uditore 14 90145",
      "brand": "Eos",
      "lat": 38.13194946073313,
      "lng": 13.323639514086153,
      "fuels": {
        "sp95": 1.959,
        "gazole": 2.099
      }
    },
    {
      "id": "50672",
      "cp": "",
      "ville": "Palermo",
      "adresse": "Via Uditore 14/P 90145",
      "brand": "Pompe Bianche",
      "lat": 38.13194840583261,
      "lng": 13.323623420832064,
      "fuels": {
        "sp95": 1.999,
        "gazole": 2.099
      }
    },
    {
      "id": "44925",
      "cp": "",
      "ville": "Palermo",
      "adresse": "Via Uditore Snc 90145",
      "brand": "Agip Eni",
      "lat": 38.126632000123,
      "lng": 13.328953000123,
      "fuels": {
        "sp95": 1.939,
        "gazole": 2.069
      }
    },
    {
      "id": "47552",
      "cp": "",
      "ville": "Palermo",
      "adresse": "Via Ugo La Malfa 137 90100",
      "brand": "Pompe Bianche",
      "lat": 38.164524000123,
      "lng": 13.311091000123,
      "fuels": {
        "sp95": 1.989,
        "gazole": 2.099
      }
    },
    {
      "id": "46274",
      "cp": "",
      "ville": "Palermo",
      "adresse": "Via Ugo La Malfa 26 90146",
      "brand": "q8",
      "lat": 38.15864441323772,
      "lng": 13.317108154296875,
      "fuels": {
        "sp95": 1.999,
        "gazole": 2.149
      }
    },
    {
      "id": "45496",
      "cp": "",
      "ville": "Palermo",
      "adresse": "Via Ugo La Malfa 6771 90146",
      "brand": "q8",
      "lat": 38.157935776006916,
      "lng": 13.317440748214722,
      "fuels": {
        "sp95": 1.989,
        "gazole": 2.139
      }
    },
    {
      "id": "60109",
      "cp": "",
      "ville": "Palermo",
      "adresse": "Via Ugo La Malfa 93 90146",
      "brand": "Agip Eni",
      "lat": 38.129900728999985,
      "lng": 13.344755732159282,
      "fuels": {
        "sp95": 1.919,
        "gazole": 2.049
      }
    },
    {
      "id": "43419",
      "cp": "",
      "ville": "Palermo",
      "adresse": "Via Ugo La Malfa 9596 90146, Palermo (pa) 9596 90146",
      "brand": "Esso",
      "lat": 38.179488373381375,
      "lng": 13.293530198741905,
      "fuels": {
        "sp95": 1.959,
        "gazole": 2.119
      }
    },
    {
      "id": "9617",
      "cp": "",
      "ville": "Palermo",
      "adresse": "Via Umberto Giordano  5 90144",
      "brand": "Agip Eni",
      "lat": 38.133363859262175,
      "lng": 13.340023973541292,
      "fuels": {
        "sp95": 1.939,
        "gazole": 2.069
      }
    },
    {
      "id": "29292",
      "cp": "",
      "ville": "Palermo",
      "adresse": "Via Via g. Aurispa Angolo Via Serradifalco Snc 90145, Palermo (pa) Snc 90145",
      "brand": "Gan",
      "lat": 38.12586331325431,
      "lng": 13.338535278404493,
      "fuels": {
        "sp95": 2.027,
        "gazole": 2.147
      }
    },
    {
      "id": "43933",
      "cp": "",
      "ville": "Palermo",
      "adresse": "Via Villa Sofia Snc 90144",
      "brand": "Pompe Bianche",
      "lat": 38.1544438452601,
      "lng": 13.33803833423283,
      "fuels": {
        "sp95": 1.896,
        "gazole": 2.076
      }
    },
    {
      "id": "41221",
      "cp": "",
      "ville": "Palermo",
      "adresse": "Via Villagrazia Angolo Via Sales 168 90100",
      "brand": "Pompe Bianche",
      "lat": 38.08679263358078,
      "lng": 13.344048868647747,
      "fuels": {
        "sp95": 2.027,
        "gazole": 2.147
      }
    },
    {
      "id": "37389",
      "cp": "",
      "ville": "Palermo",
      "adresse": "Viale Campania  90144",
      "brand": "Esso",
      "lat": 38.14446718412312,
      "lng": 13.339260444045067,
      "fuels": {
        "sp95": 1.867,
        "gazole": 1.997
      }
    },
    {
      "id": "52211",
      "cp": "",
      "ville": "Palermo",
      "adresse": "Viale Campania Snc 90144",
      "brand": "Agip Eni",
      "lat": 38.145186385125086,
      "lng": 13.338810903037368,
      "fuels": {
        "sp95": 2.027,
        "gazole": 2.147
      }
    },
    {
      "id": "44586",
      "cp": "",
      "ville": "Palermo",
      "adresse": "Viale Dell Olimpo 53 90151",
      "brand": "Esso",
      "lat": 38.18924486186048,
      "lng": 13.304965919492815,
      "fuels": {
        "sp95": 1.969,
        "gazole": 2.199
      }
    },
    {
      "id": "61569",
      "cp": "",
      "ville": "Palermo",
      "adresse": "Viale Dell'Olimpo 30/E 90147",
      "brand": "357",
      "lat": 38.18883350180006,
      "lng": 13.305798510998072,
      "fuels": {
        "sp95": 1.898,
        "gazole": 2.023
      }
    },
    {
      "id": "56182",
      "cp": "",
      "ville": "Palermo",
      "adresse": "Viale Dell'Olimpo 7  90146",
      "brand": "Pompe Bianche",
      "lat": 38.189,
      "lng": 13.3194,
      "fuels": {
        "sp95": 1.939,
        "gazole": 2.099,
        "gplc": 0.719
      }
    },
    {
      "id": "58167",
      "cp": "",
      "ville": "Palermo",
      "adresse": "Viale Della Regione Siciliana Nord Ovest 5398  90146",
      "brand": "Agip Eni",
      "lat": 38.151005,
      "lng": 13.323165,
      "fuels": {
        "sp95": 1.934,
        "gazole": 2.044
      }
    },
    {
      "id": "61564",
      "cp": "",
      "ville": "Palermo",
      "adresse": "Viale Della Regione Siciliana Nord Ovest 9127 90147",
      "brand": "357",
      "lat": 38.17448275493529,
      "lng": 13.296863436698914,
      "fuels": {
        "sp95": 1.898,
        "gazole": 2.023
      }
    },
    {
      "id": "58682",
      "cp": "",
      "ville": "Palermo",
      "adresse": "Viale Della Regione Siciliana Sud Est 893 90129",
      "brand": "Api-Ip",
      "lat": 38.09611347506876,
      "lng": 13.335432299066934,
      "fuels": {
        "sp95": 1.977,
        "gazole": 2.147
      }
    },
    {
      "id": "41953",
      "cp": "",
      "ville": "Palermo",
      "adresse": "Viale Delle Alpi ang. v. Umbria Snc 90144",
      "brand": "Eos",
      "lat": 38.142734181512566,
      "lng": 13.333926067567404,
      "fuels": {
        "sp95": 1.879,
        "gazole": 2.099
      }
    },
    {
      "id": "47165",
      "cp": "",
      "ville": "Palermo",
      "adresse": "Viale Leonardo Da Vinci 252 90135",
      "brand": "Eos",
      "lat": 38.12700844425107,
      "lng": 13.323387205600733,
      "fuels": {
        "sp95": 1.899,
        "gazole": 2.099
      }
    },
    {
      "id": "22528",
      "cp": "",
      "ville": "Palermo",
      "adresse": "Viale Margherita Di Savoia 85/B 90149",
      "brand": "Agip Eni",
      "lat": 38.19084216369283,
      "lng": 13.332440927624702,
      "fuels": {
        "sp95": 1.934,
        "gazole": 2.044
      }
    },
    {
      "id": "46276",
      "cp": "",
      "ville": "Palermo",
      "adresse": "Viale Michelangelo 1182 90145",
      "brand": "q8",
      "lat": 38.13650468364597,
      "lng": 13.317376375198364,
      "fuels": {
        "sp95": 1.959,
        "gazole": 2.129
      }
    },
    {
      "id": "51126",
      "cp": "",
      "ville": "Palermo",
      "adresse": "Viale Michelangelo 1622 90146",
      "brand": "Agip Eni",
      "lat": 38.1346823154292,
      "lng": 13.313408843724803,
      "fuels": {
        "sp95": 2.115,
        "gazole": 2.286
      }
    },
    {
      "id": "54801",
      "cp": "",
      "ville": "Palermo",
      "adresse": "Viale Michelangelo 2315  90135",
      "brand": "Agip Eni",
      "lat": 38.13182,
      "lng": 13.30533,
      "fuels": {
        "sp95": 1.919,
        "gazole": 2.049
      }
    },
    {
      "id": "8548",
      "cp": "",
      "ville": "Palermo",
      "adresse": "Viale Michelangelo 750 90145",
      "brand": "Esso",
      "lat": 38.13745611221036,
      "lng": 13.322212450262441,
      "fuels": {
        "sp95": 1.937,
        "gazole": 2.135
      }
    },
    {
      "id": "50983",
      "cp": "",
      "ville": "Palermo",
      "adresse": "Viale Michelangelo 867 90145",
      "brand": "Pompe Bianche",
      "lat": 38.1371001702138,
      "lng": 13.318765759468073,
      "fuels": {
        "sp95": 2.028,
        "gazole": 2.148
      }
    },
    {
      "id": "38687",
      "cp": "",
      "ville": "Palermo",
      "adresse": "Viale Principe Di Scalea 32 90151",
      "brand": "Agip Eni",
      "lat": 38.19773320851791,
      "lng": 13.32899697124958,
      "fuels": {
        "sp95": 1.939,
        "gazole": 2.049
      }
    },
    {
      "id": "57078",
      "cp": "",
      "ville": "Palermo",
      "adresse": "Viale reg. Siciliana S - e, ang. Via Vf 12 Snc 90100",
      "brand": "Agip Eni",
      "lat": 38.089819417532986,
      "lng": 13.37189221070862,
      "fuels": {
        "sp95": 2.039,
        "gazole": 2.199,
        "gplc": 0.731
      }
    },
    {
      "id": "44961",
      "cp": "",
      "ville": "Palermo",
      "adresse": "Viale reg. Siciliana/Via Pitre' Snc 90135",
      "brand": "Eos",
      "lat": 38.11167387231801,
      "lng": 13.330111503601074,
      "fuels": {
        "sp95": 1.899,
        "gazole": 2.099
      }
    },
    {
      "id": "37204",
      "cp": "",
      "ville": "Palermo",
      "adresse": "Viale Regione Siciliana 3385 90143",
      "brand": "Agip Eni",
      "lat": 38.133395,
      "lng": 13.330464,
      "fuels": {
        "sp95": 1.939,
        "gazole": 2.069
      }
    },
    {
      "id": "52213",
      "cp": "",
      "ville": "Palermo",
      "adresse": "Viale Regione Siciliana 3719 90124",
      "brand": "Agip Eni",
      "lat": 38.13666414103649,
      "lng": 13.331218890052927,
      "fuels": {
        "sp95": 2.027,
        "gazole": 2.147
      }
    },
    {
      "id": "62915",
      "cp": "",
      "ville": "Palermo",
      "adresse": "Viale Regione Siciliana 5005  90124",
      "brand": "Pompe Bianche",
      "lat": 38.08998283133965,
      "lng": 13.37556951611328,
      "fuels": {
        "sp95": 1.957,
        "gazole": 2.137,
        "gplc": 0.699
      }
    },
    {
      "id": "56862",
      "cp": "",
      "ville": "Palermo",
      "adresse": "Viale Regione Siciliana Angolo Via Leonardo Da Vinci",
      "brand": "Agip Eni",
      "lat": 38.128048,
      "lng": 13.329085,
      "fuels": {
        "sp95": 1.934,
        "gazole": 2.064
      }
    },
    {
      "id": "46506",
      "cp": "",
      "ville": "Palermo",
      "adresse": "Viale Regione Siciliana N O 4561 90145",
      "brand": "q8",
      "lat": 38.144702398136985,
      "lng": 13.330283164978027,
      "fuels": {
        "sp95": 1.999,
        "gazole": 2.129
      }
    },
    {
      "id": "47725",
      "cp": "",
      "ville": "Palermo",
      "adresse": "Viale Regione Siciliana N O 9127 90147",
      "brand": "q8",
      "lat": 38.172128298507104,
      "lng": 13.299086391925806,
      "fuels": {
        "sp95": 1.979,
        "gazole": 2.129
      }
    },
    {
      "id": "47371",
      "cp": "",
      "ville": "Palermo",
      "adresse": "Viale Regione Siciliana S E 2085 90125",
      "brand": "Esso",
      "lat": 38.087273666903215,
      "lng": 13.347649116567606,
      "fuels": {
        "sp95": 1.939,
        "gazole": 2.139
      }
    },
    {
      "id": "45497",
      "cp": "",
      "ville": "Palermo",
      "adresse": "Viale Regione Siciliana S E 760 90129",
      "brand": "q8",
      "lat": 38.09745481167074,
      "lng": 13.334861695766449,
      "fuels": {
        "sp95": 1.977,
        "gazole": 2.129
      }
    },
    {
      "id": "42554",
      "cp": "",
      "ville": "Palermo",
      "adresse": "Viale Regione Siciliana s.e. 2000 90125",
      "brand": "q8",
      "lat": 38.0877432282675,
      "lng": 13.348232518663053,
      "fuels": {
        "sp95": 1.939,
        "gazole": 2.139
      }
    },
    {
      "id": "38044",
      "cp": "",
      "ville": "Palermo",
      "adresse": "Viale Regione Siciliana Snc 90124",
      "brand": "q8",
      "lat": 38.090120253929776,
      "lng": 13.38232934474945,
      "fuels": {
        "sp95": 1.967,
        "gazole": 2.147
      }
    },
    {
      "id": "49403",
      "cp": "",
      "ville": "Palermo",
      "adresse": "Viale Regione Siciliana Sud Est - Via Dell'Ermellino",
      "brand": "Agip Eni",
      "lat": 38.08821893365742,
      "lng": 13.36689437187915,
      "fuels": {
        "sp95": 2.027,
        "gazole": 2.147,
        "e85": 1.937
      }
    },
    {
      "id": "50361",
      "cp": "",
      "ville": "Palermo",
      "adresse": "Viale Regione siciliana, Ponte Corleone  90100",
      "brand": "q8",
      "lat": 38.0876832758095,
      "lng": 13.348114490509028,
      "fuels": {
        "sp95": 1.939,
        "gazole": 2.139
      }
    },
    {
      "id": "52209",
      "cp": "",
      "ville": "Palermo",
      "adresse": "Viale Strasburgo 195 90146",
      "brand": "Agip Eni",
      "lat": 38.15707372495204,
      "lng": 13.326429560955976,
      "fuels": {
        "sp95": 2.027,
        "gazole": 2.147
      }
    },
    {
      "id": "53041",
      "cp": "",
      "ville": "Palermo",
      "adresse": "Viale Strasburgo 251 90146",
      "brand": "Agip Eni",
      "lat": 38.15912757828072,
      "lng": 13.324369490146637,
      "fuels": {
        "sp95": 2.027,
        "gazole": 2.147
      }
    },
    {
      "id": "52208",
      "cp": "",
      "ville": "Palermo",
      "adresse": "Viale Strasburgo 326 ang.via Franc 326 90146",
      "brand": "Agip Eni",
      "lat": 38.15640355503289,
      "lng": 13.326717428863049,
      "fuels": {
        "sp95": 2.027,
        "gazole": 2.147
      }
    },
    {
      "id": "57774",
      "cp": "",
      "ville": "Palermo",
      "adresse": "Viale Strasburgo 98  90146",
      "brand": "Pompe Bianche",
      "lat": 38.15121627558483,
      "lng": 13.33146953885272,
      "fuels": {
        "sp95": 1.939,
        "gazole": 2.099
      }
    },
    {
      "id": "42588",
      "cp": "",
      "ville": "Palermo",
      "adresse": "Vincenzo Fuxa Snc 90143",
      "brand": "Esso",
      "lat": 38.144171772071836,
      "lng": 13.34906363168102,
      "fuels": {
        "sp95": 1.899,
        "gazole": 2.039
      }
    },
    {
      "id": "60549",
      "cp": "",
      "ville": "Palermo",
      "adresse": "Vittorio Alfieri Snc 90144",
      "brand": "Pompe Bianche",
      "lat": 38.139016,
      "lng": 13.344482,
      "fuels": {
        "sp95": 1.929,
        "gazole": 2.129
      }
    },
    {
      "id": "36887",
      "cp": "",
      "ville": "Palermo",
      "adresse": "Zoppo Di Gangi Snc 90138",
      "brand": "Api-Ip",
      "lat": 38.12167062231123,
      "lng": 13.346385061740875,
      "fuels": {
        "sp95": 2.027,
        "gazole": 2.147
      }
    },
    {
      "id": "47194",
      "cp": "",
      "ville": "Partinico",
      "adresse": "113 Settentrionale sicula, km. Km 113+178, Alcamo - 90047",
      "brand": "Esso",
      "lat": 38.03739934963453,
      "lng": 13.104424495106501,
      "fuels": {
        "sp95": 1.939,
        "gazole": 2.139
      }
    },
    {
      "id": "36872",
      "cp": "",
      "ville": "Partinico",
      "adresse": "Benevento Snc 90047",
      "brand": "Api-Ip",
      "lat": 38.03897076645141,
      "lng": 13.117977529764175,
      "fuels": {
        "sp95": 2.027,
        "gazole": 2.147,
        "gplc": 0.747
      }
    },
    {
      "id": "62460",
      "cp": "",
      "ville": "Partinico",
      "adresse": "Km 2 E 400 Partinico  Snc 90047",
      "brand": "Pompe Bianche",
      "lat": 38.024338416971716,
      "lng": 13.107679244809333,
      "fuels": {
        "sp95": 1.995,
        "gazole": 2.135,
        "gplc": 0.747
      }
    },
    {
      "id": "63333",
      "cp": "",
      "ville": "Partinico",
      "adresse": "Largo Ascone  90047",
      "brand": "Esso",
      "lat": 38.0494299,
      "lng": 13.1200816,
      "fuels": {
        "sp95": 1.959,
        "gazole": 2.189
      }
    },
    {
      "id": "57090",
      "cp": "",
      "ville": "Partinico",
      "adresse": "Madonna Del Ponte Snc 90047",
      "brand": "Agip Eni",
      "lat": 38.0484193,
      "lng": 13.1097575,
      "fuels": {
        "sp95": 1.949,
        "gazole": 2.059
      }
    },
    {
      "id": "48495",
      "cp": "",
      "ville": "Partinico",
      "adresse": "Piazza Ascone Snc 90047",
      "brand": "Esso",
      "lat": 38.04970878523411,
      "lng": 13.11983365889549,
      "fuels": {
        "sp95": 1.879,
        "gazole": 1.989
      }
    },
    {
      "id": "35736",
      "cp": "",
      "ville": "Partinico",
      "adresse": "s.p 17  Di  Balestrate km4+720 Sn 90047",
      "brand": "Esso",
      "lat": 38.036088011462056,
      "lng": 13.013608753681183,
      "fuels": {
        "sp95": 1.959,
        "gazole": 1.999,
        "gplc": 0.799
      }
    },
    {
      "id": "49437",
      "cp": "",
      "ville": "Partinico",
      "adresse": "s.s. 113 Km 314+379 Snc 90047",
      "brand": "q8",
      "lat": 38.01409203303627,
      "lng": 13.068606853485102,
      "fuels": {
        "gplc": 0.699
      }
    },
    {
      "id": "46470",
      "cp": "",
      "ville": "Partinico",
      "adresse": "Sp 17 Km 4 700  90047",
      "brand": "Agip Eni",
      "lat": 38.034190066834725,
      "lng": 13.013181686401367,
      "fuels": {
        "sp95": 1.964,
        "gazole": 2.109
      }
    },
    {
      "id": "47679",
      "cp": "",
      "ville": "Partinico",
      "adresse": "sp1 Partinico/Montelepre Contrada Albachiara km23+800 Sn  90047",
      "brand": "Pompe Bianche",
      "lat": 38.06284240871058,
      "lng": 13.14285372453691,
      "fuels": {
        "sp95": 1.993,
        "gazole": 2.133
      }
    },
    {
      "id": "50988",
      "cp": "",
      "ville": "Partinico",
      "adresse": "Ss 113 Km 311+362 Snc 90047",
      "brand": "Agip Eni",
      "lat": 38.0366837,
      "lng": 13.1026193,
      "fuels": {
        "sp95": 1.909,
        "gazole": 2.024
      }
    },
    {
      "id": "26212",
      "cp": "",
      "ville": "Partinico",
      "adresse": "Statale 113 Settentrionale sicula, km. 305, dir. Bivio Autostradale - 90047",
      "brand": "Pompe Bianche",
      "lat": 38.07095738768556,
      "lng": 13.093068599700928,
      "fuels": {
        "sp95": 1.979,
        "gazole": 2.109,
        "gplc": 0.747
      }
    },
    {
      "id": "25301",
      "cp": "",
      "ville": "Partinico",
      "adresse": "Statale 113 Settentrionale sicula, km. 306+470, dir. Partinico - 90047",
      "brand": "Pompe Bianche",
      "lat": 38.068580561955166,
      "lng": 13.098801076412201,
      "fuels": {
        "sp95": 1.997,
        "gazole": 2.097
      }
    },
    {
      "id": "47692",
      "cp": "",
      "ville": "Partinico",
      "adresse": "Strada Provinciale Partinico/Montelepre   90047",
      "brand": "Pompe Bianche",
      "lat": 38.0560878131343,
      "lng": 13.130284737613094,
      "fuels": {
        "sp95": 2.027,
        "gazole": 2.147
      }
    },
    {
      "id": "46504",
      "cp": "",
      "ville": "Partinico",
      "adresse": "Via Aldo Moro - Contrada Ramo Snc 90047",
      "brand": "q8",
      "lat": 38.043413201440494,
      "lng": 13.129374980926514,
      "fuels": {
        "sp95": 1.999,
        "gazole": 2.149
      }
    },
    {
      "id": "46505",
      "cp": "",
      "ville": "Partinico",
      "adresse": "Via Benevento Snc 90047",
      "brand": "q8",
      "lat": 38.04244784759867,
      "lng": 13.128414750099182,
      "fuels": {
        "sp95": 1.999,
        "gazole": 2.149
      }
    },
    {
      "id": "45260",
      "cp": "",
      "ville": "Partinico",
      "adresse": "Via Principe Umberto",
      "brand": "q8",
      "lat": 38.03677712826292,
      "lng": 13.112987279891968,
      "fuels": {
        "sp95": 1.999,
        "gazole": 2.149
      }
    },
    {
      "id": "39994",
      "cp": "",
      "ville": "Partinico",
      "adresse": "Via Via Aldo Moro 52 90047, Partinico (pa) 48 90047",
      "brand": "Gan",
      "lat": 38.044670665235756,
      "lng": 13.12750406563282,
      "fuels": {
        "sp95": 2.027,
        "gazole": 2.147
      }
    },
    {
      "id": "50409",
      "cp": "",
      "ville": "Partinico",
      "adresse": "Viale Dei Platani 41 90047",
      "brand": "q8",
      "lat": 38.0542883193477,
      "lng": 13.11418244907379,
      "fuels": {
        "sp95": 1.999,
        "gazole": 2.119
      }
    },
    {
      "id": "39697",
      "cp": "",
      "ville": "Petralia Soprana",
      "adresse": "Bivio Trinita' ss. 290 02 90026",
      "brand": "Api-Ip",
      "lat": 37.77501530117046,
      "lng": 14.096316833551441,
      "fuels": {
        "sp95": 2.027,
        "gazole": 2.147
      }
    },
    {
      "id": "21130",
      "cp": "",
      "ville": "Petralia Soprana",
      "adresse": "Primo Maggio 56 90026",
      "brand": "Pompe Bianche",
      "lat": 37.79152503529076,
      "lng": 14.106290973367663,
      "fuels": {
        "sp95": 1.989,
        "gazole": 2.059
      }
    },
    {
      "id": "44160",
      "cp": "",
      "ville": "Petralia Sottana",
      "adresse": "s.p. 54 Km 33+800 (quartiere s.giuseppe)  90027",
      "brand": "q8",
      "lat": 37.813689535356865,
      "lng": 14.09300327116398,
      "fuels": {
        "sp95": 1.959,
        "gazole": 2.079,
        "e85": 1.859
      }
    },
    {
      "id": "54773",
      "cp": "",
      "ville": "Piana Degli Albanesi",
      "adresse": "Circonvallazione Snc 90037",
      "brand": "Agip Eni",
      "lat": 37.992049265000475,
      "lng": 13.293875455856323,
      "fuels": {
        "sp95": 2.027,
        "gazole": 2.147
      }
    },