{
  "code": "PE",
  "name": "Pescara",
  "regionCode": "ABR",
  "regionName": "Abruzzo",
  "asOf": "2026-07-17T07:28:11.002Z",
  "source": "https://www.mimit.gov.it/it/open-data/elenco-dataset/2032336-dataset-prezzi-carburanti",
  "stationCount": 122,
  "fuels": {
    "gazole": {
      "count": 122,
      "mean": 2.0237,
      "median": 2.024,
      "min": 1.878,
      "max": 2.159
    },
    "sp95": {
      "count": 122,
      "mean": 1.911,
      "median": 1.909,
      "min": 1.847,
      "max": 2.059
    },
    "e85": {
      "count": 8,
      "mean": 1.4783,
      "median": 1.495,
      "min": 1.447,
      "max": 1.499
    },
    "gplc": {
      "count": 12,
      "mean": 0.7908,
      "median": 0.799,
      "min": 0.727,
      "max": 0.849
    }
  },
  "stations": [
    {
      "id": "20368",
      "cp": "",
      "ville": "Alanno",
      "adresse": "Via Via g. Matteotti 2 65020, Alanno (pe) 2 65020",
      "brand": "Api-Ip",
      "lat": 42.289041548245685,
      "lng": 14.006262160713163,
      "fuels": {
        "sp95": 1.919,
        "gazole": 1.999
      }
    },
    {
      "id": "26095",
      "cp": "",
      "ville": "Bolognano",
      "adresse": "Statale 5 Via Tiburtina valeria, km. 197, dir. Piano D'Orta - 65020",
      "brand": "Agip Eni",
      "lat": 42.25214350067128,
      "lng": 13.952057361602783,
      "fuels": {
        "sp95": 1.884,
        "gazole": 1.959
      }
    },
    {
      "id": "46427",
      "cp": "",
      "ville": "Bussi Sul Tirino",
      "adresse": "153 Km 3+940 Snc 65022",
      "brand": "Tamoil",
      "lat": 42.21501254079113,
      "lng": 13.820407210450753,
      "fuels": {
        "sp95": 1.979,
        "gazole": 2.069
      }
    },
    {
      "id": "22691",
      "cp": "",
      "ville": "Cappelle Sul Tavo",
      "adresse": "Strada Provinciale Variante Sotto Cappelle  65010",
      "brand": "Api-Ip",
      "lat": 42.46660789680314,
      "lng": 14.094767255744253,
      "fuels": {
        "sp95": 1.949,
        "gazole": 2.069,
        "gplc": 0.849
      }
    },
    {
      "id": "52524",
      "cp": "",
      "ville": "Caramanico Terme",
      "adresse": "s.s 487 km17+555  65023",
      "brand": "Agip Eni",
      "lat": 42.16438580624492,
      "lng": 14.003527603736709,
      "fuels": {
        "sp95": 1.904,
        "gazole": 2.024
      }
    },
    {
      "id": "61394",
      "cp": "",
      "ville": "Castiglione A Casauria",
      "adresse": "San Clemente Snc 65020",
      "brand": "q8",
      "lat": 42.23483100329371,
      "lng": 13.926729203779344,
      "fuels": {
        "sp95": 1.869,
        "gazole": 1.969
      }
    },
    {
      "id": "62681",
      "cp": "",
      "ville": "Catignano",
      "adresse": "Contrada Sterpara 60  65011",
      "brand": "Petrol Gamma",
      "lat": 42.34961303619037,
      "lng": 13.96620650208284,
      "fuels": {
        "sp95": 1.887,
        "gazole": 1.997
      }
    },
    {
      "id": "44622",
      "cp": "",
      "ville": "Cepagatti",
      "adresse": "602 Di Forca Di penne, km. 50+200, Pescara - 65012",
      "brand": "Pompe Bianche",
      "lat": 42.365494,
      "lng": 14.087686,
      "fuels": {
        "sp95": 1.919,
        "gazole": 2.069
      }
    },
    {
      "id": "49885",
      "cp": "",
      "ville": "Cepagatti",
      "adresse": "81 Piceno aprutina, km. 128+0.75, Sud - 65012",
      "brand": "Api-Ip",
      "lat": 42.36531431464556,
      "lng": 14.087373330625041,
      "fuels": {
        "sp95": 1.899,
        "gazole": 2.049
      }
    },
    {
      "id": "41203",
      "cp": "",
      "ville": "Cepagatti",
      "adresse": "loc. Bucceri - Via Nazionale Sn 65012",
      "brand": "q8",
      "lat": 42.39585,
      "lng": 14.1376,
      "fuels": {
        "sp95": 1.939,
        "gazole": 2.049,
        "gplc": 0.799
      }
    },
    {
      "id": "61136",
      "cp": "",
      "ville": "Cepagatti",
      "adresse": "Località Bucceri C/O c.c. Megalò  65012",
      "brand": "Api-Ip",
      "lat": 42.34597,
      "lng": 14.12942,
      "fuels": {
        "sp95": 1.947,
        "gazole": 2.045
      }
    },
    {
      "id": "58443",
      "cp": "",
      "ville": "Cepagatti",
      "adresse": "Via Dante Alighieri  65012",
      "brand": "Pompe Bianche",
      "lat": 42.36558,
      "lng": 14.09133,
      "fuels": {
        "sp95": 1.939,
        "gazole": 2.049
      }
    },
    {
      "id": "58440",
      "cp": "",
      "ville": "Cepagatti",
      "adresse": "Via Gabriele D'Annunzio  65012",
      "brand": "Pompe Bianche",
      "lat": 42.4132,
      "lng": 14.1518,
      "fuels": {
        "sp95": 1.939,
        "gazole": 2.049,
        "e85": 1.497,
        "gplc": 0.799
      }
    },
    {
      "id": "57251",
      "cp": "",
      "ville": "Cepagatti",
      "adresse": "Via Lombardia  65012",
      "brand": "Api-Ip",
      "lat": 42.39820098149461,
      "lng": 14.142763585764083,
      "fuels": {
        "sp95": 1.939,
        "gazole": 2.049,
        "e85": 1.499
      }
    },
    {
      "id": "60813",
      "cp": "",
      "ville": "Cepagatti",
      "adresse": "Via m. Serao 18  65012",
      "brand": "Pompe Bianche",
      "lat": 42.3454693,
      "lng": 14.112609,
      "fuels": {
        "sp95": 1.889,
        "gazole": 1.999
      }
    },
    {
      "id": "48602",
      "cp": "",
      "ville": "Cepagatti",
      "adresse": "Via Via Ponte Delle Fascine s.n. 65012, Cepagatti (pe)  65012",
      "brand": "Pompe Bianche",
      "lat": 42.33959240486815,
      "lng": 14.11664276838917,
      "fuels": {
        "sp95": 1.877,
        "gazole": 1.977,
        "e85": 1.447,
        "gplc": 0.727
      }
    },
    {
      "id": "46112",
      "cp": "",
      "ville": "Città Sant'Angelo",
      "adresse": "16 adriatica, km. 438+538, Sud   65013",
      "brand": "Esso",
      "lat": 42.526123000123,
      "lng": 14.137977000123,
      "fuels": {
        "sp95": 1.949,
        "gazole": 2.069
      }
    },
    {
      "id": "34061",
      "cp": "",
      "ville": "Città Sant'Angelo",
      "adresse": "loc. Madonna Della Pace Snc 65013",
      "brand": "Pompe Bianche",
      "lat": 42.52008531041145,
      "lng": 14.097542390227318,
      "fuels": {
        "sp95": 1.927,
        "gazole": 2.027
      }
    },
    {
      "id": "55076",
      "cp": "",
      "ville": "Città Sant'Angelo",
      "adresse": "s.martino Bassa Lungofino 20 65013",
      "brand": "Agip Eni",
      "lat": 42.509347173048674,
      "lng": 14.124045256958023,
      "fuels": {
        "sp95": 1.919,
        "gazole": 1.979
      }
    },
    {
      "id": "27382",
      "cp": "",
      "ville": "Città Sant'Angelo",
      "adresse": "s.s. 16 Km 438+860 Snc 65013",
      "brand": "Tamoil",
      "lat": 42.5241915850161,
      "lng": 14.140353798866272,
      "fuels": {
        "sp95": 1.959,
        "gazole": 2.079
      }
    },
    {
      "id": "63197",
      "cp": "",
      "ville": "Città Sant'Angelo",
      "adresse": "s.s.16 km.438+538 Snc 65013",
      "brand": "Esso",
      "lat": 42.52614,
      "lng": 14.137997,
      "fuels": {
        "sp95": 1.959,
        "gazole": 2.069
      }
    },
    {
      "id": "50889",
      "cp": "",
      "ville": "Città Sant'Angelo",
      "adresse": "Srada Statale Lungofino Km 4+442 65013",
      "brand": "q8",
      "lat": 42.491147835066094,
      "lng": 14.00025014219591,
      "fuels": {
        "sp95": 1.899,
        "gazole": 1.999,
        "e85": 1.495,
        "gplc": 0.827
      }
    },
    {
      "id": "8824",
      "cp": "",
      "ville": "Città Sant'Angelo",
      "adresse": "Via g.d'Annunzio  65013",
      "brand": "Agip Eni",
      "lat": 42.51922728605931,
      "lng": 14.062221302997614,
      "fuels": {
        "sp95": 1.949,
        "gazole": 2.059
      }
    },
    {
      "id": "34060",
      "cp": "",
      "ville": "Città Sant'Angelo",
      "adresse": "Via Xxii Maggio 1944 1 65013",
      "brand": "Agip Eni",
      "lat": 42.521784732985296,
      "lng": 14.139023456344603,
      "fuels": {
        "sp95": 1.924,
        "gazole": 2.024
      }
    },
    {
      "id": "50763",
      "cp": "",
      "ville": "Città Sant'Angelo",
      "adresse": "Viale Petruzzi 108 65013",
      "brand": "Shell",
      "lat": 42.52076102121929,
      "lng": 14.118219326991385,
      "fuels": {
        "sp95": 1.939,
        "gazole": 2.079
      }
    },
    {
      "id": "49828",
      "cp": "",
      "ville": "Civitella Casanova",
      "adresse": "Abate Casari Sn 65010",
      "brand": "Pompe Bianche",
      "lat": 42.365012644447255,
      "lng": 13.886597454547882,
      "fuels": {
        "sp95": 1.959,
        "gazole": 2.098
      }
    },
    {
      "id": "49065",
      "cp": "",
      "ville": "Collecorvino",
      "adresse": "Strada Statale 151 Della Valle Del tavo, km. 12+450 Sn 65010",
      "brand": "Petrol Gamma",
      "lat": 42.43639892443602,
      "lng": 14.036095738410944,
      "fuels": {
        "sp95": 1.897,
        "gazole": 1.987
      }
    },
    {
      "id": "19569",
      "cp": "",
      "ville": "Cugnoli",
      "adresse": "Contrada Sant'Anatolia  65020",
      "brand": "Api-Ip",
      "lat": 42.30661271710979,
      "lng": 13.933699652552605,
      "fuels": {
        "sp95": 1.959,
        "gazole": 2.126
      }
    },
    {
      "id": "50964",
      "cp": "",
      "ville": "Elice",
      "adresse": "Via Tevere 110 65010",
      "brand": "Agip Eni",
      "lat": 42.49107655405831,
      "lng": 14.000310151169536,
      "fuels": {
        "sp95": 1.909,
        "gazole": 2.009
      }
    },
    {
      "id": "28966",
      "cp": "",
      "ville": "Farindola",
      "adresse": "San Rocco 19 65010",
      "brand": "Pompe Bianche",
      "lat": 42.44246733957611,
      "lng": 13.82150300779574,
      "fuels": {
        "sp95": 1.854,
        "gazole": 1.949
      }
    },
    {
      "id": "28590",
      "cp": "",
      "ville": "Lettomanoppello",
      "adresse": "Strada Provinciale Scafa manoppello, km3  65020",
      "brand": "Itala Petroli",
      "lat": 42.25207758694771,
      "lng": 14.02350202202797,
      "fuels": {
        "sp95": 1.929,
        "gazole": 2.009,
        "gplc": 0.74
      }
    },
    {
      "id": "49066",
      "cp": "",
      "ville": "Loreto Aprutino",
      "adresse": "81 Piceno aprutina, km. snc, 00 - 65014",
      "brand": "Petrol Gamma",
      "lat": 42.4036289378637,
      "lng": 13.952609300613398,
      "fuels": {
        "sp95": 1.897,
        "gazole": 1.987
      }
    },
    {
      "id": "59847",
      "cp": "",
      "ville": "Loreto Aprutino",
      "adresse": "s.p. 151 Km 7+424 Snc 65014",
      "brand": "Api-Ip",
      "lat": 42.431656030462065,
      "lng": 13.983418588954919,
      "fuels": {
        "sp95": 1.879,
        "gazole": 2.069
      }
    },
    {
      "id": "54627",
      "cp": "",
      "ville": "Loreto Aprutino",
      "adresse": "Scrizzetto 45 65014",
      "brand": "Ok Energie",
      "lat": 42.38405433811068,
      "lng": 13.964336575815704,
      "fuels": {
        "sp95": 1.869,
        "gazole": 1.979
      }
    },
    {
      "id": "28585",
      "cp": "",
      "ville": "Manoppello",
      "adresse": "Statale 5 Via Tiburtina valeria, km. 206+360, dir. Pescara  65024",
      "brand": "Itala Petroli",
      "lat": 42.28491711771201,
      "lng": 14.029709994792938,
      "fuels": {
        "sp95": 1.929,
        "gazole": 2.009,
        "gplc": 0.729
      }
    },
    {
      "id": "43536",
      "cp": "",
      "ville": "Manoppello",
      "adresse": "Strada Str-St-5 Tiburtina s.n. 65025, Manoppello (pe) . 65024",
      "brand": "Agip Eni",
      "lat": 42.31112737052609,
      "lng": 14.059747806854261,
      "fuels": {
        "sp95": 1.904,
        "gazole": 2.024
      }
    },
    {
      "id": "43535",
      "cp": "",
      "ville": "Manoppello",
      "adresse": "Via Aldo Moro 25 65024",
      "brand": "Agip Eni",
      "lat": 42.31317818227437,
      "lng": 14.072006549360708,
      "fuels": {
        "sp95": 1.884,
        "gazole": 1.969
      }
    },
    {
      "id": "5535",
      "cp": "",
      "ville": "Manoppello",
      "adresse": "Via Tiburtina 2 65025",
      "brand": "Api-Ip",
      "lat": 42.31568075027321,
      "lng": 14.077930813491776,
      "fuels": {
        "sp95": 1.919,
        "gazole": 1.999
      }
    },
    {
      "id": "41318",
      "cp": "",
      "ville": "Manoppello",
      "adresse": "Via Tiburtina Valeria Km 208+685 Sn 65024",
      "brand": "Shell",
      "lat": 42.299047861940686,
      "lng": 14.046567678451538,
      "fuels": {
        "sp95": 1.879,
        "gazole": 2.019,
        "gplc": 0.799
      }
    },
    {
      "id": "48911",
      "cp": "",
      "ville": "Montesilvano",
      "adresse": "16 adriatica, km. 14+150, Nord  65015",
      "brand": "Ok Energie",
      "lat": 42.481663897471755,
      "lng": 14.115263898147598,
      "fuels": {
        "sp95": 1.859,
        "gazole": 1.959
      }
    },
    {
      "id": "58651",
      "cp": "",
      "ville": "Montesilvano",
      "adresse": "Aldo Moro Snc 65015",
      "brand": "Coil",
      "lat": 42.49445491271066,
      "lng": 14.184539501925462,
      "fuels": {
        "sp95": 1.847,
        "gazole": 1.997
      }
    },
    {
      "id": "40831",
      "cp": "",
      "ville": "Montesilvano",
      "adresse": "Corso Umberto 2 65015",
      "brand": "Pompe Bianche",
      "lat": 42.519530986197594,
      "lng": 14.14515495300293,
      "fuels": {
        "sp95": 1.897,
        "gazole": 2.037
      }
    },
    {
      "id": "9669",
      "cp": "",
      "ville": "Montesilvano",
      "adresse": "Corso Umberto I 243 65015",
      "brand": "Agip Eni",
      "lat": 42.512039700730234,
      "lng": 14.155743541139259,
      "fuels": {
        "sp95": 1.889,
        "gazole": 1.979
      }
    },
    {
      "id": "54678",
      "cp": "",
      "ville": "Montesilvano",
      "adresse": "Giuseppe Verrotti 168 65015",
      "brand": "Api-Ip",
      "lat": 42.498392524379085,
      "lng": 14.16838431909028,
      "fuels": {
        "sp95": 1.899,
        "gazole": 2.059
      }
    },
    {
      "id": "61413",
      "cp": "",
      "ville": "Montesilvano",
      "adresse": "ss16 442  65015",
      "brand": "Api-Ip",
      "lat": 42.5022707,
      "lng": 14.1668236,
      "fuels": {
        "sp95": 1.897,
        "gazole": 1.997
      }
    },
    {
      "id": "56664",
      "cp": "",
      "ville": "Montesilvano",
      "adresse": "Verrotti Snc 65015",
      "brand": "Esso",
      "lat": 42.502824,
      "lng": 14.163999,
      "fuels": {
        "sp95": 1.919,
        "gazole": 2.069
      }
    },
    {
      "id": "44784",
      "cp": "",
      "ville": "Montesilvano",
      "adresse": "Via Alberto D'Andrea Nell'Ambito Porto Allegro 1 65015",
      "brand": "Pompe Bianche",
      "lat": 42.521296978110655,
      "lng": 14.14929864237547,
      "fuels": {
        "sp95": 1.849,
        "gazole": 1.999
      }
    },
    {
      "id": "9627",
      "cp": "",
      "ville": "Montesilvano",
      "adresse": "Via Aldo Moro 78 65016",
      "brand": "Agip Eni",
      "lat": 42.51923820446039,
      "lng": 14.159004539251328,
      "fuels": {
        "sp95": 1.889,
        "gazole": 1.989
      }
    },
    {
      "id": "4825",
      "cp": "",
      "ville": "Montesilvano",
      "adresse": "Via Cervino   1 65015",
      "brand": "Pompe Bianche",
      "lat": 42.491865835349095,
      "lng": 14.173233500552328,
      "fuels": {
        "sp95": 1.867,
        "gazole": 1.967,
        "e85": 1.447
      }
    },
    {
      "id": "32464",
      "cp": "",
      "ville": "Montesilvano",
      "adresse": "Via Chiarini Sn 65015",
      "brand": "Api-Ip",
      "lat": 42.50497623824829,
      "lng": 14.142814055085182,
      "fuels": {
        "sp95": 1.869,
        "gazole": 1.969
      }
    },
    {
      "id": "62680",
      "cp": "",
      "ville": "Montesilvano",
      "adresse": "Via g. Verrotti 58 65015",
      "brand": "Petrol Gamma",
      "lat": 42.50265528030207,
      "lng": 14.163874084026737,
      "fuels": {
        "sp95": 1.847,
        "gazole": 1.947
      }
    },
    {
      "id": "33984",
      "cp": "",
      "ville": "Montesilvano",
      "adresse": "Via Giuseppe Verrotti 21 65015",
      "brand": "Agip Eni",
      "lat": 42.504493504668616,
      "lng": 14.162255121965018,
      "fuels": {
        "sp95": 1.929,
        "gazole": 1.989
      }
    },
    {
      "id": "26098",
      "cp": "",
      "ville": "Montesilvano",
      "adresse": "Via Togliatti/Via Foreste 13 65015",
      "brand": "Agip Eni",
      "lat": 42.50167907701153,
      "lng": 14.13714051246643,
      "fuels": {
        "sp95": 1.874,
        "gazole": 1.959
      }
    },
    {
      "id": "34232",
      "cp": "",
      "ville": "Montesilvano",
      "adresse": "Via Vestina - s.s. 16 Bis km. 18,071  65015",
      "brand": "Api-Ip",
      "lat": 42.5098583280203,
      "lng": 14.143002682209044,
      "fuels": {
        "sp95": 1.877,
        "gazole": 1.977
      }
    },
    {
      "id": "54427",
      "cp": "",
      "ville": "Montesilvano",
      "adresse": "Via Vestina 276 65015",
      "brand": "Pompe Bianche",
      "lat": 42.507052602268026,
      "lng": 14.138741016397018,
      "fuels": {
        "sp95": 1.857,
        "gazole": 1.957
      }
    },
    {
      "id": "60964",
      "cp": "",
      "ville": "Montesilvano",
      "adresse": "Via Vestina 431  65015",
      "brand": "Pompe Bianche",
      "lat": 42.488068,
      "lng": 14.120872,
      "fuels": {
        "sp95": 1.887,
        "gazole": 1.987
      }
    },
    {
      "id": "45361",
      "cp": "",
      "ville": "Moscufo",
      "adresse": "Ss 151 Km 17.750 65010",
      "brand": "Agip Eni",
      "lat": 42.456021032669256,
      "lng": 14.08078670501709,
      "fuels": {
        "sp95": 1.924,
        "gazole": 2.024
      }
    },
    {
      "id": "18903",
      "cp": "",
      "ville": "Nocciano",
      "adresse": "Sr 602  42+530 Contrada Casali  169/A 65010",
      "brand": "Agip Eni",
      "lat": 42.354852731490794,
      "lng": 14.022008031606674,
      "fuels": {
        "sp95": 1.895,
        "gazole": 2.035,
        "gplc": 0.768
      }
    },
    {
      "id": "60814",
      "cp": "",
      "ville": "Penne",
      "adresse": "c.da Ponte s.antonio Snc 65017",
      "brand": "Pompe Bianche",
      "lat": 42.4259438,
      "lng": 13.927656,
      "fuels": {
        "sp95": 1.929,
        "gazole": 2.039
      }
    },
    {
      "id": "35506",
      "cp": "",
      "ville": "Penne",
      "adresse": "Circonvallazione Aldo Moro 45 65017",
      "brand": "Api-Ip",
      "lat": 42.45572912974955,
      "lng": 13.924823552370071,
      "fuels": {
        "sp95": 1.887,
        "gazole": 1.997
      }
    },
    {
      "id": "23216",
      "cp": "",
      "ville": "Penne",
      "adresse": "s.s. 81 Km 107+849 Snc 65017",
      "brand": "Agip Eni",
      "lat": 42.42331752523229,
      "lng": 13.929872810840607,
      "fuels": {
        "sp95": 1.894,
        "gazole": 2.009,
        "e85": 1.495,
        "gplc": 0.827
      }
    },
    {
      "id": "7988",
      "cp": "",
      "ville": "Penne",
      "adresse": "Statale 81 Piceno aprutina, km. 103+300, dir. Sud - -",
      "brand": "Agip Eni",
      "lat": 42.45096387939324,
      "lng": 13.934193849563599,
      "fuels": {
        "sp95": 1.894,
        "gazole": 2.009
      }
    },
    {
      "id": "46087",
      "cp": "",
      "ville": "Pescara",
      "adresse": "Bovio 414 65123",
      "brand": "Agip Eni",
      "lat": 42.479842000123,
      "lng": 14.194619000123,
      "fuels": {
        "sp95": 1.889,
        "gazole": 1.974
      }
    },
    {
      "id": "57097",
      "cp": "",
      "ville": "Pescara",
      "adresse": "Del Circuito 35 65121",
      "brand": "Esso",
      "lat": 42.464757,
      "lng": 14.206401,
      "fuels": {
        "sp95": 1.929,
        "gazole": 2.049
      }
    },
    {
      "id": "59664",
      "cp": "",
      "ville": "Pescara",
      "adresse": "Di Sotto 124/8 65125",
      "brand": "Api-Ip",
      "lat": 42.477172138298776,
      "lng": 14.170490503311157,
      "fuels": {
        "sp95": 1.899,
        "gazole": 2.099
      }
    },
    {
      "id": "57509",
      "cp": "",
      "ville": "Pescara",
      "adresse": "Enzo Ferrari 43 65124",
      "brand": "q8",
      "lat": 42.4663884,
      "lng": 14.2052988,
      "fuels": {
        "sp95": 1.899,
        "gazole": 2.049
      }
    },
    {
      "id": "61137",
      "cp": "",
      "ville": "Pescara",
      "adresse": "g.da Fiore Snc 65127",
      "brand": "Pompe Bianche",
      "lat": 42.45161,
      "lng": 14.21825,
      "fuels": {
        "sp95": 1.897,
        "gazole": 1.997
      }
    },
    {
      "id": "63192",
      "cp": "",
      "ville": "Pescara",
      "adresse": "Lungomare Papa Giovanni Xxiii Snc 65126",
      "brand": "Pompe Bianche",
      "lat": 42.46624,
      "lng": 14.2333,
      "fuels": {
        "sp95": 2.059,
        "gazole": 2.159
      }
    },
    {
      "id": "62566",
      "cp": "",
      "ville": "Pescara",
      "adresse": "Piazza Duca Degli Abruzzi 34  65123",
      "brand": "Pompe Bianche",
      "lat": 42.4815654,
      "lng": 14.1920292,
      "fuels": {
        "sp95": 1.893,
        "gazole": 1.878
      }
    },
    {
      "id": "49242",
      "cp": "",
      "ville": "Pescara",
      "adresse": "Piazza Ovidio 1.2  65100",
      "brand": "Api-Ip",
      "lat": 42.45306172115843,
      "lng": 14.220435181971752,
      "fuels": {
        "sp95": 1.917,
        "gazole": 2.017
      }
    },
    {
      "id": "62536",
      "cp": "",
      "ville": "Pescara",
      "adresse": "Raffaele Paolucci Molo Nord Snc 65121",
      "brand": "Api-Ip",
      "lat": 42.4666001,
      "lng": 14.2222979,
      "fuels": {
        "sp95": 1.889,
        "gazole": 2.079
      }
    },
    {
      "id": "27778",
      "cp": "",
      "ville": "Pescara",
      "adresse": "Rigopiano 61 65124",
      "brand": "Tamoil",
      "lat": 42.46511008072824,
      "lng": 14.201256993254106,
      "fuels": {
        "sp95": 1.929,
        "gazole": 2.049
      }
    },
    {
      "id": "9670",
      "cp": "",
      "ville": "Pescara",
      "adresse": "Rio Sparto 12 65129",
      "brand": "Agip Eni",
      "lat": 42.4463872619189,
      "lng": 14.211847041317014,
      "fuels": {
        "sp95": 1.919,
        "gazole": 2.019
      }
    },
    {
      "id": "55205",
      "cp": "",
      "ville": "Pescara",
      "adresse": "ss16 Adriatica 385  65100",
      "brand": "Pompe Bianche",
      "lat": 41.6284672,
      "lng": 13.7854976,
      "fuels": {
        "sp95": 1.849,
        "gazole": 1.999
      }
    },
    {
      "id": "16572",
      "cp": "",
      "ville": "Pescara",
      "adresse": "Statale 5 Via Tiburtina valeria, km. Civico 152, dir. Mare/Monti - 65128",
      "brand": "Esso",
      "lat": 42.45252139759592,
      "lng": 14.205658882856369,
      "fuels": {
        "sp95": 1.929,
        "gazole": 2.069
      }
    },
    {
      "id": "51362",
      "cp": "",
      "ville": "Pescara",
      "adresse": "Strada Prati 80 65125",
      "brand": "Agip Eni",
      "lat": 42.46422821157537,
      "lng": 14.17802886549603,
      "fuels": {
        "sp95": 1.939,
        "gazole": 1.999
      }
    },
    {
      "id": "40712",
      "cp": "",
      "ville": "Pescara",
      "adresse": "Tiburtina 125 65129",
      "brand": "Pompe Bianche",
      "lat": 42.45348893932121,
      "lng": 14.206822961568832,
      "fuels": {
        "sp95": 1.927,
        "gazole": 2.027
      }
    },
    {
      "id": "56901",
      "cp": "",
      "ville": "Pescara",
      "adresse": "Valle Roveto Snc 65124",
      "brand": "Agip Eni",
      "lat": 42.46254,
      "lng": 14.20438,
      "fuels": {
        "sp95": 1.93,
        "gazole": 2.029,
        "e85": 1.499,
        "gplc": 0.797
      }
    },
    {
      "id": "6674",
      "cp": "",
      "ville": "Pescara",
      "adresse": "Via  Tirino Snc 65100",
      "brand": "q8",
      "lat": 42.44459174860404,
      "lng": 14.215495662565672,
      "fuels": {
        "sp95": 1.909,
        "gazole": 2.039
      }
    },
    {
      "id": "61412",
      "cp": "",
      "ville": "Pescara",
      "adresse": "Via Amendola Snc 65100",
      "brand": "Api-Ip",
      "lat": 42.42922,
      "lng": 14.18602,
      "fuels": {
        "sp95": 1.897,
        "gazole": 1.997
      }
    },
    {
      "id": "48021",
      "cp": "",
      "ville": "Pescara",
      "adresse": "Via Del Circuito 107 65124",
      "brand": "q8",
      "lat": 42.463396964758466,
      "lng": 14.2030946032928,
      "fuels": {
        "sp95": 1.899,
        "gazole": 2.049
      }
    },
    {
      "id": "29329",
      "cp": "",
      "ville": "Pescara",
      "adresse": "Via Del Circuito km.1+637 136 65121",
      "brand": "Agip Eni",
      "lat": 42.4631099112261,
      "lng": 14.201862215995789,
      "fuels": {
        "sp95": 1.889,
        "gazole": 1.974
      }
    },
    {
      "id": "14991",
      "cp": "",
      "ville": "Pescara",
      "adresse": "Via Del Santuario 188 65125",
      "brand": "Api-Ip",
      "lat": 42.46917516983961,
      "lng": 14.192322655155976,
      "fuels": {
        "sp95": 1.929,
        "gazole": 2.079
      }
    },
    {
      "id": "52322",
      "cp": "",
      "ville": "Pescara",
      "adresse": "Via Della Bonifica 40 65129",
      "brand": "Agip Eni",
      "lat": 42.450678890930604,
      "lng": 14.23429012298584,
      "fuels": {
        "sp95": 1.924,
        "gazole": 2.024
      }
    },
    {
      "id": "31491",
      "cp": "",
      "ville": "Pescara",
      "adresse": "Via Della Pineta 24 65100",
      "brand": "Api-Ip",
      "lat": 42.45159901046903,
      "lng": 14.229982565641421,
      "fuels": {
        "sp95": 1.897,
        "gazole": 1.997
      }
    },
    {
      "id": "18374",
      "cp": "",
      "ville": "Pescara",
      "adresse": "Via e. Ferrari  65124",
      "brand": "q8",
      "lat": 42.469592186742396,
      "lng": 14.201663732528687,
      "fuels": {
        "sp95": 1.929,
        "gazole": 2.069
      }
    },
    {
      "id": "42057",
      "cp": "",
      "ville": "Pescara",
      "adresse": "Via Enzo Ferrari s. 65124",
      "brand": "Api-Ip",
      "lat": 42.4690573969664,
      "lng": 14.202182932540836,
      "fuels": {
        "sp95": 1.928,
        "gazole": 2.038
      }
    },
    {
      "id": "50390",
      "cp": "",
      "ville": "Pescara",
      "adresse": "Via Guglielmo Marconi 200 65126",
      "brand": "q8",
      "lat": 42.457713998418726,
      "lng": 14.220650401039498,
      "fuels": {
        "sp95": 1.899,
        "gazole": 2.049
      }
    },
    {
      "id": "25393",
      "cp": "",
      "ville": "Pescara",
      "adresse": "Via Marconi Angolo Via Pindaro 356, 65126",
      "brand": "Agip Eni",
      "lat": 42.452310432328886,
      "lng": 14.2270427942276,
      "fuels": {
        "sp95": 1.929,
        "gazole": 2.029
      }
    },
    {
      "id": "51518",
      "cp": "",
      "ville": "Pescara",
      "adresse": "Via Papa Giovanni Xxiii - Porto  65100",
      "brand": "Esso",
      "lat": 42.46533622155198,
      "lng": 14.226201137653485,
      "fuels": {
        "sp95": 1.909,
        "gazole": 2.069
      }
    },
    {
      "id": "46265",
      "cp": "",
      "ville": "Pescara",
      "adresse": "Via Raiale  65128",
      "brand": "Agip Eni",
      "lat": 42.45343253767108,
      "lng": 14.19291839003563,
      "fuels": {
        "sp95": 1.924,
        "gazole": 2.024
      }
    },
    {
      "id": "41661",
      "cp": "",
      "ville": "Pescara",
      "adresse": "Via Tiburtina 134 65100",
      "brand": "Api-Ip",
      "lat": 42.45382536875599,
      "lng": 14.206780046224594,
      "fuels": {
        "sp95": 1.917,
        "gazole": 2.017
      }
    },
    {
      "id": "30131",
      "cp": "",
      "ville": "Pescara",
      "adresse": "Via Tiburtina 2 65128",
      "brand": "Agip Eni",
      "lat": 42.458752274378696,
      "lng": 14.210392252045494,
      "fuels": {
        "sp95": 1.924,
        "gazole": 2.024
      }
    },
    {
      "id": "46037",
      "cp": "",
      "ville": "Pescara",
      "adresse": "Via Tiburtina km229+ 840 Angolo Fontanelle 386 65129",
      "brand": "q8",
      "lat": 42.43762996136446,
      "lng": 14.195016440484096,
      "fuels": {
        "sp95": 1.917,
        "gazole": 2.067
      }
    },
    {
      "id": "46263",
      "cp": "",
      "ville": "Pescara",
      "adresse": "Via Tiburtina Valeria 362 66020",
      "brand": "Agip Eni",
      "lat": 42.43971492681314,
      "lng": 14.196078944680153,
      "fuels": {
        "sp95": 1.924,
        "gazole": 2.024
      }
    },
    {
      "id": "52068",
      "cp": "",
      "ville": "Pescara",
      "adresse": "Via Via Bardet Angolo Via Vespucci Snc 65127, Pescara (pe) Snc 65126",
      "brand": "Api-Ip",
      "lat": 42.46170220433804,
      "lng": 14.222972903344688,
      "fuels": {
        "sp95": 1.959,
        "gazole": 2.059
      }
    },
    {
      "id": "31028",
      "cp": "",
      "ville": "Pescara",
      "adresse": "Viale Bovio 334 65100",
      "brand": "Api-Ip",
      "lat": 42.47814842301728,
      "lng": 14.19662904218842,
      "fuels": {
        "sp95": 1.897,
        "gazole": 1.997
      }
    },
    {
      "id": "9541",
      "cp": "",
      "ville": "Pescara",
      "adresse": "Vicinale Mene' 6 65129",
      "brand": "Pompe Bianche",
      "lat": 42.21063122221067,
      "lng": 14.025327265262604,
      "fuels": {
        "sp95": 1.899,
        "gazole": 1.999
      }
    },
    {
      "id": "58498",
      "cp": "",
      "ville": "Pianella",
      "adresse": "Aldo Moro 68 65019",
      "brand": "Agip Eni",
      "lat": 42.40176357261705,
      "lng": 14.053141298332212,
      "fuels": {
        "sp95": 1.884,
        "gazole": 1.969
      }
    },
    {
      "id": "9672",
      "cp": "",
      "ville": "Pianella",
      "adresse": "Colle Florido Snc 65019",
      "brand": "Agip Eni",
      "lat": 42.42603770480892,
      "lng": 14.106577218981897,
      "fuels": {
        "sp95": 1.939,
        "gazole": 2.029
      }
    },
    {
      "id": "26800",
      "cp": "",
      "ville": "Pianella",
      "adresse": "Via Dei Platani 42 65019",
      "brand": "Agip Eni",
      "lat": 42.390369312164154,
      "lng": 14.106832198804113,
      "fuels": {
        "sp95": 1.969,
        "gazole": 2.099
      }
    },
    {
      "id": "24163",
      "cp": "",
      "ville": "Picciano",
      "adresse": "Marconi 39 65010",
      "brand": "Pompe Bianche",
      "lat": 42.47239916428712,
      "lng": 13.991827381823555,
      "fuels": {
        "sp95": 1.946,
        "gazole": 2.067
      }
    },
    {
      "id": "16845",
      "cp": "",
      "ville": "Popoli",
      "adresse": "5 Via Tiburtina valeria, km. 182, Pescara - 65026",
      "brand": "Tamoil",
      "lat": 42.175657151790546,
      "lng": 13.836903423070908,
      "fuels": {
        "sp95": 1.929,
        "gazole": 2.069
      }
    },
    {
      "id": "9045",
      "cp": "",
      "ville": "Popoli",
      "adresse": "saffi,  65026",
      "brand": "Agip Eni",
      "lat": 42.174519746406645,
      "lng": 13.830993175506592,
      "fuels": {
        "sp95": 1.899,
        "gazole": 2.009
      }
    },
    {
      "id": "60804",
      "cp": "",
      "ville": "Popoli",
      "adresse": "Ss 5 km. 180+705 Snc 65026",
      "brand": "Esso",
      "lat": 42.166051,
      "lng": 13.834262,
      "fuels": {
        "sp95": 1.929,
        "gazole": 2.069
      }
    },
    {
      "id": "6296",
      "cp": "",
      "ville": "Rosciano",
      "adresse": "Localita' s.antonio s.n. 65020",
      "brand": "Pompe Bianche",
      "lat": 42.324913744897636,
      "lng": 14.047126151065072,
      "fuels": {
        "sp95": 1.869,
        "gazole": 1.969
      }
    },
    {
      "id": "43356",
      "cp": "",
      "ville": "Rosciano",
      "adresse": "Via Settentrionale 6 65020",
      "brand": "Agip Eni",
      "lat": 42.33676273558266,
      "lng": 14.020678400993347,
      "fuels": {
        "sp95": 1.929,
        "gazole": 2.029
      }
    },
    {
      "id": "47591",
      "cp": "",
      "ville": "San Valentino In Abruzzo Citeriore",
      "adresse": "Via Largo s.nicola Snc 65020, San Valentino In Abruzzo cit. (pe)  65020",
      "brand": "Api-Ip",
      "lat": 42.23342632197092,
      "lng": 13.987956006182962,
      "fuels": {
        "sp95": 1.959,
        "gazole": 2.059
      }
    },
    {
      "id": "51768",
      "cp": "",
      "ville": "Scafa",
      "adresse": "Via Tiburtina Valeria Snc  ss5  65026",
      "brand": "Agip Eni",
      "lat": 42.1678223,
      "lng": 13.8312474,
      "fuels": {
        "sp95": 1.884,
        "gazole": 1.969
      }
    },
    {
      "id": "42357",
      "cp": "",
      "ville": "Spoltore",
      "adresse": "Localita' Villa Santa Maria Snc 65010",
      "brand": "Agip Eni",
      "lat": 42.458843890432476,
      "lng": 14.116366133093834,
      "fuels": {
        "sp95": 1.929,
        "gazole": 2.029
      }
    },
    {
      "id": "48091",
      "cp": "",
      "ville": "Spoltore",
      "adresse": "Ss 602 km4+960 Via Maiella 16 65010",
      "brand": "Agip Eni",
      "lat": 42.42058135,
      "lng": 14.15660723,
      "fuels": {
        "sp95": 1.889,
        "gazole": 1.974
      }
    },
    {
      "id": "6297",
      "cp": "",
      "ville": "Spoltore",
      "adresse": "Statale 16 Bis adriatica, km. 448 + 4, dir. Nord - 65010",
      "brand": "q8",
      "lat": 42.45435216632234,
      "lng": 14.176399612716637,
      "fuels": {
        "sp95": 1.899,
        "gazole": 1.999
      }
    },
    {
      "id": "33985",
      "cp": "",
      "ville": "Spoltore",
      "adresse": "Statale 602 Di Forca Di penne, km. 4+325, dir. Pescara - 65010",
      "brand": "Api-Ip",
      "lat": 42.42611949543363,
      "lng": 14.159451127052307,
      "fuels": {
        "sp95": 1.929,
        "gazole": 2.069
      }
    },
    {
      "id": "47216",
      "cp": "",
      "ville": "Spoltore",
      "adresse": "v.le Europa  65010",
      "brand": "Shell",
      "lat": 42.447744123766036,
      "lng": 14.180162656297664,
      "fuels": {
        "sp95": 1.927,
        "gazole": 2.067
      }
    },
    {
      "id": "54282",
      "cp": "",
      "ville": "Spoltore",
      "adresse": "var.ss16 Adriatica Km 438 584 65010",
      "brand": "Api-Ip",
      "lat": 42.4536257,
      "lng": 14.1756621,
      "fuels": {
        "sp95": 1.909,
        "gazole": 2.049,
        "gplc": 0.829
      }
    },
    {
      "id": "11760",
      "cp": "",
      "ville": "Spoltore",
      "adresse": "Via f.fellini 8 65010",
      "brand": "q8",
      "lat": 42.45335145419278,
      "lng": 14.181535626983646,
      "fuels": {
        "sp95": 1.899,
        "gazole": 2.019
      }
    },
    {
      "id": "49208",
      "cp": "",
      "ville": "Spoltore",
      "adresse": "Via Mare Adriatico 117 65010",
      "brand": "Esso",
      "lat": 42.44260302039058,
      "lng": 14.173516761678856,
      "fuels": {
        "sp95": 1.927,
        "gazole": 2.067
      }
    },
    {
      "id": "50295",
      "cp": "",
      "ville": "Spoltore",
      "adresse": "Via s.p. 602 Via Maiella Snc",
      "brand": "Auchan",
      "lat": 42.417290856031876,
      "lng": 14.154336020488087,
      "fuels": {
        "sp95": 1.879,
        "gazole": 1.969,
        "e85": 1.447
      }
    },
    {
      "id": "62019",
      "cp": "",
      "ville": "Spoltore",
      "adresse": "Viale Europa 97 65010",
      "brand": "Pompe Bianche",
      "lat": 42.45217845874122,
      "lng": 14.186648537642679,
      "fuels": {
        "sp95": 1.927,
        "gazole": 2.047
      }
    },
    {
      "id": "25598",
      "cp": "",
      "ville": "Tocco Da Casauria",
      "adresse": "Tiburtina Valeria Km 192,045 65028",
      "brand": "Api-Ip",
      "lat": 42.2262460162643,
      "lng": 13.924731016159058,
      "fuels": {
        "sp95": 1.949,
        "gazole": 2.069
      }
    },
    {
      "id": "43592",
      "cp": "",
      "ville": "Torre De' Passeri",
      "adresse": "Via Roma 154 65029",
      "brand": "Pompe Bianche",
      "lat": 42.24645694212551,
      "lng": 13.939978376074805,
      "fuels": {
        "sp95": 1.859,
        "gazole": 2.019
      }
    },
    {
      "id": "44625",
      "cp": "",
      "ville": "Torre De' Passeri",
      "adresse": "Via San Clemente 45 65029",
      "brand": "Api-Ip",
      "lat": 42.239368450725756,
      "lng": 13.92740249633789,
      "fuels": {
        "sp95": 1.949,
        "gazole": 2.069
      }
    }
  ]
}