{
  "code": "PO",
  "name": "Prato",
  "regionCode": "TOS",
  "regionName": "Toscana",
  "asOf": "2026-06-11T09:08:30.343Z",
  "source": "https://www.mimit.gov.it/it/open-data/elenco-dataset/2032336-dataset-prezzi-carburanti",
  "stationCount": 68,
  "fuels": {
    "gazole": {
      "count": 68,
      "mean": 2.0342,
      "median": 2.042,
      "min": 1.958,
      "max": 2.099
    },
    "sp95": {
      "count": 68,
      "mean": 1.9098,
      "median": 1.904,
      "min": 1.859,
      "max": 1.979
    },
    "e85": {
      "count": 5,
      "mean": 1.6404,
      "median": 1.546,
      "min": 1.529,
      "max": 1.899
    },
    "gplc": {
      "count": 12,
      "mean": 0.7826,
      "median": 0.7585,
      "min": 0.698,
      "max": 0.952
    }
  },
  "stations": [
    {
      "id": "10273",
      "cp": "",
      "ville": "Carmignano",
      "adresse": "Piazza Buricchi E Spinelli 2 59015",
      "brand": "Agip Eni",
      "lat": 43.814321031020164,
      "lng": 11.020081043243408,
      "fuels": {
        "sp95": 1.914,
        "gazole": 2.045
      }
    },
    {
      "id": "21605",
      "cp": "",
      "ville": "Carmignano",
      "adresse": "Via Baccheretana 47 59011",
      "brand": "Tamoil",
      "lat": 43.83345644531292,
      "lng": 11.025055199861526,
      "fuels": {
        "sp95": 1.919,
        "gazole": 2.059
      }
    },
    {
      "id": "28581",
      "cp": "",
      "ville": "Montemurlo",
      "adresse": "Labriola 175 59013",
      "brand": "Tamoil",
      "lat": 43.909319293841975,
      "lng": 11.05456955730915,
      "fuels": {
        "sp95": 1.979,
        "gazole": 2.099
      }
    },
    {
      "id": "46820",
      "cp": "",
      "ville": "Montemurlo",
      "adresse": "loc. Oste - Via Pistoiese 40",
      "brand": "Esso",
      "lat": 43.90177929755097,
      "lng": 11.031081842088703,
      "fuels": {
        "sp95": 1.909,
        "gazole": 2.049
      }
    },
    {
      "id": "60481",
      "cp": "",
      "ville": "Montemurlo",
      "adresse": "Via Enrico Berlinguer Snc 59013",
      "brand": "Aquila",
      "lat": 43.919439808692374,
      "lng": 11.036949405883787,
      "fuels": {
        "sp95": 1.889,
        "gazole": 2.03,
        "gplc": 0.719
      }
    },
    {
      "id": "45073",
      "cp": "",
      "ville": "Montemurlo",
      "adresse": "Via Montalese 469 59013, Montemurlo (po) 469 59013",
      "brand": "Ala",
      "lat": 43.92597060520931,
      "lng": 11.039652526378632,
      "fuels": {
        "sp95": 1.949,
        "gazole": 2.049
      }
    },
    {
      "id": "55317",
      "cp": "",
      "ville": "Montemurlo",
      "adresse": "Via Pistoiese 22  59013",
      "brand": "Agip Eni",
      "lat": 43.901606241361065,
      "lng": 11.032052508867585,
      "fuels": {
        "sp95": 1.895,
        "gazole": 2.045
      }
    },
    {
      "id": "49285",
      "cp": "",
      "ville": "Montemurlo",
      "adresse": "Via Scarpettini  239 59013",
      "brand": "Esso",
      "lat": 43.91724963409485,
      "lng": 11.031172691166006,
      "fuels": {
        "sp95": 1.899,
        "gazole": 2.049
      }
    },
    {
      "id": "43281",
      "cp": "",
      "ville": "Poggio A Caiano",
      "adresse": "s.s.66 Km 19+050 loc.poggetto  59016",
      "brand": "q8",
      "lat": 43.824423901056996,
      "lng": 11.044433487770448,
      "fuels": {
        "sp95": 1.899,
        "gazole": 2.049
      }
    },
    {
      "id": "21841",
      "cp": "",
      "ville": "Prato",
      "adresse": "Aldo Moro 3/5 59100",
      "brand": "Ala",
      "lat": 43.846973166438566,
      "lng": 11.091984361410141,
      "fuels": {
        "sp95": 1.949,
        "gazole": 2.049
      }
    },
    {
      "id": "58295",
      "cp": "",
      "ville": "Prato",
      "adresse": "Cesare Battisti 33 59100",
      "brand": "Agip Eni",
      "lat": 41.9172,
      "lng": 12.502,
      "fuels": {
        "sp95": 1.859,
        "gazole": 1.964
      }
    },
    {
      "id": "54630",
      "cp": "",
      "ville": "Prato",
      "adresse": "Della Repubblica 188 59100",
      "brand": "Esso",
      "lat": 43.8657078,
      "lng": 11.1113823,
      "fuels": {
        "sp95": 1.899,
        "gazole": 2.039
      }
    },
    {
      "id": "55177",
      "cp": "",
      "ville": "Prato",
      "adresse": "f.lli Cervi 12 59100",
      "brand": "Esso",
      "lat": 43.9018097,
      "lng": 11.0976145,
      "fuels": {
        "sp95": 1.899,
        "gazole": 2.039
      }
    },
    {
      "id": "55711",
      "cp": "",
      "ville": "Prato",
      "adresse": "Firenze 467 59100",
      "brand": "q8",
      "lat": 43.8630225,
      "lng": 11.1504221,
      "fuels": {
        "sp95": 1.957,
        "gazole": 2.077
      }
    },
    {
      "id": "6960",
      "cp": "",
      "ville": "Prato",
      "adresse": "Fratelli Cervi 98/2 59100",
      "brand": "Pompe Bianche",
      "lat": 43.90165531148317,
      "lng": 11.088635623455048,
      "fuels": {
        "sp95": 1.889,
        "gazole": 1.999,
        "e85": 1.529
      }
    },
    {
      "id": "56572",
      "cp": "",
      "ville": "Prato",
      "adresse": "Galcianese 93/G 59100",
      "brand": "Shell",
      "lat": 43.8810252,
      "lng": 11.0709134,
      "fuels": {
        "sp95": 1.939,
        "gazole": 2.049
      }
    },
    {
      "id": "52623",
      "cp": "",
      "ville": "Prato",
      "adresse": "Montegrappa 242 59100",
      "brand": "Esso",
      "lat": 43.87061993358664,
      "lng": 11.110557594204673,
      "fuels": {
        "sp95": 1.899,
        "gazole": 2.009
      }
    },
    {
      "id": "58362",
      "cp": "",
      "ville": "Prato",
      "adresse": "Montegrappa 300 59100",
      "brand": "Agip Eni",
      "lat": 43.8667785,
      "lng": 11.1143843,
      "fuels": {
        "sp95": 1.859,
        "gazole": 1.974
      }
    },
    {
      "id": "56626",
      "cp": "",
      "ville": "Prato",
      "adresse": "Nam Dihn - Lato Ovest 4 59100",
      "brand": "Agip Eni",
      "lat": 43.89499013343633,
      "lng": 11.07676357030868,
      "fuels": {
        "sp95": 1.909,
        "gazole": 2.05
      }
    },
    {
      "id": "20752",
      "cp": "",
      "ville": "Prato",
      "adresse": "Per Iolo 109 59100",
      "brand": "Aquila",
      "lat": 43.86528205698194,
      "lng": 11.04874849319458,
      "fuels": {
        "sp95": 1.919,
        "gazole": 2.03
      }
    },
    {
      "id": "61678",
      "cp": "",
      "ville": "Prato",
      "adresse": "Salvador Allende 7 59100",
      "brand": "Api-Ip",
      "lat": 43.8756542938669,
      "lng": 11.0624364723873,
      "fuels": {
        "sp95": 1.914,
        "gazole": 2.029,
        "e85": 1.899,
        "gplc": 0.759
      }
    },
    {
      "id": "58963",
      "cp": "",
      "ville": "Prato",
      "adresse": "Strada Provinciale Pistoiese 833 59100",
      "brand": "q8",
      "lat": 43.90155480854735,
      "lng": 11.030956962835692,
      "fuels": {
        "sp95": 1.919,
        "gazole": 2.059
      }
    },
    {
      "id": "6580",
      "cp": "",
      "ville": "Prato",
      "adresse": "v. Leonardo Da Vinci 7260 59012",
      "brand": "q8",
      "lat": 43.88310047697617,
      "lng": 11.045444011688232,
      "fuels": {
        "sp95": 1.899,
        "gazole": 2.049
      }
    },
    {
      "id": "6590",
      "cp": "",
      "ville": "Prato",
      "adresse": "v. Liliana Rossi Ang v.metauro Snc 59100",
      "brand": "q8",
      "lat": 43.89565879082479,
      "lng": 11.087648596958957,
      "fuels": {
        "sp95": 1.889,
        "gazole": 2.039
      }
    },
    {
      "id": "6814",
      "cp": "",
      "ville": "Prato",
      "adresse": "v.le Xvl Aprile 2575 59100",
      "brand": "Aquila",
      "lat": 43.846832342707806,
      "lng": 11.04423701763153,
      "fuels": {
        "sp95": 1.959,
        "gazole": 2.049
      }
    },
    {
      "id": "34290",
      "cp": "",
      "ville": "Prato",
      "adresse": "Via A Moro 72 59100",
      "brand": "Esso",
      "lat": 43.842038722543336,
      "lng": 11.102917045354843,
      "fuels": {
        "sp95": 1.949,
        "gazole": 2.049,
        "gplc": 0.769
      }
    },
    {
      "id": "47273",
      "cp": "",
      "ville": "Prato",
      "adresse": "Via Bologna 326/B 59100",
      "brand": "Esso",
      "lat": 43.90556476443277,
      "lng": 11.111393568771689,
      "fuels": {
        "sp95": 1.949,
        "gazole": 2.049
      }
    },
    {
      "id": "55803",
      "cp": "",
      "ville": "Prato",
      "adresse": "Via Bologna 326/Q 59100",
      "brand": "Agip Eni",
      "lat": 43.905823815996506,
      "lng": 11.112778186798096,
      "fuels": {
        "sp95": 1.904,
        "gazole": 2.045
      }
    },
    {
      "id": "6592",
      "cp": "",
      "ville": "Prato",
      "adresse": "Via Cava - Tobbiana 245/C 59100",
      "brand": "q8",
      "lat": 43.869857047683496,
      "lng": 11.054153144359589,
      "fuels": {
        "sp95": 1.894,
        "gazole": 2.044
      }
    },
    {
      "id": "16497",
      "cp": "",
      "ville": "Prato",
      "adresse": "Via Cavour 102 59100",
      "brand": "Agip Eni",
      "lat": 43.88022306793668,
      "lng": 11.088535907409664,
      "fuels": {
        "sp95": 1.904,
        "gazole": 2.045
      }
    },
    {
      "id": "29189",
      "cp": "",
      "ville": "Prato",
      "adresse": "Via Di Maliseti 14 59100",
      "brand": "Conad",
      "lat": 43.89782758915325,
      "lng": 11.071154990401965,
      "fuels": {
        "sp95": 1.868,
        "gazole": 1.958,
        "gplc": 0.698
      }
    },
    {
      "id": "29725",
      "cp": "",
      "ville": "Prato",
      "adresse": "Via Fabio Filzi 196 59100",
      "brand": "q8",
      "lat": 43.890301889186716,
      "lng": 11.077874407409695,
      "fuels": {
        "sp95": 1.889,
        "gazole": 2.039
      }
    },
    {
      "id": "61958",
      "cp": "",
      "ville": "Prato",
      "adresse": "Via Firenze 40  59100",
      "brand": "Api-Ip",
      "lat": 43.8668138,
      "lng": 11.1283044,
      "fuels": {
        "sp95": 1.889,
        "gazole": 2.029
      }
    },
    {
      "id": "8566",
      "cp": "",
      "ville": "Prato",
      "adresse": "Via Francesco Ferrucci 367/2 59100",
      "brand": "Pompe Bianche",
      "lat": 43.855899598398295,
      "lng": 11.122809852878618,
      "fuels": {
        "sp95": 1.899,
        "gazole": 1.999,
        "e85": 1.529
      }
    },
    {
      "id": "55117",
      "cp": "",
      "ville": "Prato",
      "adresse": "Via Giulio Braga  51100",
      "brand": "Ala",
      "lat": 43.8414771,
      "lng": 11.0458313,
      "fuels": {
        "sp95": 1.919,
        "gazole": 2.029
      }
    },
    {
      "id": "21507",
      "cp": "",
      "ville": "Prato",
      "adresse": "Via Guglielmo Marconi 11/1 59100",
      "brand": "Api-Ip",
      "lat": 43.86103712518126,
      "lng": 11.120179797067294,
      "fuels": {
        "sp95": 1.906,
        "gazole": 1.996,
        "gplc": 0.952
      }
    },
    {
      "id": "32788",
      "cp": "",
      "ville": "Prato",
      "adresse": "Via Leonardo Da Vinci  59100",
      "brand": "Tamoil",
      "lat": 43.88629962292984,
      "lng": 11.028653383255005,
      "fuels": {
        "sp95": 1.939,
        "gazole": 2.049,
        "gplc": 0.829
      }
    },
    {
      "id": "42633",
      "cp": "",
      "ville": "Prato",
      "adresse": "Via Marco Roncioni 100 59100",
      "brand": "Agip Eni",
      "lat": 43.87500193348,
      "lng": 11.086436209821727,
      "fuels": {
        "sp95": 1.904,
        "gazole": 2.045
      }
    },
    {
      "id": "47251",
      "cp": "",
      "ville": "Prato",
      "adresse": "Via Nam Dihn Lato Nord  59100",
      "brand": "Api-Ip",
      "lat": 43.887411334614406,
      "lng": 11.068104822090135,
      "fuels": {
        "sp95": 1.888,
        "gazole": 1.988
      }
    },
    {
      "id": "49157",
      "cp": "",
      "ville": "Prato",
      "adresse": "Via Paronese s.n. 59100, Prato (po) Snc 59100",
      "brand": "Agip Eni",
      "lat": 43.856570457182414,
      "lng": 11.068698167800898,
      "fuels": {
        "sp95": 1.864,
        "gazole": 1.98
      }
    },
    {
      "id": "11778",
      "cp": "",
      "ville": "Prato",
      "adresse": "Via Pistoiese 269 59100",
      "brand": "q8",
      "lat": 43.887725132930804,
      "lng": 11.08128972351551,
      "fuels": {
        "sp95": 1.919,
        "gazole": 2.059
      }
    },
    {
      "id": "43669",
      "cp": "",
      "ville": "Prato",
      "adresse": "Via Pistoiese 486 59100",
      "brand": "Agip Eni",
      "lat": 43.89405135698976,
      "lng": 11.068433317791005,
      "fuels": {
        "sp95": 1.869,
        "gazole": 1.985
      }
    },
    {
      "id": "24434",
      "cp": "",
      "ville": "Prato",
      "adresse": "Via Roma 315/F 59100",
      "brand": "Aquila",
      "lat": 43.86336521612006,
      "lng": 11.083724255819675,
      "fuels": {
        "sp95": 1.929,
        "gazole": 2.04
      }
    },
    {
      "id": "59340",
      "cp": "",
      "ville": "Prato",
      "adresse": "Via Roma 552 59100",
      "brand": "Api-Ip",
      "lat": 43.841031596915286,
      "lng": 11.070043271908556,
      "fuels": {
        "sp95": 1.889,
        "gazole": 2.029
      }
    },
    {
      "id": "44692",
      "cp": "",
      "ville": "Prato",
      "adresse": "Via Roma 617/G 59100",
      "brand": "Api-Ip",
      "lat": 43.83097836002373,
      "lng": 11.063797734197237,
      "fuels": {
        "sp95": 1.896,
        "gazole": 2.036,
        "gplc": 0.814
      }
    },
    {
      "id": "51756",
      "cp": "",
      "ville": "Prato",
      "adresse": "Via Salvador Allende 16 50047",
      "brand": "Api-Ip",
      "lat": 43.87351446848437,
      "lng": 11.06132739398792,
      "fuels": {
        "sp95": 1.914,
        "gazole": 2.029,
        "gplc": 0.758
      }
    },
    {
      "id": "41534",
      "cp": "",
      "ville": "Prato",
      "adresse": "Via Sirio/ang.via Reggiana  59100",
      "brand": "Economy",
      "lat": 43.87701710530985,
      "lng": 11.06584757566452,
      "fuels": {
        "sp95": 1.939,
        "gazole": 2.049,
        "e85": 1.699
      }
    },
    {
      "id": "54449",
      "cp": "",
      "ville": "Prato",
      "adresse": "Via Viale Montegrappa (ang. Via ferrucci) 330 59100, Prato (po) 330 59100",
      "brand": "Pompe Bianche",
      "lat": 43.87014449999999,
      "lng": 11.1111512,
      "fuels": {
        "sp95": 1.895,
        "gazole": 1.975
      }
    },
    {
      "id": "38453",
      "cp": "",
      "ville": "Prato",
      "adresse": "Via Xvi Aprile Snc 59100",
      "brand": "Api-Ip",
      "lat": 43.84758338625964,
      "lng": 11.044126968717137,
      "fuels": {
        "sp95": 1.896,
        "gazole": 2.036
      }
    },
    {
      "id": "12130",
      "cp": "",
      "ville": "Prato",
      "adresse": "Viale Borgo Valsugana 190 59100",
      "brand": "q8",
      "lat": 43.87465392892259,
      "lng": 11.115821435287444,
      "fuels": {
        "sp95": 1.899,
        "gazole": 2.029
      }
    },
    {
      "id": "48595",
      "cp": "",
      "ville": "Prato",
      "adresse": "Viale Della Repubblica 231 59100",
      "brand": "Agip Eni",
      "lat": 43.86228851966348,
      "lng": 11.109187890174054,
      "fuels": {
        "sp95": 1.909,
        "gazole": 2.05
      }
    },
    {
      "id": "6917",
      "cp": "",
      "ville": "Prato",
      "adresse": "Viale f.lli Cervi 102/104 59100",
      "brand": "Beyfin",
      "lat": 43.89912444012438,
      "lng": 11.084439396820017,
      "fuels": {
        "sp95": 1.889,
        "gazole": 2,
        "gplc": 0.729
      }
    },
    {
      "id": "15669",
      "cp": "",
      "ville": "Prato",
      "adresse": "Viale Fratelli Cervi 75/77 59100",
      "brand": "Agip Eni",
      "lat": 43.90148987941617,
      "lng": 11.096240356564522,
      "fuels": {
        "sp95": 1.924,
        "gazole": 2.07
      }
    },
    {
      "id": "21659",
      "cp": "",
      "ville": "Prato",
      "adresse": "Viale Galilei 202 59100",
      "brand": "q8",
      "lat": 43.90252354155764,
      "lng": 11.109457723942569,
      "fuels": {
        "sp95": 1.899,
        "gazole": 2.049
      }
    },
    {
      "id": "32334",
      "cp": "",
      "ville": "Prato",
      "adresse": "Viale Galileo Galilei 204 59100",
      "brand": "Api-Ip",
      "lat": 43.90384009260018,
      "lng": 11.109545454382896,
      "fuels": {
        "sp95": 1.929,
        "gazole": 2.049
      }
    },
    {
      "id": "36200",
      "cp": "",
      "ville": "Prato",
      "adresse": "Viale Leonardo Da Vinci 135 59100",
      "brand": "Api-Ip",
      "lat": 43.86169649928905,
      "lng": 11.103920862078667,
      "fuels": {
        "sp95": 1.919,
        "gazole": 2.059
      }
    },
    {
      "id": "55226",
      "cp": "",
      "ville": "Prato",
      "adresse": "Viale Leonardo Da Vinci 17/P 59100",
      "brand": "Agip Eni",
      "lat": 43.8830599,
      "lng": 11.0439006,
      "fuels": {
        "sp95": 1.909,
        "gazole": 2.05
      }
    },
    {
      "id": "6581",
      "cp": "",
      "ville": "Prato",
      "adresse": "Viale Leonardo Da Vinci Snc 59100",
      "brand": "q8",
      "lat": 43.85846888624947,
      "lng": 11.109956589688181,
      "fuels": {
        "sp95": 1.938,
        "gazole": 2.038,
        "gplc": 0.758
      }
    },
    {
      "id": "37960",
      "cp": "",
      "ville": "Prato",
      "adresse": "Viale Leonardo Da Vinci Snc 59100, Prato (po) Snc 59100",
      "brand": "Esso",
      "lat": 43.886792267794085,
      "lng": 11.029137100044181,
      "fuels": {
        "sp95": 1.969,
        "gazole": 2.079,
        "gplc": 0.869
      }
    },
    {
      "id": "12371",
      "cp": "",
      "ville": "Prato",
      "adresse": "Viale Montegrappa 144 59100",
      "brand": "Ala",
      "lat": 43.87351427470977,
      "lng": 11.107710143516556,
      "fuels": {
        "sp95": 1.92,
        "gazole": 2.02
      }
    },
    {
      "id": "19402",
      "cp": "",
      "ville": "Prato",
      "adresse": "Viale Montegrappa 250 59100",
      "brand": "Agip Eni",
      "lat": 43.86977065218121,
      "lng": 11.111278389549284,
      "fuels": {
        "sp95": 1.904,
        "gazole": 2.045
      }
    },
    {
      "id": "58992",
      "cp": "",
      "ville": "Prato",
      "adresse": "Viale Nam - Dinh 3  50054",
      "brand": "Agip Eni",
      "lat": 43.89445,
      "lng": 11.077034,
      "fuels": {
        "sp95": 1.899,
        "gazole": 2.039
      }
    },
    {
      "id": "44912",
      "cp": "",
      "ville": "Prato",
      "adresse": "Viale Sedici Aprile 1992 1200 59100",
      "brand": "Agip Eni",
      "lat": 43.8574780655854,
      "lng": 11.05371508804103,
      "fuels": {
        "sp95": 1.904,
        "gazole": 2.045
      }
    },
    {
      "id": "60532",
      "cp": "",
      "ville": "Prato",
      "adresse": "Viale Unione Europea 49 loc. Barden",
      "brand": "Agip Eni",
      "lat": 43.894466,
      "lng": 11.030584,
      "fuels": {
        "sp95": 1.899,
        "gazole": 2.039,
        "e85": 1.546,
        "gplc": 0.737
      }
    },
    {
      "id": "60440",
      "cp": "",
      "ville": "Prato",
      "adresse": "Viale Unione Europea 50 loc. Calici",
      "brand": "Agip Eni",
      "lat": 43.89442,
      "lng": 11.029468,
      "fuels": {
        "sp95": 1.899,
        "gazole": 2.039
      }
    },
    {
      "id": "56708",
      "cp": "",
      "ville": "Vaiano",
      "adresse": "Valbisenzio 205 59021",
      "brand": "Api-Ip",
      "lat": 43.96359724592595,
      "lng": 11.124572246604435,
      "fuels": {
        "sp95": 1.939,
        "gazole": 2.049
      }
    },
    {
      "id": "40846",
      "cp": "",
      "ville": "Vernio",
      "adresse": "s.s 325 km. 55 Snc 59024",
      "brand": "Tamoil",
      "lat": 44.051583819924105,
      "lng": 11.156473383307457,
      "fuels": {
        "sp95": 1.899,
        "gazole": 1.999
      }
    },
    {
      "id": "32353",
      "cp": "",
      "ville": "Vernio",
      "adresse": "Via Bisenzio 273 59024",
      "brand": "Api-Ip",
      "lat": 44.047429410706954,
      "lng": 11.152989193797112,
      "fuels": {
        "sp95": 1.899,
        "gazole": 2.019
      }
    }
  ]
}