{
  "code": "PT",
  "name": "Pistoia",
  "regionCode": "TOS",
  "regionName": "Toscana",
  "asOf": "2026-07-12T13:59:32.665Z",
  "source": "https://www.mimit.gov.it/it/open-data/elenco-dataset/2032336-dataset-prezzi-carburanti",
  "stationCount": 109,
  "fuels": {
    "gazole": {
      "count": 107,
      "mean": 1.9849,
      "median": 1.989,
      "min": 1.907,
      "max": 2.129
    },
    "sp95": {
      "count": 107,
      "mean": 1.8786,
      "median": 1.884,
      "min": 1.818,
      "max": 2.032
    },
    "e85": {
      "count": 11,
      "mean": 1.6445,
      "median": 1.699,
      "min": 1.549,
      "max": 1.699
    },
    "gplc": {
      "count": 20,
      "mean": 0.7601,
      "median": 0.739,
      "min": 0.699,
      "max": 0.899
    }
  },
  "stations": [
    {
      "id": "61991",
      "cp": "",
      "ville": "Abetone Cutigliano",
      "adresse": "s.s. 12 Dell'Abetone E Del brennero, km. 12 - loc. Abetone  51021",
      "brand": "Ala",
      "lat": 44.144690245906155,
      "lng": 10.663390404139328,
      "fuels": {
        "sp95": 1.919,
        "gazole": 2.009
      }
    },
    {
      "id": "48351",
      "cp": "",
      "ville": "Abetone Cutigliano",
      "adresse": "Via Brennero Primo Tratto 76 51024, Cutigliano (pt) 76/A 51024",
      "brand": "Ala",
      "lat": 44.10076400143843,
      "lng": 10.748732089996333,
      "fuels": {
        "sp95": 1.929,
        "gazole": 2.039
      }
    },
    {
      "id": "44717",
      "cp": "",
      "ville": "Agliana",
      "adresse": "Nuova Pratese Snc 51031",
      "brand": "Esso",
      "lat": 43.906797777763934,
      "lng": 10.993752479553223,
      "fuels": {
        "sp95": 1.869,
        "gazole": 1.969,
        "gplc": 0.729
      }
    },
    {
      "id": "21843",
      "cp": "",
      "ville": "Agliana",
      "adresse": "Via Spartaco Lavagnini Snc 51031, Agliana (pt) Ncm 51031",
      "brand": "Ala",
      "lat": 43.90484959081523,
      "lng": 11.012354781166778,
      "fuels": {
        "sp95": 1.859,
        "gazole": 1.959
      }
    },
    {
      "id": "48352",
      "cp": "",
      "ville": "Agliana",
      "adresse": "Via Via Carlo Marx Snc 51031, Agliana (pt) Ncm 51031",
      "brand": "Api-Ip",
      "lat": 43.88699733967344,
      "lng": 11.003391742706293,
      "fuels": {
        "sp95": 1.837,
        "gazole": 1.907
      }
    },
    {
      "id": "45439",
      "cp": "",
      "ville": "Agliana",
      "adresse": "Viale Galileo Galilei Snc 51031, Agliana (pt) Snc 51031",
      "brand": "Ala",
      "lat": 43.896276601119645,
      "lng": 11.00630521774292,
      "fuels": {
        "sp95": 1.847,
        "gazole": 1.927
      }
    },
    {
      "id": "54110",
      "cp": "",
      "ville": "Buggiano",
      "adresse": "Pistoiese 142 51011",
      "brand": "Tamoil",
      "lat": 43.8833545,
      "lng": 10.7488697,
      "fuels": {
        "sp95": 1.819,
        "gazole": 1.949
      }
    },
    {
      "id": "63039",
      "cp": "",
      "ville": "Buggiano",
      "adresse": "Regionale 435 Snc 51011",
      "brand": "Pompe Bianche",
      "lat": 43.880081,
      "lng": 10.7195219,
      "fuels": {
        "sp95": 1.869,
        "gazole": 1.965
      }
    },
    {
      "id": "57449",
      "cp": "",
      "ville": "Buggiano",
      "adresse": "Ss 435 Km 22+767 Borgo",
      "brand": "Api-Ip",
      "lat": 43.8774805,
      "lng": 10.7327555,
      "fuels": {
        "sp95": 1.859,
        "gazole": 1.999
      }
    },
    {
      "id": "7008",
      "cp": "",
      "ville": "Buggiano",
      "adresse": "Via Lucchese 39 51011",
      "brand": "Agip Eni",
      "lat": 43.87991986322313,
      "lng": 10.718124657869339,
      "fuels": {
        "sp95": 1.884,
        "gazole": 1.994
      }
    },
    {
      "id": "15843",
      "cp": "",
      "ville": "Buggiano",
      "adresse": "Via Ponte Buggianese 150/A 51011",
      "brand": "Pompe Bianche",
      "lat": 43.86068428137385,
      "lng": 10.741697922348976,
      "fuels": {
        "e85": 1.55
      }
    },
    {
      "id": "50384",
      "cp": "",
      "ville": "Chiesina Uzzanese",
      "adresse": "Via Delle Regioni  51013",
      "brand": "Agip Eni",
      "lat": 43.83394402012685,
      "lng": 10.720172310709906,
      "fuels": {
        "sp95": 1.889,
        "gazole": 1.999,
        "e85": 1.699,
        "gplc": 0.759
      }
    },
    {
      "id": "18328",
      "cp": "",
      "ville": "Chiesina Uzzanese",
      "adresse": "Via Livornese Di Sotto 78 51013",
      "brand": "Quattro Petroli",
      "lat": 43.82513514711266,
      "lng": 10.724518029430328,
      "fuels": {
        "sp95": 1.879,
        "gazole": 1.999
      }
    },
    {
      "id": "32507",
      "cp": "",
      "ville": "Chiesina Uzzanese",
      "adresse": "Via prov.le Romana Snc 51013",
      "brand": "Agip Eni",
      "lat": 43.85066657469077,
      "lng": 10.70916473865509,
      "fuels": {
        "sp95": 1.885,
        "gazole": 1.984
      }
    },
    {
      "id": "17284",
      "cp": "",
      "ville": "Chiesina Uzzanese",
      "adresse": "Via Romana 8, 51013 - -",
      "brand": "Quattro Petroli",
      "lat": 43.84289486376971,
      "lng": 10.714007739672866,
      "fuels": {
        "sp95": 1.879,
        "gazole": 1.999
      }
    },
    {
      "id": "25053",
      "cp": "",
      "ville": "Chiesina Uzzanese",
      "adresse": "Vittorio Veneto 48 51013",
      "brand": "Quattro Petroli",
      "lat": 43.83905133706349,
      "lng": 10.723994661376992,
      "fuels": {
        "sp95": 1.879,
        "gazole": 1.999
      }
    },
    {
      "id": "17634",
      "cp": "",
      "ville": "Cutigliano",
      "adresse": "Via Brennero 53/55 51024",
      "brand": "Quattro Petroli",
      "lat": 44.101512776510646,
      "lng": 10.746742887696882,
      "fuels": {
        "sp95": 1.909,
        "gazole": 1.999
      }
    },
    {
      "id": "16744",
      "cp": "",
      "ville": "Lamporecchio",
      "adresse": "Via Cerbaia 428 51035",
      "brand": "Quattro Petroli",
      "lat": 43.80361994974964,
      "lng": 10.852542892098427,
      "fuels": {
        "sp95": 1.899,
        "gazole": 2.009
      }
    },
    {
      "id": "46846",
      "cp": "",
      "ville": "Lamporecchio",
      "adresse": "Via Firenze 171 51035, Lamporecchio (pt) 171 51035",
      "brand": "Ala",
      "lat": 43.806531324688194,
      "lng": 10.885963290929794,
      "fuels": {
        "sp95": 1.899,
        "gazole": 1.989
      }
    },
    {
      "id": "46207",
      "cp": "",
      "ville": "Lamporecchio",
      "adresse": "Via Leonardo Da Vinci  51035",
      "brand": "Agip Eni",
      "lat": 43.808941000123,
      "lng": 10.895069000123,
      "fuels": {
        "sp95": 1.899,
        "gazole": 1.999
      }
    },
    {
      "id": "36924",
      "cp": "",
      "ville": "Lamporecchio",
      "adresse": "Via Verdi 69 51035",
      "brand": "Api-Ip",
      "lat": 43.81378007093612,
      "lng": 10.893055647611618,
      "fuels": {
        "sp95": 2.032,
        "gazole": 2.129
      }
    },
    {
      "id": "50382",
      "cp": "",
      "ville": "Larciano",
      "adresse": "Sr Francesca Sud  51036",
      "brand": "Agip Eni",
      "lat": 43.80402755536763,
      "lng": 10.847786258421568,
      "fuels": {
        "sp95": 1.849,
        "gazole": 1.934,
        "gplc": 0.769
      }
    },
    {
      "id": "31346",
      "cp": "",
      "ville": "Larciano",
      "adresse": "Via Guglielmo Marconi 963 51036",
      "brand": "Quattro Petroli",
      "lat": 43.818396363672605,
      "lng": 10.88615844047547,
      "fuels": {
        "sp95": 1.899,
        "gazole": 2.009
      }
    },
    {
      "id": "51895",
      "cp": "",
      "ville": "Marliana",
      "adresse": "Via Giampierone-Forra Della Doccia  51010",
      "brand": "Ala",
      "lat": 43.95126688060275,
      "lng": 10.829168781638145,
      "fuels": {
        "sp95": 1.899,
        "gazole": 1.989
      }
    },
    {
      "id": "11225",
      "cp": "",
      "ville": "Massa E Cozzile",
      "adresse": "Via Antonio Gramsci 4 51010",
      "brand": "Quattro Petroli",
      "lat": 43.869921824483164,
      "lng": 10.7555719067459,
      "fuels": {
        "sp95": 1.879,
        "gazole": 1.999
      }
    },
    {
      "id": "47472",
      "cp": "",
      "ville": "Massa E Cozzile",
      "adresse": "Via Lucchese 27 51016",
      "brand": "Tamoil",
      "lat": 43.88568293223449,
      "lng": 10.76274452392519,
      "fuels": {
        "sp95": 1.819,
        "gazole": 1.949
      }
    },
    {
      "id": "43773",
      "cp": "",
      "ville": "Massa E Cozzile",
      "adresse": "Via Pino  51010",
      "brand": "Economy",
      "lat": 43.85971956180349,
      "lng": 10.761667066384234,
      "fuels": {
        "sp95": 1.899,
        "gazole": 1.999,
        "e85": 1.699,
        "gplc": 0.729
      }
    },
    {
      "id": "40040",
      "cp": "",
      "ville": "Monsummano Terme",
      "adresse": "Francesca Violi 463 51015",
      "brand": "Agip Eni",
      "lat": 43.85037043730513,
      "lng": 10.82452118396759,
      "fuels": {
        "sp95": 1.884,
        "gazole": 1.994
      }
    },
    {
      "id": "28669",
      "cp": "",
      "ville": "Monsummano Terme",
      "adresse": "s.p. Francesca Sud  52015",
      "brand": "Agip Eni",
      "lat": 43.86252072674141,
      "lng": 10.818273648619652,
      "fuels": {
        "sp95": 1.899,
        "gazole": 1.999
      }
    },
    {
      "id": "23293",
      "cp": "",
      "ville": "Monsummano Terme",
      "adresse": "s.p. Porrione Del Terzo  51015",
      "brand": "Agip Eni",
      "lat": 43.85984397656378,
      "lng": 10.801725089550018,
      "fuels": {
        "sp95": 1.889,
        "gazole": 1.999,
        "e85": 1.699
      }
    },
    {
      "id": "48184",
      "cp": "",
      "ville": "Monsummano Terme",
      "adresse": "s.r. 436 Variante Francesca Snc 51015",
      "brand": "Pompe Bianche",
      "lat": 43.845692211131464,
      "lng": 10.81419944763183,
      "fuels": {
        "sp95": 1.849,
        "gazole": 1.939,
        "gplc": 0.719
      }
    },
    {
      "id": "51864",
      "cp": "",
      "ville": "Monsummano Terme",
      "adresse": "Via Della costituzione, 138  51015",
      "brand": "Agip Eni",
      "lat": 43.866773025990554,
      "lng": 10.810571299794889,
      "fuels": {
        "sp95": 1.889,
        "gazole": 1.999
      }
    },
    {
      "id": "45443",
      "cp": "",
      "ville": "Monsummano Terme",
      "adresse": "Via Della Repubblica 167 51015",
      "brand": "aci_pt",
      "lat": 43.865297527342356,
      "lng": 10.815675258636475,
      "fuels": {
        "sp95": 1.899,
        "gazole": 1.999
      }
    },
    {
      "id": "28697",
      "cp": "",
      "ville": "Monsummano Terme",
      "adresse": "Via Francesca Sud  51015",
      "brand": "Economy",
      "lat": 43.83958837226079,
      "lng": 10.827979892492294,
      "fuels": {
        "sp95": 1.899,
        "gazole": 1.999
      }
    },
    {
      "id": "35207",
      "cp": "",
      "ville": "Montale",
      "adresse": "Via Berlinguer Snc 51037",
      "brand": "Api-Ip",
      "lat": 43.93054939357316,
      "lng": 11.009250953793526,
      "fuels": {
        "sp95": 1.849,
        "gazole": 1.929
      }
    },
    {
      "id": "32370",
      "cp": "",
      "ville": "Montale",
      "adresse": "Via Garibaldi Montale  51037",
      "brand": "Agip Eni",
      "lat": 43.91764671173574,
      "lng": 11.0124072432518,
      "fuels": {
        "sp95": 1.889,
        "gazole": 1.989,
        "e85": 1.599
      }
    },
    {
      "id": "60796",
      "cp": "",
      "ville": "Montale",
      "adresse": "Via Iv Novembre 74  51037",
      "brand": "Aquila",
      "lat": 43.9348429157839,
      "lng": 11.007227847789762,
      "fuels": {
        "sp95": 1.899,
        "gazole": 1.989
      }
    },
    {
      "id": "25071",
      "cp": "",
      "ville": "Montecatini-Terme",
      "adresse": "Corso Matteotti  51016",
      "brand": "Api-Ip",
      "lat": 43.880271000372275,
      "lng": 10.779962449073764,
      "fuels": {
        "sp95": 1.824,
        "gazole": 1.959
      }
    },
    {
      "id": "55246",
      "cp": "",
      "ville": "Montecatini-Terme",
      "adresse": "Matteotti 200 51016",
      "brand": "Esso",
      "lat": 43.880279,
      "lng": 10.778724,
      "fuels": {
        "sp95": 1.859,
        "gazole": 1.999
      }
    },
    {
      "id": "34014",
      "cp": "",
      "ville": "Montecatini-Terme",
      "adresse": "Pistoiese 36 51016",
      "brand": "Api-Ip",
      "lat": 43.87898573174195,
      "lng": 10.785524093254105,
      "fuels": {
        "sp95": 1.834,
        "gazole": 1.969
      }
    },
    {
      "id": "56920",
      "cp": "",
      "ville": "Montecatini-Terme",
      "adresse": "Provinciale Lucchese 22 51016",
      "brand": "Agip Eni",
      "lat": 43.88609,
      "lng": 10.76158,
      "fuels": {
        "sp95": 1.884,
        "gazole": 1.994
      }
    },
    {
      "id": "47482",
      "cp": "",
      "ville": "Montecatini-Terme",
      "adresse": "Via Camporcioni 22 51016",
      "brand": "Quattro Petroli",
      "lat": 43.8624675220994,
      "lng": 10.769055841427049,
      "fuels": {
        "sp95": 1.879,
        "gazole": 1.999,
        "gplc": 0.719
      }
    },
    {
      "id": "22330",
      "cp": "",
      "ville": "Montecatini-Terme",
      "adresse": "Via Del Salsero 184 51016",
      "brand": "q8",
      "lat": 43.87446373153224,
      "lng": 10.772646431282737,
      "fuels": {
        "sp95": 1.844,
        "gazole": 1.984
      }
    },
    {
      "id": "59796",
      "cp": "",
      "ville": "Montecatini-Terme",
      "adresse": "Viale Ugo Foscolo 40 51016",
      "brand": "Coil",
      "lat": 43.878177581639164,
      "lng": 10.781323020654309,
      "fuels": {
        "sp95": 1.818,
        "gazole": 1.948
      }
    },
    {
      "id": "52647",
      "cp": "",
      "ville": "Pescia",
      "adresse": "Amendola 66 51017",
      "brand": "Pompe Bianche",
      "lat": 44.4071936,
      "lng": 8.9423872,
      "fuels": {
        "sp95": 1.859,
        "gazole": 1.979
      }
    },
    {
      "id": "62214",
      "cp": "",
      "ville": "Pescia",
      "adresse": "Francesca Vecchia Snc 51017",
      "brand": "Quattro Petroli",
      "lat": 43.87831252170059,
      "lng": 10.69222605678999,
      "fuels": {
        "sp95": 1.838,
        "gazole": 1.969
      }
    },
    {
      "id": "56439",
      "cp": "",
      "ville": "Pescia",
      "adresse": "Mammianese 36 51017",
      "brand": "Esso",
      "lat": 43.91113,
      "lng": 10.6908,
      "fuels": {
        "sp95": 1.879,
        "gazole": 1.989
      }
    },
    {
      "id": "29724",
      "cp": "",
      "ville": "Pescia",
      "adresse": "s.p. Romana 54 A 51017",
      "brand": "q8",
      "lat": 43.87054478036645,
      "lng": 10.695834390490745,
      "fuels": {
        "sp95": 1.849,
        "gazole": 1.989
      }
    },
    {
      "id": "12104",
      "cp": "",
      "ville": "Pescia",
      "adresse": "Via Fiorentina 36 51017",
      "brand": "Quattro Petroli",
      "lat": 43.89664774859786,
      "lng": 10.693090739286845,
      "fuels": {
        "sp95": 1.859,
        "gazole": 1.979
      }
    },
    {
      "id": "56839",
      "cp": "",
      "ville": "Pescia",
      "adresse": "Via Lucchese 217  51017",
      "brand": "Api-Ip",
      "lat": 43.8889235801487,
      "lng": 10.659514049530028,
      "fuels": {
        "sp95": 1.899,
        "gazole": 2.019
      }
    },
    {
      "id": "29202",
      "cp": "",
      "ville": "Pescia",
      "adresse": "Via Zei 15 51017",
      "brand": "Api-Ip",
      "lat": 43.87839542314507,
      "lng": 10.688739241802978,
      "fuels": {
        "sp95": 1.845,
        "gazole": 1.981
      }
    },
    {
      "id": "62956",
      "cp": "",
      "ville": "Pieve A Nievole",
      "adresse": "Amendola s.s. 435 60 51018",
      "brand": "Beyfin",
      "lat": 43.888946335257565,
      "lng": 10.814275980148315,
      "fuels": {
        "sp95": 1.819,
        "gazole": 1.969,
        "e85": 1.599,
        "gplc": 0.719
      }
    },
    {
      "id": "10890",
      "cp": "",
      "ville": "Pieve A Nievole",
      "adresse": "Via Guglielmo Marconi 212/B 51018",
      "brand": "Quattro Petroli",
      "lat": 43.861436128308206,
      "lng": 10.786589288360574,
      "fuels": {
        "sp95": 1.879,
        "gazole": 1.999
      }
    },
    {
      "id": "58279",
      "cp": "",
      "ville": "Pieve A Nievole",
      "adresse": "Via Mezzomiglio 1  51018",
      "brand": "Agip Eni",
      "lat": 43.878414,
      "lng": 10.78783,
      "fuels": {
        "sp95": 1.889,
        "gazole": 1.999
      }
    },
    {
      "id": "57694",
      "cp": "",
      "ville": "Pistoia",
      "adresse": "Adua - loc. Capostrada 463 51100",
      "brand": "Shell",
      "lat": 43.95261,
      "lng": 10.90093,
      "fuels": {
        "sp95": 1.859,
        "gazole": 1.949
      }
    },
    {
      "id": "58668",
      "cp": "",
      "ville": "Pistoia",
      "adresse": "Bartolomeo Sestini Snc 51100",
      "brand": "Esso",
      "lat": 43.94028489791312,
      "lng": 10.92697159630129,
      "fuels": {
        "sp95": 1.919,
        "gazole": 2.009
      }
    },
    {
      "id": "50652",
      "cp": "",
      "ville": "Pistoia",
      "adresse": "Dalmazia 344 51100",
      "brand": "q8",
      "lat": 43.948989688601955,
      "lng": 10.90459747965732,
      "fuels": {
        "sp95": 1.859,
        "gazole": 1.949
      }
    },
    {
      "id": "62400",
      "cp": "",
      "ville": "Pistoia",
      "adresse": "Raccordo Autostradale Pistoia",
      "brand": "Api-Ip",
      "lat": 43.92129350134273,
      "lng": 10.915342968261713,
      "fuels": {
        "sp95": 1.876,
        "gazole": 1.999
      }
    },
    {
      "id": "38122",
      "cp": "",
      "ville": "Pistoia",
      "adresse": "Raccordo Pistoia Ovest km. 0-824 Snc 51100",
      "brand": "Api-Ip",
      "lat": 43.94779174464979,
      "lng": 10.895642638206482,
      "fuels": {
        "sp95": 1.879,
        "gazole": 1.969,
        "gplc": 0.729
      }
    },
    {
      "id": "28642",
      "cp": "",
      "ville": "Pistoia",
      "adresse": "s.p. Pratese  51100",
      "brand": "Tamoil",
      "lat": 43.921658148860196,
      "lng": 10.944004207849503,
      "fuels": {
        "sp95": 1.899,
        "gazole": 1.999
      }
    },
    {
      "id": "40213",
      "cp": "",
      "ville": "Pistoia",
      "adresse": "Statale 64 porrettana, km. 1+100, dir. Bologna - 51100",
      "brand": "Tamoil",
      "lat": 44.03899772405693,
      "lng": 10.949749499559402,
      "fuels": {
        "sp95": 1.899,
        "gazole": 1.999
      }
    },
    {
      "id": "5285",
      "cp": "",
      "ville": "Pistoia",
      "adresse": "Strada Statale 64 E 66 Con e74 Al km0,555   51100",
      "brand": "Beyfin",
      "lat": 43.94996290335519,
      "lng": 10.89699582431058,
      "fuels": {
        "sp95": 1.849,
        "gazole": 1.974,
        "e85": 1.699,
        "gplc": 0.739
      }
    },
    {
      "id": "58852",
      "cp": "",
      "ville": "Pistoia",
      "adresse": "Strada Statale Fiorentina 744 51100",
      "brand": "Conad",
      "lat": 43.88927,
      "lng": 10.96295,
      "fuels": {
        "sp95": 1.848,
        "gazole": 1.978
      }
    },
    {
      "id": "48349",
      "cp": "",
      "ville": "Pistoia",
      "adresse": "Strada Strada Provinciale 47 Snc 51100, Pistoia (pt) Snc 51100",
      "brand": "Ala",
      "lat": 43.91670539797134,
      "lng": 10.938181877136225,
      "fuels": {
        "sp95": 1.877,
        "gazole": 1.957,
        "gplc": 0.799
      }
    },
    {
      "id": "45442",
      "cp": "",
      "ville": "Pistoia",
      "adresse": "Via Bonellina 17/19 51100",
      "brand": "aci_pt",
      "lat": 43.92326768547303,
      "lng": 10.918586254119873,
      "fuels": {
        "sp95": 1.899,
        "gazole": 1.989
      }
    },
    {
      "id": "37879",
      "cp": "",
      "ville": "Pistoia",
      "adresse": "Via Bonellina 38/A 51100",
      "brand": "Api-Ip",
      "lat": 43.9177329,
      "lng": 10.9183987,
      "fuels": {
        "sp95": 1.896,
        "gazole": 1.986
      }
    },
    {
      "id": "25764",
      "cp": "",
      "ville": "Pistoia",
      "adresse": "Via Dalmazia 242 51100",
      "brand": "Agip Eni",
      "lat": 43.94318546670196,
      "lng": 10.907945930957794,
      "fuels": {
        "sp95": 1.849,
        "gazole": 1.924
      }
    },
    {
      "id": "8327",
      "cp": "",
      "ville": "Pistoia",
      "adresse": "Via e. Fermi 2/B 51100",
      "brand": "q8",
      "lat": 43.93216372321065,
      "lng": 10.92462111971281,
      "fuels": {
        "sp95": 1.899,
        "gazole": 1.989
      }
    },
    {
      "id": "14639",
      "cp": "",
      "ville": "Pistoia",
      "adresse": "Via Enrico Fermi 91 51100",
      "brand": "Tamoil",
      "lat": 43.93091138867068,
      "lng": 10.947200059890747,
      "fuels": {
        "sp95": 1.899,
        "gazole": 1.999
      }
    },
    {
      "id": "26055",
      "cp": "",
      "ville": "Pistoia",
      "adresse": "Via Fermi 91 51100",
      "brand": "Agip Eni",
      "lat": 43.93133944416669,
      "lng": 10.939298272132874,
      "fuels": {
        "sp95": 1.899,
        "gazole": 1.999,
        "e85": 1.699
      }
    },
    {
      "id": "50379",
      "cp": "",
      "ville": "Pistoia",
      "adresse": "Via g. Chirici 291 51100",
      "brand": "Agip Eni",
      "lat": 43.938358295329735,
      "lng": 10.936408373295281,
      "fuels": {
        "sp95": 1.849,
        "gazole": 1.934
      }
    },
    {
      "id": "40295",
      "cp": "",
      "ville": "Pistoia",
      "adresse": "Via Gora E Barbatole 260 51100",
      "brand": "Pompe Bianche",
      "lat": 43.94460182129231,
      "lng": 10.886554072422086,
      "fuels": {
        "e85": 1.549
      }
    },
    {
      "id": "45072",
      "cp": "",
      "ville": "Pistoia",
      "adresse": "Via Guicciardini 1 51100, Pistoia (pt) 1 51100",
      "brand": "Esso",
      "lat": 43.9224107669142,
      "lng": 10.921048521995544,
      "fuels": {
        "sp95": 1.887,
        "gazole": 1.987
      }
    },
    {
      "id": "51070",
      "cp": "",
      "ville": "Pistoia",
      "adresse": "Via Guicciardini 2 51100, Pistoia (pt) 2 51100",
      "brand": "Esso",
      "lat": 43.92203307338393,
      "lng": 10.920927226543421,
      "fuels": {
        "sp95": 1.857,
        "gazole": 1.937
      }
    },
    {
      "id": "14647",
      "cp": "",
      "ville": "Pistoia",
      "adresse": "Via Maria Tasselli 187 233 51100",
      "brand": "Tamoil",
      "lat": 43.94385213606133,
      "lng": 10.92263638973236,
      "fuels": {
        "sp95": 1.899,
        "gazole": 1.999,
        "gplc": 0.786
      }
    },
    {
      "id": "37752",
      "cp": "",
      "ville": "Pistoia",
      "adresse": "Via Modenese 754 51100",
      "brand": "Aquila",
      "lat": 44.03210484518651,
      "lng": 10.874502798672438,
      "fuels": {
        "sp95": 1.859,
        "gazole": 1.949,
        "gplc": 0.739
      }
    },
    {
      "id": "11440",
      "cp": "",
      "ville": "Pistoia",
      "adresse": "Via Montalbano 251 51100, Pistoia (pt) 251-255 51100",
      "brand": "q8",
      "lat": 43.90296266666561,
      "lng": 10.920669037850985,
      "fuels": {
        "sp95": 1.929,
        "gazole": 2.029,
        "gplc": 0.779
      }
    },
    {
      "id": "13786",
      "cp": "",
      "ville": "Pistoia",
      "adresse": "Via Raccordo autostradale, 51100 - -",
      "brand": "Agip Eni",
      "lat": 43.92164640187811,
      "lng": 10.91565191745758,
      "fuels": {
        "sp95": 1.889,
        "gazole": 1.999
      }
    },
    {
      "id": "14651",
      "cp": "",
      "ville": "Pistoia",
      "adresse": "Via Salvo D'Acquisto 24 51100",
      "brand": "Tamoil",
      "lat": 43.93373232539221,
      "lng": 10.89644193649292,
      "fuels": {
        "sp95": 1.899,
        "gazole": 1.999,
        "e85": 1.699,
        "gplc": 0.786
      }
    },
    {
      "id": "48353",
      "cp": "",
      "ville": "Pistoia",
      "adresse": "Via Toscana 110 51100, Pistoia (pt) 110 51100",
      "brand": "Esso",
      "lat": 43.91852929728274,
      "lng": 10.949420332908625,
      "fuels": {
        "sp95": 1.889,
        "gazole": 1.989
      }
    },
    {
      "id": "63266",
      "cp": "",
      "ville": "Pistoia",
      "adresse": "Via Toscana 20  51100",
      "brand": "q8",
      "lat": 43.9234505,
      "lng": 10.9304501,
      "fuels": {
        "sp95": 1.899,
        "gazole": 1.999
      }
    },
    {
      "id": "30460",
      "cp": "",
      "ville": "Pistoia",
      "adresse": "Via Variante Lucchese Snc 51100, Pistoia (pt) Ncm 51100",
      "brand": "Ala",
      "lat": 43.91858237930583,
      "lng": 10.886490941047668,
      "fuels": {
        "sp95": 1.889,
        "gazole": 1.999,
        "gplc": 0.729
      }
    },
    {
      "id": "29791",
      "cp": "",
      "ville": "Pistoia",
      "adresse": "Via Via Modenese 289 51100, Pistoia (pt) 289 51100",
      "brand": "Api-Ip",
      "lat": 43.963945337100746,
      "lng": 10.897462478504167,
      "fuels": {
        "sp95": 1.859,
        "gazole": 1.969
      }
    },
    {
      "id": "49503",
      "cp": "",
      "ville": "Pistoia",
      "adresse": "Viale Adua 240  51100",
      "brand": "Api-Ip",
      "lat": 43.943141,
      "lng": 10.9010304,
      "fuels": {
        "sp95": 1.896,
        "gazole": 1.986
      }
    },
    {
      "id": "62090",
      "cp": "",
      "ville": "Pistoia",
      "adresse": "Viale Macallè  51100",
      "brand": "Agip Eni",
      "lat": 43.927715,
      "lng": 10.899796,
      "fuels": {
        "sp95": 1.889,
        "gazole": 1.999
      }
    },
    {
      "id": "13364",
      "cp": "",
      "ville": "Pistoia",
      "adresse": "Viale p. Antonelli 506 51100",
      "brand": "Api-Ip",
      "lat": 43.952680358565736,
      "lng": 10.940770134329796,
      "fuels": {
        "sp95": 1.886,
        "gazole": 1.976
      }
    },
    {
      "id": "8454",
      "cp": "",
      "ville": "Ponte Buggianese",
      "adresse": "Via Buggianese 185 51019",
      "brand": "q8",
      "lat": 43.85446,
      "lng": 10.746025,
      "fuels": {
        "sp95": 1.818,
        "gazole": 1.968
      }
    },
    {
      "id": "27970",
      "cp": "",
      "ville": "Ponte Buggianese",
      "adresse": "Via Livornese 32 51019",
      "brand": "Api-Ip",
      "lat": 43.851748689193386,
      "lng": 10.727610982803299,
      "fuels": {
        "sp95": 1.898,
        "gazole": 2.108
      }
    },
    {
      "id": "21733",
      "cp": "",
      "ville": "Ponte Buggianese",
      "adresse": "Via Nuova Camporcioni   51019",
      "brand": "Api-Ip",
      "lat": 43.8556757351077,
      "lng": 10.756197273731232,
      "fuels": {
        "sp95": 1.849,
        "gazole": 1.999
      }
    },
    {
      "id": "42460",
      "cp": "",
      "ville": "Quarrata",
      "adresse": "Europa 346/A 51039",
      "brand": "Esso",
      "lat": 43.86267030607757,
      "lng": 10.943744635581993,
      "fuels": {
        "sp95": 1.857,
        "gazole": 1.957
      }
    },
    {
      "id": "55995",
      "cp": "",
      "ville": "Quarrata",
      "adresse": "Statale 833 51039",
      "brand": "Api-Ip",
      "lat": 43.92233649599976,
      "lng": 10.93738317489624,
      "fuels": {
        "sp95": 1.857,
        "gazole": 1.927
      }
    },
    {
      "id": "54314",
      "cp": "",
      "ville": "Quarrata",
      "adresse": "Statale Fiorentina 113 51039",
      "brand": "Pompe Bianche",
      "lat": 43.88051841621892,
      "lng": 10.97409725189209,
      "fuels": {
        "sp95": 1.849,
        "gazole": 1.959
      }
    },
    {
      "id": "35708",
      "cp": "",
      "ville": "Quarrata",
      "adresse": "Via Falcone E Borsellino 120 51039, Quarrata (pt) 120 51039",
      "brand": "Ala",
      "lat": 43.862750491046015,
      "lng": 11.005019564133704,
      "fuels": {
        "sp95": 1.889,
        "gazole": 1.979,
        "gplc": 0.799
      }
    },
    {
      "id": "34443",
      "cp": "",
      "ville": "Quarrata",
      "adresse": "Via Falcone E Borsellino 125 51039, Quarrata (pt) 125 51039",
      "brand": "Api-Ip",
      "lat": 43.86578396361353,
      "lng": 11.006990759797873,
      "fuels": {
        "sp95": 1.889,
        "gazole": 1.979,
        "e85": 1.599
      }
    },
    {
      "id": "45440",
      "cp": "",
      "ville": "Quarrata",
      "adresse": "Via Marco Polo 101 51039",
      "brand": "aci_pt",
      "lat": 43.85358724990407,
      "lng": 10.980344116687775,
      "fuels": {
        "sp95": 1.889,
        "gazole": 1.989
      }
    },
    {
      "id": "11436",
      "cp": "",
      "ville": "Quarrata",
      "adresse": "Via Montalbano Snc 51039, Quarrata (pt) 388 51039",
      "brand": "Esso",
      "lat": 43.86065381768657,
      "lng": 10.986513619643347,
      "fuels": {
        "sp95": 1.887,
        "gazole": 1.967
      }
    },
    {
      "id": "57282",
      "cp": "",
      "ville": "Quarrata",
      "adresse": "Via Statale  116 51039",
      "brand": "Api-Ip",
      "lat": 43.8791656,
      "lng": 10.9753207,
      "fuels": {
        "sp95": 1.839,
        "gazole": 1.959
      }
    },
    {
      "id": "63020",
      "cp": "",
      "ville": "Quarrata",
      "adresse": "Via Statale 66 Quarrata loc. Catena 837 51039",
      "brand": "Api-Ip",
      "lat": 43.845900461653535,
      "lng": 11.013947568894954,
      "fuels": {
        "sp95": 1.849,
        "gazole": 1.939
      }
    },
    {
      "id": "34442",
      "cp": "",
      "ville": "Quarrata",
      "adresse": "Via Vecchia Fiorentina Snc 51039, Quarrata (pt) Snc 51039",
      "brand": "Ala",
      "lat": 43.86765527388261,
      "lng": 10.965132824996317,
      "fuels": {
        "sp95": 1.879,
        "gazole": 1.959
      }
    },
    {
      "id": "61613",
      "cp": "",
      "ville": "Sambuca Pistoiese",
      "adresse": "Via Porrettana Snc 51020",
      "brand": "Quattro Petroli",
      "lat": 44.09683,
      "lng": 10.994201,
      "fuels": {
        "sp95": 1.849,
        "gazole": 1.959,
        "gplc": 0.699
      }
    },
    {
      "id": "58983",
      "cp": "",
      "ville": "San Marcello Piteglio",
      "adresse": "Del Granduca 125 51028",
      "brand": "Aquila",
      "lat": 44.0566697109468,
      "lng": 10.779395548708521,
      "fuels": {
        "sp95": 1.939,
        "gazole": 2.049
      }
    },
    {
      "id": "44577",
      "cp": "",
      "ville": "San Marcello Piteglio",
      "adresse": "Rio Peciano 1210 51028",
      "brand": "Quattro Petroli",
      "lat": 44.052187000123,
      "lng": 10.825659000123,
      "fuels": {
        "sp95": 1.909,
        "gazole": 2.029
      }
    },
    {
      "id": "27068",
      "cp": "",
      "ville": "San Marcello Piteglio",
      "adresse": "Statale 633 Mammianese-marlianese, km. 0+140, dir. Abetone - 51028",
      "brand": "Tamoil",
      "lat": 44.05629543592416,
      "lng": 10.771493911743164,
      "fuels": {
        "sp95": 1.899,
        "gazole": 1.999,
        "gplc": 0.836
      }
    },
    {
      "id": "56169",
      "cp": "",
      "ville": "San Marcello Piteglio",
      "adresse": "Via Piana loc.pontepetri 185 51028",
      "brand": "q8",
      "lat": 44.0377870617189,
      "lng": 10.88036419405671,
      "fuels": {
        "sp95": 1.899,
        "gazole": 1.999
      }
    },
    {
      "id": "50907",
      "cp": "",
      "ville": "Serravalle Pistoiese",
      "adresse": "a11 Firenze-Pisa n., km. 35,5, Firenze - 51034",
      "brand": "Api-Ip",
      "lat": 43.89149160601557,
      "lng": 10.8261527121067,
      "fuels": {
        "sp95": 1.949,
        "gazole": 2.049,
        "gplc": 0.899
      }
    },
    {
      "id": "3554",
      "cp": "",
      "ville": "Serravalle Pistoiese",
      "adresse": "Autostrada a11 Firenze-Pisa n., km. 35+500, dir. Ovest - 51030",
      "brand": "q8",
      "lat": 43.891260827593925,
      "lng": 10.824363965606722,
      "fuels": {
        "sp95": 1.909,
        "gazole": 2.024
      }
    },
    {
      "id": "60698",
      "cp": "",
      "ville": "Serravalle Pistoiese",
      "adresse": "Provinciale Montalbano 137 51034",
      "brand": "Api-Ip",
      "lat": 43.877236,
      "lng": 10.915058,
      "fuels": {
        "sp95": 1.879,
        "gazole": 1.939
      }
    },
    {
      "id": "49271",
      "cp": "",
      "ville": "Serravalle Pistoiese",
      "adresse": "Via s.s.435 Lucchese km.34 + 0,65 Snc 51034, Serravalle Pistoiese (pt) Snc 51034",
      "brand": "Ala",
      "lat": 43.908143530281826,
      "lng": 10.844017565250391,
      "fuels": {
        "sp95": 1.879,
        "gazole": 1.999,
        "gplc": 0.739
      }
    },
    {
      "id": "52027",
      "cp": "",
      "ville": "Uzzano",
      "adresse": "Via Provinciale Lucchese 128 51013",
      "brand": "Aquila",
      "lat": 43.88558916439158,
      "lng": 10.6988103521517,
      "fuels": {
        "sp95": 1.879,
        "gazole": 1.969
      }
    }
  ]
}