{
  "code": "RI",
  "name": "Rieti",
  "regionCode": "LAZ",
  "regionName": "Lazio",
  "asOf": "2026-07-03T18:11:59.157Z",
  "source": "https://www.mimit.gov.it/it/open-data/elenco-dataset/2032336-dataset-prezzi-carburanti",
  "stationCount": 85,
  "fuels": {
    "gazole": {
      "count": 83,
      "mean": 1.8939,
      "median": 1.889,
      "min": 1.589,
      "max": 2.199
    },
    "sp95": {
      "count": 84,
      "mean": 1.8193,
      "median": 1.819,
      "min": 1.558,
      "max": 2.085
    },
    "e85": {
      "count": 4,
      "mean": 1.5225,
      "median": 1.5195,
      "min": 1.479,
      "max": 1.572
    },
    "gplc": {
      "count": 21,
      "mean": 0.724,
      "median": 0.738,
      "min": 0.569,
      "max": 0.799
    }
  },
  "stations": [
    {
      "id": "40811",
      "cp": "",
      "ville": "Amatrice",
      "adresse": "Statale 4 Via salaria, km. 129,100, dir. Ascoli-Rieti - 02012",
      "brand": "Pompe Bianche",
      "lat": 42.624367795091885,
      "lng": 13.236859738826752,
      "fuels": {
        "sp95": 1.849,
        "gazole": 1.959
      }
    },
    {
      "id": "24745",
      "cp": "",
      "ville": "Antrodoco",
      "adresse": "Statale 4 Via Salaria km. 109.400 dir. Ascoli Piceno",
      "brand": "Agip Eni",
      "lat": 42.4166707,
      "lng": 13.0782638,
      "fuels": {
        "sp95": 1.814,
        "gazole": 1.854
      }
    },
    {
      "id": "53823",
      "cp": "",
      "ville": "Borgorose",
      "adresse": "578, Km 41,568 Snc 02021",
      "brand": "Api-Ip",
      "lat": 42.19189,
      "lng": 13.25739,
      "fuels": {
        "sp95": 1.839,
        "gazole": 1.939,
        "gplc": 0.759
      }
    },
    {
      "id": "44754",
      "cp": "",
      "ville": "Borgorose",
      "adresse": "Sp 67 Via Cicolana  Km  3+427  02021",
      "brand": "Pompe Bianche",
      "lat": 42.191783000123,
      "lng": 13.257422000123,
      "fuels": {
        "sp95": 1.849,
        "gazole": 1.979,
        "gplc": 0.749
      }
    },
    {
      "id": "58430",
      "cp": "",
      "ville": "Cantalice",
      "adresse": "Giuseppe Mazzini 15 02014",
      "brand": "Pompe Bianche",
      "lat": 42.4676237,
      "lng": 12.9036095,
      "fuels": {
        "sp95": 1.899,
        "gazole": 1.949
      }
    },
    {
      "id": "61820",
      "cp": "",
      "ville": "Cantalupo In Sabina",
      "adresse": "Statale 313 Km 21,800 Snc 02040",
      "brand": "Api-Ip",
      "lat": 42.30642,
      "lng": 12.64471,
      "fuels": {
        "sp95": 1.847,
        "gazole": 1.907
      }
    },
    {
      "id": "59980",
      "cp": "",
      "ville": "Casaprota",
      "adresse": "prov.44casaprota-Ornaro Snc 02030",
      "brand": "Pompe Bianche",
      "lat": 42.2511455,
      "lng": 12.8035234,
      "fuels": {
        "sp95": 1.879,
        "gazole": 1.959
      }
    },
    {
      "id": "49930",
      "cp": "",
      "ville": "Castel Di Tora",
      "adresse": "Strada Provinciale 34, km. 27200,  50 02020",
      "brand": "Pompe Bianche",
      "lat": 42.21365898065855,
      "lng": 12.974308032280865,
      "fuels": {
        "sp95": 1.999,
        "gazole": 2.199
      }
    },
    {
      "id": "50527",
      "cp": "",
      "ville": "Castelnuovo Di Farfa",
      "adresse": "Via Mirtense   02031",
      "brand": "Api-Ip",
      "lat": 42.23324686750823,
      "lng": 12.706041187047958,
      "fuels": {
        "sp95": 1.839,
        "gazole": 1.929
      }
    },
    {
      "id": "62802",
      "cp": "",
      "ville": "Cittaducale",
      "adresse": "Cesare Battisti Snc 02015",
      "brand": "Tamoil",
      "lat": 42.386801,
      "lng": 12.945871,
      "fuels": {
        "sp95": 1.789,
        "gazole": 1.849
      }
    },
    {
      "id": "8146",
      "cp": "",
      "ville": "Cittaducale",
      "adresse": "Statale 4 Via salaria, km. 90+200, dir. Aquila  02015",
      "brand": "Agip Eni",
      "lat": 42.40662467592557,
      "lng": 12.90469765663147,
      "fuels": {
        "sp95": 1.809,
        "gazole": 1.849
      }
    },
    {
      "id": "25870",
      "cp": "",
      "ville": "Cittaducale",
      "adresse": "Statale 4 Via salaria, km. 97+400, dir. Sud - 02015",
      "brand": "Agip Eni",
      "lat": 42.378337011897585,
      "lng": 12.97085165977478,
      "fuels": {
        "sp95": 1.769,
        "gazole": 1.824
      }
    },
    {
      "id": "54774",
      "cp": "",
      "ville": "Cittaducale",
      "adresse": "Strada Statale 4 km92+700  Snc",
      "brand": "Pompe Bianche",
      "lat": 42.39657089409103,
      "lng": 12.922384196679673,
      "fuels": {
        "sp95": 1.799,
        "gazole": 1.899
      }
    },
    {
      "id": "61003",
      "cp": "",
      "ville": "Cittaducale",
      "adresse": "Via Salaria 84  02015",
      "brand": "Pompe Bianche",
      "lat": 42.3939076,
      "lng": 12.9249105,
      "fuels": {
        "sp95": 1.644,
        "gazole": 1.596
      }
    },
    {
      "id": "47687",
      "cp": "",
      "ville": "Cittareale",
      "adresse": "Via Salaria loc. Pallottini  02010",
      "brand": "Api-Ip",
      "lat": 42.58991510630019,
      "lng": 13.162667155265808,
      "fuels": {
        "sp95": 1.869,
        "gazole": 1.999
      }
    },
    {
      "id": "61904",
      "cp": "",
      "ville": "Configni",
      "adresse": "Località Colli Di Lugnola Snc 02040",
      "brand": "Pompe Bianche",
      "lat": 42.4383345401587,
      "lng": 12.633889279900824,
      "fuels": {
        "sp95": 1.84,
        "gazole": 1.899
      }
    },
    {
      "id": "58904",
      "cp": "",
      "ville": "Contigliano",
      "adresse": "79 Ternana km.9+483 Dx Terni Snc 02043",
      "brand": "Beyfin",
      "lat": 42.43825329467376,
      "lng": 12.785755902242219,
      "fuels": {
        "sp95": 1.774,
        "gazole": 1.854,
        "e85": 1.479,
        "gplc": 0.689
      }
    },
    {
      "id": "37937",
      "cp": "",
      "ville": "Contigliano",
      "adresse": "Statale 79 ternana, km. 6.440, dir. Nord - 02043",
      "brand": "Pompe Bianche",
      "lat": 42.41252425568178,
      "lng": 12.78434693813324,
      "fuels": {
        "sp95": 1.778,
        "gazole": 1.858,
        "gplc": 0.689
      }
    },
    {
      "id": "16245",
      "cp": "",
      "ville": "Contigliano",
      "adresse": "Tancia 79 02043",
      "brand": "Pompe Bianche",
      "lat": 42.37185068609344,
      "lng": 12.769680423586465,
      "fuels": {
        "sp95": 1.795,
        "gazole": 1.85
      }
    },
    {
      "id": "49713",
      "cp": "",
      "ville": "Contigliano",
      "adresse": "Via Via Della Repubblica 21 02043, Contigliano (ri) 21/E 02043",
      "brand": "Silcasrl",
      "lat": 42.410067576541074,
      "lng": 12.76970369551138,
      "fuels": {
        "sp95": 1.879,
        "gazole": 1.919
      }
    },
    {
      "id": "44626",
      "cp": "",
      "ville": "Cottanello",
      "adresse": "Via Forcella 20 02040",
      "brand": "Pompe Bianche",
      "lat": 42.408505000123,
      "lng": 12.687394000123,
      "fuels": {
        "sp95": 1.929,
        "gazole": 1.969
      }
    },
    {
      "id": "32478",
      "cp": "",
      "ville": "Fara In Sabina",
      "adresse": "Antonio Gramsci 11 02032",
      "brand": "Api-Ip",
      "lat": 42.15265199516034,
      "lng": 12.65382152778625,
      "fuels": {
        "sp95": 1.819,
        "gazole": 1.919
      }
    },
    {
      "id": "54884",
      "cp": "",
      "ville": "Fara In Sabina",
      "adresse": "Passo Corese s.s. Salaria km36+130 02032",
      "brand": "Esso",
      "lat": 42.1530355,
      "lng": 12.6568267,
      "fuels": {
        "sp95": 1.819,
        "gazole": 1.899
      }
    },
    {
      "id": "43908",
      "cp": "",
      "ville": "Fara In Sabina",
      "adresse": "s.r.313 Ternana 46 02032",
      "brand": "q8",
      "lat": 42.169893012060804,
      "lng": 12.636996317791045,
      "fuels": {
        "sp95": 1.829,
        "gazole": 1.909
      }
    },
    {
      "id": "24028",
      "cp": "",
      "ville": "Fara In Sabina",
      "adresse": "Via g.mazzini 47 02032",
      "brand": "Api-Ip",
      "lat": 42.188322672711564,
      "lng": 12.69846260547638,
      "fuels": {
        "sp95": 1.819,
        "gazole": 1.929
      }
    },
    {
      "id": "49447",
      "cp": "",
      "ville": "Fara In Sabina",
      "adresse": "Via Salaria Km 39+985  02032",
      "brand": "Toil",
      "lat": 42.164561481360835,
      "lng": 12.700918450548041,
      "fuels": {
        "sp95": 1.809,
        "gazole": 1.889,
        "gplc": 0.719
      }
    },
    {
      "id": "7593",
      "cp": "",
      "ville": "Forano",
      "adresse": "Via Del Passeggio 100 02044",
      "brand": "Tamoil",
      "lat": 42.299785662122865,
      "lng": 12.588928737434344,
      "fuels": {
        "sp95": 1.829,
        "gazole": 1.889
      }
    },
    {
      "id": "49955",
      "cp": "",
      "ville": "Forano",
      "adresse": "Via Sabina Nord 81 02040",
      "brand": "Agip Eni",
      "lat": 42.28229958164482,
      "lng": 12.596157000663766,
      "fuels": {
        "sp95": 1.834,
        "gazole": 1.894
      }
    },
    {
      "id": "24629",
      "cp": "",
      "ville": "Frasso Sabino",
      "adresse": "Via Mirtense 38 02030",
      "brand": "Enerpetroli",
      "lat": 42.22501755981455,
      "lng": 12.815318405628204,
      "fuels": {
        "sp95": 1.799,
        "gazole": 1.879
      }
    },
    {
      "id": "43485",
      "cp": "",
      "ville": "Leonessa",
      "adresse": "Strada Regionale 521 02016",
      "brand": "Api-Ip",
      "lat": 42.57268398674553,
      "lng": 12.956410646438599,
      "fuels": {
        "sp95": 1.959,
        "gazole": 1.998
      }
    },
    {
      "id": "63041",
      "cp": "",
      "ville": "Leonessa",
      "adresse": "Vindoli 37  02016",
      "brand": "Api-Ip",
      "lat": 42.58804,
      "lng": 13.03003,
      "fuels": {
        "sp95": 1.987,
        "gazole": 2.187
      }
    },
    {
      "id": "36843",
      "cp": "",
      "ville": "Magliano Sabina",
      "adresse": "Autostrada a1 Milano-napoli, km. 509, dir. Nord - 02046",
      "brand": "Agip Eni",
      "lat": 42.364143,
      "lng": 12.4788065,
      "fuels": {
        "sp95": 1.837,
        "gazole": 1.906,
        "gplc": 0.785
      }
    },
    {
      "id": "55784",
      "cp": "",
      "ville": "Magliano Sabina",
      "adresse": "ss. Flaminia km64+270 64+270 02046",
      "brand": "Pompe Bianche",
      "lat": 42.071473474394644,
      "lng": 12.460233550705349,
      "fuels": {
        "sp95": 1.889,
        "gazole": 1.959
      }
    },
    {
      "id": "52330",
      "cp": "",
      "ville": "Magliano Sabina",
      "adresse": "ss3 Flaminia Km 65+762 Snc 02046",
      "brand": "Pompe Bianche",
      "lat": 42.387140891083895,
      "lng": 12.47075979258149,
      "fuels": {
        "sp95": 1.835,
        "gazole": 1.889,
        "gplc": 0.722
      }
    },
    {
      "id": "49915",
      "cp": "",
      "ville": "Magliano Sabina",
      "adresse": "Viale Xiii Giugno Snc 02046",
      "brand": "Esso",
      "lat": 42.362375743544135,
      "lng": 12.484129859332898,
      "fuels": {
        "sp95": 1.829,
        "gazole": 1.919
      }
    },
    {
      "id": "59981",
      "cp": "",
      "ville": "Mompeo",
      "adresse": "prov. Tancia Per Mompeo 46/C 02040",
      "brand": "Pompe Bianche",
      "lat": 42.25049238217248,
      "lng": 12.7603747844696,
      "fuels": {
        "sp95": 1.879,
        "gazole": 1.959
      }
    },
    {
      "id": "53824",
      "cp": "",
      "ville": "Petrella Salto",
      "adresse": "Rieti-Torano (ss578) km24,150 Snc 02025",
      "brand": "Api-Ip",
      "lat": 42.2614729,
      "lng": 13.0924435,
      "fuels": {
        "sp95": 1.839,
        "gazole": 1.939
      }
    },
    {
      "id": "59836",
      "cp": "",
      "ville": "Petrella Salto",
      "adresse": "Viale Del Lago Snc 02025",
      "brand": "Pompe Bianche",
      "lat": 42.25005432953178,
      "lng": 13.095445539323531,
      "fuels": {
        "sp95": 1.999,
        "gazole": 2.029
      }
    },
    {
      "id": "39425",
      "cp": "",
      "ville": "Poggio Mirteto",
      "adresse": "s.s. 313 Km 14+872 Km 14  02047",
      "brand": "Api-Ip",
      "lat": 42.25205197586851,
      "lng": 12.637376636266708,
      "fuels": {
        "sp95": 1.827,
        "gazole": 1.887,
        "gplc": 0.799
      }
    },
    {
      "id": "40862",
      "cp": "",
      "ville": "Poggio Mirteto",
      "adresse": "Via g. Matteotti  44 02047",
      "brand": "Petrol Gamma",
      "lat": 42.26699648661056,
      "lng": 12.690714504785092,
      "fuels": {
        "sp95": 1.827,
        "gazole": 1.887
      }
    },
    {
      "id": "49741",
      "cp": "",
      "ville": "Poggio Mirteto",
      "adresse": "Via Roma 20 02047",
      "brand": "Agip Eni",
      "lat": 42.25955145192013,
      "lng": 12.68713247118832,
      "fuels": {
        "sp95": 1.834,
        "gazole": 1.894
      }
    },
    {
      "id": "63211",
      "cp": "",
      "ville": "Poggio Moiano",
      "adresse": "Via Licinese",
      "brand": "Silcasrl",
      "lat": 42.20918743236917,
      "lng": 12.87052573149416,
      "fuels": {
        "sp95": 1.899,
        "gazole": 1.999
      }
    },
    {
      "id": "36722",
      "cp": "",
      "ville": "Poggio Moiano",
      "adresse": "Via Licinese  Km 5,931 02037",
      "brand": "Repsol",
      "lat": 42.20909452320923,
      "lng": 12.870423048734665,
      "fuels": {
        "sp95": 2.085,
        "gazole": 2.034
      }
    },
    {
      "id": "51344",
      "cp": "",
      "ville": "Poggio Nativo",
      "adresse": "Via Farense  02030",
      "brand": "Esso",
      "lat": 42.20565506592615,
      "lng": 12.796429999999983,
      "fuels": {
        "sp95": 1.829,
        "gazole": 1.889
      }
    },
    {
      "id": "49936",
      "cp": "",
      "ville": "Posta",
      "adresse": "Salaria 11 02019",
      "brand": "Api-Ip",
      "lat": 42.52931357438992,
      "lng": 13.100178203312675,
      "fuels": {
        "sp95": 1.899,
        "gazole": 2.029
      }
    },
    {
      "id": "49916",
      "cp": "",
      "ville": "Posta",
      "adresse": "Salaria Km 111 Snc 02019",
      "brand": "Api-Ip",
      "lat": 42.51600951986135,
      "lng": 13.094759061932558,
      "fuels": {
        "sp95": 1.929,
        "gazole": 2.059,
        "gplc": 0.779
      }
    },
    {
      "id": "57479",
      "cp": "",
      "ville": "Rieti",
      "adresse": "Domenico Di Carlo 3 02100",
      "brand": "Tamoil",
      "lat": 42.39727741139259,
      "lng": 12.844280775141632,
      "fuels": {
        "sp95": 1.819,
        "gazole": 1.899
      }
    },
    {
      "id": "57317",
      "cp": "",
      "ville": "Rieti",
      "adresse": "n.4/Bis Del Terminillo Km 3+341 02100",
      "brand": "q8",
      "lat": 42.427917,
      "lng": 12.905988,
      "fuels": {
        "sp95": 1.729,
        "gazole": 1.819,
        "gplc": 0.759
      }
    },
    {
      "id": "54761",
      "cp": "",
      "ville": "Rieti",
      "adresse": "Piazza Cavour 24 02100",
      "brand": "Pompe Bianche",
      "lat": 42.39907853654899,
      "lng": 12.862273210446915,
      "fuels": {
        "sp95": 1.899,
        "gazole": 1.979
      }
    },
    {
      "id": "40810",
      "cp": "",
      "ville": "Rieti",
      "adresse": "Piazza Della Stazione Snc 02100",
      "brand": "Pompe Bianche",
      "lat": 42.40531624756545,
      "lng": 12.862303069940594,
      "fuels": {
        "sp95": 1.799,
        "gazole": 1.899
      }
    },
    {
      "id": "49444",
      "cp": "",
      "ville": "Rieti",
      "adresse": "Piazza Marconi Snc 02100",
      "brand": "Toil",
      "lat": 42.404417039499016,
      "lng": 12.854548795666135,
      "fuels": {
        "sp95": 1.789,
        "gazole": 1.879
      }
    },
    {
      "id": "61428",
      "cp": "",
      "ville": "Rieti",
      "adresse": "Piazza s. Matteocci Snc 02100",
      "brand": "Api-Ip",
      "lat": 42.40769,
      "lng": 12.85466,
      "fuels": {
        "sp95": 1.767,
        "gazole": 1.857
      }
    },
    {
      "id": "59378",
      "cp": "",
      "ville": "Rieti",
      "adresse": "Pietro Nenni Snc 02100",
      "brand": "Api-Ip",
      "lat": 42.4093141,
      "lng": 12.8674293,
      "fuels": {
        "sp95": 1.709,
        "gazole": 1.799,
        "gplc": 0.739
      }
    },
    {
      "id": "52879",
      "cp": "",
      "ville": "Rieti",
      "adresse": "Salaria km.84+890 Snc 02100",
      "brand": "Agip Eni",
      "lat": 42.4003988,
      "lng": 12.8629997,
      "fuels": {
        "sp95": 1.814,
        "gazole": 1.854,
        "e85": 1.572
      }
    },
    {
      "id": "55642",
      "cp": "",
      "ville": "Rieti",
      "adresse": "Salaria Per L'Aquila 1 02100",
      "brand": "Agip Eni",
      "lat": 42.39151117334591,
      "lng": 12.853421164062494,
      "fuels": {
        "sp95": 1.809,
        "gazole": 1.849
      }
    },
    {
      "id": "6664",
      "cp": "",
      "ville": "Rieti",
      "adresse": "Salaria Per L'Aquila 50 02100",
      "brand": "q8",
      "lat": 42.40577832047565,
      "lng": 12.875817587835627,
      "fuels": {
        "sp95": 1.699,
        "gazole": 1.799
      }
    },
    {
      "id": "60144",
      "cp": "",
      "ville": "Rieti",
      "adresse": "Ss 675 Km 1+996  02100",
      "brand": "Pompe Bianche",
      "lat": 42.40723,
      "lng": 12.85918,
      "fuels": {
        "sp95": 1.625,
        "gazole": 1.619,
        "gplc": 0.572
      }
    },
    {
      "id": "54762",
      "cp": "",
      "ville": "Rieti",
      "adresse": "Ss Salaria Per L'Aquila km.92+700 Snc 02010",
      "brand": "Pompe Bianche",
      "lat": 42.41014978815648,
      "lng": 13.073875361840805,
      "fuels": {
        "sp95": 1.799,
        "gazole": 1.899
      }
    },
    {
      "id": "62545",
      "cp": "",
      "ville": "Rieti",
      "adresse": "ss4 Bis Km 4+104 15 02100",
      "brand": "Api-Ip",
      "lat": 42.43460265090984,
      "lng": 12.910708487033844,
      "fuels": {
        "sp95": 1.709,
        "gazole": 1.799
      }
    },
    {
      "id": "34340",
      "cp": "",
      "ville": "Rieti",
      "adresse": "Statale 4 Via salaria, km. 88,600, dir. Nord - 02100",
      "brand": "Enerpetroli",
      "lat": 42.40562234574242,
      "lng": 12.885872572660446,
      "fuels": {
        "sp95": 1.779,
        "gazole": 1.859
      }
    },
    {
      "id": "24176",
      "cp": "",
      "ville": "Rieti",
      "adresse": "Statale 4 Via salaria, km. Km 67,600, dir. Nord - 02100",
      "brand": "Api-Ip",
      "lat": 42.32251586508722,
      "lng": 12.856538309192729,
      "fuels": {
        "sp95": 1.799,
        "gazole": 1.849,
        "gplc": 0.696
      }
    },
    {
      "id": "37939",
      "cp": "",
      "ville": "Rieti",
      "adresse": "Statale 79 ternana, km. 42+470, dir. Nord - 02100",
      "brand": "Pompe Bianche",
      "lat": 42.45425797482838,
      "lng": 12.83502995967865,
      "fuels": {
        "sp95": 1.768,
        "gazole": 1.848,
        "gplc": 0.728
      }
    },
    {
      "id": "29579",
      "cp": "",
      "ville": "Rieti",
      "adresse": "Strada n.s.a. 283 Km 1,020 . 02100",
      "brand": "Esso",
      "lat": 42.39916288330953,
      "lng": 12.888239622116089,
      "fuels": {
        "sp95": 1.799,
        "gazole": 1.888,
        "gplc": 0.738
      }
    },
    {
      "id": "49159",
      "cp": "",
      "ville": "Rieti",
      "adresse": "Via Angelo Maria Ricci 107 02100",
      "brand": "Agip Eni",
      "lat": 42.423339799549666,
      "lng": 12.862057055225353,
      "fuels": {
        "sp95": 1.769,
        "gazole": 1.859
      }
    },
    {
      "id": "54415",
      "cp": "",
      "ville": "Rieti",
      "adresse": "Via Del Terminillo Km 0,97  02100",
      "brand": "Myoil",
      "lat": 42.41307,
      "lng": 12.88695,
      "fuels": {
        "sp95": 1.769,
        "gazole": 1.858,
        "gplc": 0.739
      }
    },
    {
      "id": "42556",
      "cp": "",
      "ville": "Rieti",
      "adresse": "Via Domenico Di Carlo 3 02100",
      "brand": "Agip Eni",
      "lat": 42.39753953539753,
      "lng": 12.844339276196251,
      "fuels": {
        "e85": 1.49
      }
    },
    {
      "id": "5471",
      "cp": "",
      "ville": "Rieti",
      "adresse": "Via f.lli Cervi Snc 02100",
      "brand": "Agip Eni",
      "lat": 42.408888161753225,
      "lng": 12.848745284395022,
      "fuels": {
        "sp95": 1.744,
        "gazole": 1.819
      }
    },
    {
      "id": "61427",
      "cp": "",
      "ville": "Rieti",
      "adresse": "Via Marco Curio Dentato Snc 02100",
      "brand": "Api-Ip",
      "lat": 42.42721,
      "lng": 12.85731,
      "fuels": {
        "sp95": 1.767,
        "gazole": 1.857
      }
    },
    {
      "id": "24749",
      "cp": "",
      "ville": "Rieti",
      "adresse": "Via Nuova Salaria Km 75,45,rieti Rieti 02100 - -",
      "brand": "Agip Eni",
      "lat": 42.404509,
      "lng": 12.8567281,
      "fuels": {
        "sp95": 1.814,
        "gazole": 1.854,
        "gplc": 0.697
      }
    },
    {
      "id": "30986",
      "cp": "",
      "ville": "Rieti",
      "adresse": "Via Oreste Di Fazio 1/A 02100",
      "brand": "Api-Ip",
      "lat": 42.412172275704066,
      "lng": 12.896094635581903,
      "fuels": {
        "sp95": 1.709,
        "gazole": 1.799
      }
    },
    {
      "id": "51258",
      "cp": "",
      "ville": "Rieti",
      "adresse": "Via Oreste Di Fazio 33 02100",
      "brand": "Api-Ip",
      "lat": 42.416043829638795,
      "lng": 12.901301137157315,
      "fuels": {
        "sp95": 1.729,
        "gazole": 1.819,
        "e85": 1.549
      }
    },
    {
      "id": "13715",
      "cp": "",
      "ville": "Rieti",
      "adresse": "Via Palmiro Togliatti snc, 02100",
      "brand": "Agip Eni",
      "lat": 42.4066306173726,
      "lng": 12.872902750968933,
      "fuels": {
        "sp95": 1.814,
        "gazole": 1.854
      }
    },
    {
      "id": "55590",
      "cp": "",
      "ville": "Rieti",
      "adresse": "Via Piani s. Elia 8 02100",
      "brand": "Shell",
      "lat": 42.418176,
      "lng": 12.8417792,
      "fuels": {
        "sp95": 1.797,
        "gazole": 1.871
      }
    },
    {
      "id": "29577",
      "cp": "",
      "ville": "Rieti",
      "adresse": "Via Salaria 22 02100",
      "brand": "Esso",
      "lat": 42.38570856296951,
      "lng": 12.858660221099854,
      "fuels": {
        "sp95": 1.799,
        "gazole": 1.858,
        "gplc": 0.738
      }
    },
    {
      "id": "60316",
      "cp": "",
      "ville": "Rieti",
      "adresse": "Via Salaria 68  02100",
      "brand": "Pompe Bianche",
      "lat": 42.40723,
      "lng": 12.85918,
      "fuels": {
        "sp95": 1.558,
        "gazole": 1.589,
        "gplc": 0.569
      }
    },
    {
      "id": "28323",
      "cp": "",
      "ville": "Rieti",
      "adresse": "Via Tancia Loc Poggio Fidoni  02100",
      "brand": "Myoil",
      "lat": 42.39330204154154,
      "lng": 12.789642959833145,
      "fuels": {
        "sp95": 1.769,
        "gazole": 1.858
      }
    },
    {
      "id": "62081",
      "cp": "",
      "ville": "Rieti",
      "adresse": "Viale Lionello Matteucci 101 02100",
      "brand": "Pompe Bianche",
      "lat": 42.414,
      "lng": 12.882,
      "fuels": {
        "sp95": 1.839,
        "gazole": 1.899
      }
    },
    {
      "id": "54144",
      "cp": "",
      "ville": "Rieti",
      "adresse": "Xxxiii Settembre 18 02100",
      "brand": "Up",
      "lat": 42.41396663201163,
      "lng": 12.856683730163576,
      "fuels": {
        "sp95": 1.859
      }
    },
    {
      "id": "57807",
      "cp": "",
      "ville": "Rivodutri",
      "adresse": "s.s.79 Ternana Km 37+610 Snc 02010",
      "brand": "Tamoil",
      "lat": 42.49148867132271,
      "lng": 12.840586846163408,
      "fuels": {
        "sp95": 1.799,
        "gazole": 1.879
      }
    },
    {
      "id": "59736",
      "cp": "",
      "ville": "Rocca Sinibalda",
      "adresse": "Via Turanense  02026",
      "brand": "Pompe Bianche",
      "lat": 42.26996724813188,
      "lng": 12.916537647485335,
      "fuels": {
        "sp95": 1.799,
        "gazole": 1.899
      }
    },
    {
      "id": "21162",
      "cp": "",
      "ville": "Scandriglia",
      "adresse": "Statale 4 Via salaria, km. 52,243, dir. Roma - 02038",
      "brand": "Api-Ip",
      "lat": 42.204387640879546,
      "lng": 12.815754264593124,
      "fuels": {
        "sp95": 1.849,
        "gazole": 1.949,
        "gplc": 0.739
      }
    },
    {
      "id": "50063",
      "cp": "",
      "ville": "Selci",
      "adresse": "Via Roma 74 02040",
      "brand": "Pompe Bianche",
      "lat": 42.30898114617377,
      "lng": 12.622737884521479,
      "fuels": {
        "sp95": 1.826,
        "gazole": 1.886
      }
    },
    {
      "id": "46016",
      "cp": "",
      "ville": "Stimigliano",
      "adresse": "Via Lambruschina Sud 82 02048",
      "brand": "Esso",
      "lat": 42.28893945579865,
      "lng": 12.573361610257052,
      "fuels": {
        "sp95": 1.829,
        "gazole": 1.899,
        "gplc": 0.799
      }
    },
    {
      "id": "15032",
      "cp": "",
      "ville": "Tarano",
      "adresse": "Via Lambruschina Snc 02040",
      "brand": "Agip Eni",
      "lat": 42.31943482973986,
      "lng": 12.58444458246231,
      "fuels": {
        "sp95": 1.829,
        "gazole": 1.889
      }
    },
    {
      "id": "11126",
      "cp": "",
      "ville": "Torri In Sabina",
      "adresse": "loc. Ponte Cese  Snc 02049",
      "brand": "Enerpetroli",
      "lat": 42.35510267545191,
      "lng": 12.639044970273972,
      "fuels": {
        "sp95": 1.819,
        "gazole": 1.899
      }
    }
  ]
}