{
  "code": "SA",
  "name": "Salerno",
  "regionCode": "CAM",
  "regionName": "Campania",
  "asOf": "2026-06-29T19:04:19.952Z",
  "source": "https://www.mimit.gov.it/it/open-data/elenco-dataset/2032336-dataset-prezzi-carburanti",
  "stationCount": 384,
  "fuels": {
    "gazole": {
      "count": 379,
      "mean": 1.9276,
      "median": 1.919,
      "min": 1.574,
      "max": 2.182
    },
    "sp95": {
      "count": 380,
      "mean": 1.856,
      "median": 1.839,
      "min": 1.675,
      "max": 2.479
    },
    "e85": {
      "count": 31,
      "mean": 1.4888,
      "median": 1.479,
      "min": 1.331,
      "max": 1.999
    },
    "gplc": {
      "count": 78,
      "mean": 0.7799,
      "median": 0.775,
      "min": 0.679,
      "max": 0.989
    }
  },
  "stations": [
    {
      "id": "27977",
      "cp": "",
      "ville": "Acerno",
      "adresse": "Via Roma 53 84042",
      "brand": "Agip Eni",
      "lat": 40.734263190926264,
      "lng": 15.054223857334136,
      "fuels": {
        "sp95": 1.889,
        "gazole": 1.949
      }
    },
    {
      "id": "4445",
      "cp": "",
      "ville": "Agropoli",
      "adresse": "Contrada Marrota s.p. 267 km. 8+070  84043",
      "brand": "Api-Ip",
      "lat": 40.335553467399386,
      "lng": 15.003397464752197,
      "fuels": {
        "sp95": 1.819,
        "gazole": 1.919,
        "gplc": 0.799
      }
    },
    {
      "id": "61363",
      "cp": "",
      "ville": "Agropoli",
      "adresse": "Ex ss. 18 km. 100+200",
      "brand": "Tamoil",
      "lat": 40.3866439,
      "lng": 15.0272952,
      "fuels": {
        "sp95": 1.779,
        "gazole": 1.879
      }
    },
    {
      "id": "56957",
      "cp": "",
      "ville": "Agropoli",
      "adresse": "Mattine Snc 84043",
      "brand": "Pompe Bianche",
      "lat": 40.3838077,
      "lng": 15.014026,
      "fuels": {
        "sp95": 1.849,
        "gazole": 1.899
      }
    },
    {
      "id": "52771",
      "cp": "",
      "ville": "Agropoli",
      "adresse": "Risorgimento . 84043",
      "brand": "Agip Eni",
      "lat": 40.354657,
      "lng": 14.9976,
      "fuels": {
        "sp95": 1.824,
        "gazole": 1.904
      }
    },
    {
      "id": "51017",
      "cp": "",
      "ville": "Agropoli",
      "adresse": "Via Litoranea Di Paestum 8 84043",
      "brand": "Pompe Bianche",
      "lat": 40.3782643060395,
      "lng": 15.00279492394391,
      "fuels": {
        "sp95": 1.797,
        "gazole": 1.877,
        "gplc": 0.757
      }
    },
    {
      "id": "21649",
      "cp": "",
      "ville": "Agropoli",
      "adresse": "Via Madonna Del Carmine Snc 84043",
      "brand": "Pompe Bianche",
      "lat": 40.33498336520981,
      "lng": 15.014221617840576,
      "fuels": {
        "sp95": 1.819,
        "gazole": 1.919
      }
    },
    {
      "id": "20113",
      "cp": "",
      "ville": "Agropoli",
      "adresse": "Via Risorgimento  84043",
      "brand": "Api-Ip",
      "lat": 40.35534557475658,
      "lng": 14.997161328792572,
      "fuels": {
        "sp95": 1.789,
        "gazole": 1.889
      }
    },
    {
      "id": "61061",
      "cp": "",
      "ville": "Agropoli",
      "adresse": "Viale Risorgimento 21  84043",
      "brand": "Esso",
      "lat": 40.3526212,
      "lng": 14.9965365,
      "fuels": {
        "sp95": 1.789,
        "gazole": 1.889
      }
    },
    {
      "id": "40470",
      "cp": "",
      "ville": "Albanella",
      "adresse": "Corso Europa 121 84044",
      "brand": "q8",
      "lat": 40.50323432355235,
      "lng": 15.0663161277771,
      "fuels": {
        "sp95": 1.869,
        "gazole": 1.929
      }
    },
    {
      "id": "41034",
      "cp": "",
      "ville": "Albanella",
      "adresse": "Via Roma 36 84044",
      "brand": "Api-Ip",
      "lat": 40.48134927593041,
      "lng": 15.112633779644966,
      "fuels": {
        "sp95": 2.119,
        "gazole": 2.169
      }
    },
    {
      "id": "53501",
      "cp": "",
      "ville": "Altavilla Silentina",
      "adresse": "Amedeo Molinara 52 84045",
      "brand": "Pompe Bianche",
      "lat": 40.5369357,
      "lng": 15.1061417,
      "fuels": {
        "sp95": 1.899,
        "gazole": 1.899
      }
    },
    {
      "id": "23401",
      "cp": "",
      "ville": "Altavilla Silentina",
      "adresse": "Campolongo Snc 84045",
      "brand": "Pompe Bianche",
      "lat": 40.52600792244651,
      "lng": 15.090959915344229,
      "fuels": {
        "sp95": 1.819,
        "gazole": 1.88
      }
    },
    {
      "id": "61645",
      "cp": "",
      "ville": "Altavilla Silentina",
      "adresse": "Falagato Snc 84045",
      "brand": "Pompe Bianche",
      "lat": 40.50361895483957,
      "lng": 15.091094970703125,
      "fuels": {
        "sp95": 1.897,
        "gazole": 1.895,
        "gplc": 0.789
      }
    },
    {
      "id": "56449",
      "cp": "",
      "ville": "Angri",
      "adresse": "Campia Snc 84012",
      "brand": "Pompe Bianche",
      "lat": 40.7393018,
      "lng": 14.5613443,
      "fuels": {
        "sp95": 1.849,
        "gazole": 1.929
      }
    },
    {
      "id": "42745",
      "cp": "",
      "ville": "Angri",
      "adresse": "Dei Goti 298 84012",
      "brand": "Pompe Bianche",
      "lat": 40.72930309774013,
      "lng": 14.55362076686481,
      "fuels": {
        "sp95": 1.8,
        "gazole": 1.9
      }
    },
    {
      "id": "60700",
      "cp": "",
      "ville": "Angri",
      "adresse": "Nazionale 398 84012",
      "brand": "Esso",
      "lat": 40.74819,
      "lng": 14.58199,
      "fuels": {
        "sp95": 1.829,
        "gazole": 1.899
      }
    },
    {
      "id": "47739",
      "cp": "",
      "ville": "Angri",
      "adresse": "Via Adriana 7 84012",
      "brand": "Agip Eni",
      "lat": 40.736205840817995,
      "lng": 14.577712763537724,
      "fuels": {
        "sp95": 1.999,
        "gazole": 1.999
      }
    },
    {
      "id": "51801",
      "cp": "",
      "ville": "Angri",
      "adresse": "Via Dei Goti  84012",
      "brand": "Agip Eni",
      "lat": 40.732448674618524,
      "lng": 14.563495903867235,
      "fuels": {
        "sp95": 1.829,
        "gazole": 1.899
      }
    },
    {
      "id": "45211",
      "cp": "",
      "ville": "Angri",
      "adresse": "Via Dei Goti 87 84012",
      "brand": "Esso",
      "lat": 40.734039000123,
      "lng": 14.569725000123,
      "fuels": {
        "sp95": 1.849,
        "gazole": 1.939
      }
    },
    {
      "id": "32268",
      "cp": "",
      "ville": "Angri",
      "adresse": "Via Murelle 57 84012",
      "brand": "Pompe Bianche",
      "lat": 40.736616335057086,
      "lng": 14.572852095530493,
      "fuels": {
        "sp95": 1.949,
        "gazole": 1.999
      }
    },
    {
      "id": "42811",
      "cp": "",
      "ville": "Angri",
      "adresse": "Via Paludicella 30a 84012",
      "brand": "Pompe Bianche",
      "lat": 40.72987052231823,
      "lng": 14.548700884665209,
      "fuels": {
        "sp95": 1.86,
        "gazole": 1.92,
        "e85": 1.37,
        "gplc": 0.773
      }
    },
    {
      "id": "42932",
      "cp": "",
      "ville": "Angri",
      "adresse": "Via Papa giovanni23 18 84012",
      "brand": "Tamoil",
      "lat": 40.736231339870706,
      "lng": 14.566300069940553,
      "fuels": {
        "sp95": 1.859,
        "gazole": 1.939
      }
    },
    {
      "id": "16158",
      "cp": "",
      "ville": "Angri",
      "adresse": "Via Salice 157 84012",
      "brand": "Pompe Bianche",
      "lat": 40.74097687632511,
      "lng": 14.561527669429779,
      "fuels": {
        "sp95": 1.89,
        "gazole": 1.94,
        "gplc": 0.77
      }
    },
    {
      "id": "45470",
      "cp": "",
      "ville": "Angri",
      "adresse": "Via Salice 30 84012",
      "brand": "Pompe Bianche",
      "lat": 40.74340303566079,
      "lng": 14.555597621551556,
      "fuels": {
        "sp95": 1.959,
        "gazole": 1.999
      }
    },
    {
      "id": "23502",
      "cp": "",
      "ville": "Aquara",
      "adresse": "sp44  84020",
      "brand": "Api-Ip",
      "lat": 40.44273176285596,
      "lng": 15.256151870344297,
      "fuels": {
        "sp95": 1.83,
        "gazole": 1.865
      }
    },
    {
      "id": "55918",
      "cp": "",
      "ville": "Ascea",
      "adresse": "Località stampella, Sp Ex Ss 447, Km 4+125 Snc 84046",
      "brand": "Pompe Bianche",
      "lat": 40.17519375097331,
      "lng": 15.157236152114878,
      "fuels": {
        "sp95": 1.879,
        "gazole": 1.969
      }
    },
    {
      "id": "55919",
      "cp": "",
      "ville": "Ascea",
      "adresse": "Località stampella, Sp Ex Ss 447, Km 4+125 Snc 84046",
      "brand": "Pompe Bianche",
      "lat": 40.17519375097331,
      "lng": 15.157236152114878,
      "fuels": {
        "sp95": 1.879,
        "gazole": 1.969,
        "gplc": 0.829
      }
    },
    {
      "id": "56686",
      "cp": "",
      "ville": "Atena Lucana",
      "adresse": "Ss 19 km.64+0.50 Snc 84030",
      "brand": "Agip Eni",
      "lat": 40.45573743803425,
      "lng": 15.54142713546753,
      "fuels": {
        "sp95": 1.829,
        "gazole": 1.909
      }
    },
    {
      "id": "50172",
      "cp": "",
      "ville": "Atena Lucana",
      "adresse": "Strada Statale 598 - Val D'Agri c.da Saracena Km 4+0.44  84030",
      "brand": "Pompe Bianche",
      "lat": 40.439274822126116,
      "lng": 15.56742652741797,
      "fuels": {
        "sp95": 1.675,
        "gazole": 1.574
      }
    },
    {
      "id": "30895",
      "cp": "",
      "ville": "Atena Lucana",
      "adresse": "Via Tanagro 21 84030",
      "brand": "q8",
      "lat": 40.45479452956363,
      "lng": 15.532742142677307,
      "fuels": {
        "sp95": 1.829,
        "gazole": 1.919,
        "e85": 1.479,
        "gplc": 0.799
      }
    },
    {
      "id": "10455",
      "cp": "",
      "ville": "Auletta",
      "adresse": "exss19ter Km 4+848 - c.da Mattina  Snc 84031",
      "brand": "Pompe Bianche",
      "lat": 40.581312725309786,
      "lng": 15.42456328868866,
      "fuels": {
        "sp95": 1.977,
        "gazole": 1.899
      }
    },
    {
      "id": "4366",
      "cp": "",
      "ville": "Baronissi",
      "adresse": "Autostrada a2 Autostrada Del mediterraneo,  km. 6.044, dir. Sud 84081",
      "brand": "Api-Ip",
      "lat": 40.74789583047278,
      "lng": 14.785441160202026,
      "fuels": {
        "sp95": 1.889,
        "gazole": 1.989,
        "e85": 1.499,
        "gplc": 0.775
      }
    },
    {
      "id": "4365",
      "cp": "",
      "ville": "Baronissi",
      "adresse": "Autostrada a2 Autostrada Del mediterraneo,  km. 6.048, dir. Nord 84081",
      "brand": "Api-Ip",
      "lat": 40.74886404699709,
      "lng": 14.786710880950977,
      "fuels": {
        "sp95": 1.889,
        "gazole": 1.989,
        "e85": 1.499,
        "gplc": 0.775
      }
    },
    {
      "id": "17917",
      "cp": "",
      "ville": "Baronissi",
      "adresse": "Via Aldo Moro 11 84081",
      "brand": "q8",
      "lat": 40.74260751232707,
      "lng": 14.774849116802216,
      "fuels": {
        "sp95": 1.875,
        "gazole": 1.919,
        "gplc": 0.79
      }
    },
    {
      "id": "58239",
      "cp": "",
      "ville": "Baronissi",
      "adresse": "Via Dei Due Principati",
      "brand": "Agip Eni",
      "lat": 40.7269,
      "lng": 14.77272,
      "fuels": {
        "sp95": 1.829,
        "gazole": 1.889,
        "e85": 1.493
      }
    },
    {
      "id": "38478",
      "cp": "",
      "ville": "Baronissi",
      "adresse": "Via Salvatore Allende 88/Ab 84081",
      "brand": "Api-Ip",
      "lat": 40.75497355486711,
      "lng": 14.78448825281339,
      "fuels": {
        "sp95": 1.889,
        "gazole": 1.978
      }
    },
    {
      "id": "28939",
      "cp": "",
      "ville": "Baronissi",
      "adresse": "Via Sant'Andrea  - loc. Antessano 10 84081",
      "brand": "Beneco",
      "lat": 40.73480127262118,
      "lng": 14.776836633682251,
      "fuels": {
        "sp95": 1.835,
        "gazole": 1.895,
        "gplc": 0.765
      }
    },
    {
      "id": "23398",
      "cp": "",
      "ville": "Battipaglia",
      "adresse": "18 Snc 84091",
      "brand": "Pompe Bianche",
      "lat": 40.598789722677786,
      "lng": 14.978584349155426,
      "fuels": {
        "sp95": 1.78,
        "gazole": 1.88,
        "gplc": 0.72
      }
    },
    {
      "id": "48008",
      "cp": "",
      "ville": "Battipaglia",
      "adresse": "18 Tirrena inferiore, km. 74+552, Sud - 84091",
      "brand": "Esso",
      "lat": 40.60066160968652,
      "lng": 14.976024488389225,
      "fuels": {
        "sp95": 1.859,
        "gazole": 1.979
      }
    },
    {
      "id": "54716",
      "cp": "",
      "ville": "Battipaglia",
      "adresse": "Belvedere  84091",
      "brand": "q8",
      "lat": 40.6128796,
      "lng": 14.9750796,
      "fuels": {
        "sp95": 1.809,
        "gazole": 1.909
      }
    },
    {
      "id": "40904",
      "cp": "",
      "ville": "Battipaglia",
      "adresse": "Belvedere 43 84091",
      "brand": "Agip Eni",
      "lat": 40.6146557061252,
      "lng": 14.967992305755615,
      "fuels": {
        "sp95": 1.814,
        "gazole": 1.909
      }
    },
    {
      "id": "49019",
      "cp": "",
      "ville": "Battipaglia",
      "adresse": "Localita' Bosco Ii - sp195  84091",
      "brand": "Tamoil",
      "lat": 40.59058208086843,
      "lng": 15.00907301902771,
      "fuels": {
        "sp95": 1.839,
        "gazole": 1.929,
        "gplc": 0.759
      }
    },
    {
      "id": "47030",
      "cp": "",
      "ville": "Battipaglia",
      "adresse": "s.s.18 Km 77+450 Snc 84091",
      "brand": "Esso",
      "lat": 40.579441695996145,
      "lng": 14.984840025307562,
      "fuels": {
        "sp95": 1.799,
        "gazole": 1.899
      }
    },
    {
      "id": "57722",
      "cp": "",
      "ville": "Battipaglia",
      "adresse": "s.s.19 Km 1+550 Snc 84091",
      "brand": "Esso",
      "lat": 40.608742875846396,
      "lng": 14.982451018585188,
      "fuels": {
        "sp95": 1.799,
        "gazole": 1.899
      }
    },
    {
      "id": "63228",
      "cp": "",
      "ville": "Battipaglia",
      "adresse": "Ss 18 Tirrena Inferiore Km 74+582  84091",
      "brand": "Esso",
      "lat": 40.6006484,
      "lng": 14.9760219,
      "fuels": {
        "sp95": 1.799,
        "gazole": 1.899
      }
    },
    {
      "id": "24783",
      "cp": "",
      "ville": "Battipaglia",
      "adresse": "Strada Statale 18",
      "brand": "Api-Ip",
      "lat": 40.58875462895884,
      "lng": 14.983951449394226,
      "fuels": {
        "sp95": 1.799,
        "gazole": 1.899
      }
    },
    {
      "id": "30591",
      "cp": "",
      "ville": "Battipaglia",
      "adresse": "Strada Statale 18 Tirrena Inferiore Km 73,440  84091",
      "brand": "Api-Ip",
      "lat": 40.61065965039819,
      "lng": 14.972611733937828,
      "fuels": {
        "sp95": 1.829,
        "gazole": 1.929
      }
    },
    {
      "id": "34134",
      "cp": "",
      "ville": "Battipaglia",
      "adresse": "Via Belvedere 2 84091",
      "brand": "Pompe Bianche",
      "lat": 40.612072445327264,
      "lng": 14.978481402446732,
      "fuels": {
        "sp95": 1.818,
        "gazole": 1.898
      }
    },
    {
      "id": "28434",
      "cp": "",
      "ville": "Battipaglia",
      "adresse": "Via Belvedere 48 84091",
      "brand": "Api-Ip",
      "lat": 40.6127873750079,
      "lng": 14.97586727142334,
      "fuels": {
        "sp95": 1.799,
        "gazole": 1.899
      }
    },
    {
      "id": "60279",
      "cp": "",
      "ville": "Battipaglia",
      "adresse": "Via Litoranea loc. Spineta   84091",
      "brand": "Pompe Bianche",
      "lat": 40.5739229,
      "lng": 14.8894041,
      "fuels": {
        "sp95": 1.999,
        "gazole": 1.877
      }
    },
    {
      "id": "5545",
      "cp": "",
      "ville": "Battipaglia",
      "adresse": "Via p. Baratta 161 84091",
      "brand": "Api-Ip",
      "lat": 40.606284782003925,
      "lng": 14.991850813491851,
      "fuels": {
        "sp95": 1.799,
        "gazole": 1.899
      }
    },
    {
      "id": "54428",
      "cp": "",
      "ville": "Battipaglia",
      "adresse": "Via Paolo Baratta Snc 84091",
      "brand": "Pompe Bianche",
      "lat": 40.6055547,
      "lng": 14.9938307,
      "fuels": {
        "sp95": 1.829,
        "gazole": 1.929,
        "gplc": 0.749
      }
    },
    {
      "id": "56327",
      "cp": "",
      "ville": "Battipaglia",
      "adresse": "Via s.p. 175 Localita' Lago km.11 Snc 84091, Battipaglia (sa) Snc 84091",
      "brand": "Pompe Bianche",
      "lat": 40.55187908825489,
      "lng": 14.906678485156249,
      "fuels": {
        "sp95": 1.849,
        "gazole": 1.899
      }
    },
    {
      "id": "45562",
      "cp": "",
      "ville": "Battipaglia",
      "adresse": "Via Serroni Alto 55 84091",
      "brand": "Pompe Bianche",
      "lat": 40.640236000123,
      "lng": 14.976993000123,
      "fuels": {
        "sp95": 1.899,
        "gazole": 1.939
      }
    },
    {
      "id": "23397",
      "cp": "",
      "ville": "Battipaglia",
      "adresse": "Via Spineta  84091",
      "brand": "Pompe Bianche",
      "lat": 40.60690187202281,
      "lng": 14.96763825416565,
      "fuels": {
        "sp95": 1.819,
        "gazole": 1.859,
        "e85": 1.399
      }
    },
    {
      "id": "60280",
      "cp": "",
      "ville": "Battipaglia",
      "adresse": "Via Spineta  84091",
      "brand": "Pompe Bianche",
      "lat": 40.5911485,
      "lng": 14.9307019,
      "fuels": {
        "sp95": 1.999,
        "gazole": 1.857
      }
    },
    {
      "id": "57849",
      "cp": "",
      "ville": "Battipaglia",
      "adresse": "Viale Brodolini 86 84091",
      "brand": "Pompe Bianche",
      "lat": 40.59813415042051,
      "lng": 14.98759388923645,
      "fuels": {
        "sp95": 1.859,
        "gazole": 1.959
      }
    },
    {
      "id": "60501",
      "cp": "",
      "ville": "Battipaglia",
      "adresse": "Viale Delle Industrie Snc 80146",
      "brand": "Esso",
      "lat": 40.59679014696124,
      "lng": 14.991090968530276,
      "fuels": {
        "sp95": 1.834,
        "gazole": 1.897
      }
    },
    {
      "id": "6741",
      "cp": "",
      "ville": "Bellizzi",
      "adresse": "ss.164 Km 1 Snc 84092",
      "brand": "q8",
      "lat": 40.631691432660915,
      "lng": 14.960234016180038,
      "fuels": {
        "sp95": 1.799,
        "gazole": 1.899
      }
    },
    {
      "id": "19668",
      "cp": "",
      "ville": "Bellizzi",
      "adresse": "Strada stat. s.s.18 km. 70+800 Snc 84092, Bellizzi (sa) 370 84092",
      "brand": "Api-Ip",
      "lat": 40.62134877300441,
      "lng": 14.943502396345139,
      "fuels": {
        "sp95": 1.829,
        "gazole": 1.909
      }
    },
    {
      "id": "62973",
      "cp": "",
      "ville": "Bellizzi",
      "adresse": "Via Roma 1  84092",
      "brand": "Esso",
      "lat": 40.61825964489044,
      "lng": 14.955878232471477,
      "fuels": {
        "sp95": 1.819,
        "gazole": 1.899
      }
    },
    {
      "id": "58653",
      "cp": "",
      "ville": "Bellosguardo",
      "adresse": "Tufolo Snc 84020",
      "brand": "Pompe Bianche",
      "lat": 40.418879231992484,
      "lng": 15.310020533316026,
      "fuels": {
        "sp95": 1.799,
        "gazole": 1.899
      }
    },
    {
      "id": "55527",
      "cp": "",
      "ville": "Bracigliano",
      "adresse": "Via Vescovo  Capaccio Snc 84082",
      "brand": "Pompe Bianche",
      "lat": 40.768184,
      "lng": 14.6629385,
      "fuels": {
        "sp95": 1.869,
        "gazole": 1.959
      }
    },
    {
      "id": "52463",
      "cp": "",
      "ville": "Buccino",
      "adresse": "c.da Mesarico Km 7+846 84020",
      "brand": "Pompe Bianche",
      "lat": 40.60720582306619,
      "lng": 15.380737185493407,
      "fuels": {
        "sp95": 1.879,
        "gazole": 1.949
      }
    },
    {
      "id": "61324",
      "cp": "",
      "ville": "Buccino",
      "adresse": "s.s. 407  84021",
      "brand": "Esso",
      "lat": 40.605484,
      "lng": 15.379138,
      "fuels": {
        "sp95": 1.889,
        "gazole": 2.029
      }
    },
    {
      "id": "39944",
      "cp": "",
      "ville": "Buccino",
      "adresse": "Via Magaldi Industrie Snc 84021",
      "brand": "Pompe Bianche",
      "lat": 40.63762828830344,
      "lng": 15.380976220901516,
      "fuels": {
        "sp95": 1.948,
        "gazole": 1.949
      }
    },
    {
      "id": "25183",
      "cp": "",
      "ville": "Buccino",
      "adresse": "Via s.vito, 84021 - -",
      "brand": "Api-Ip",
      "lat": 40.63220080941543,
      "lng": 15.368295832018362,
      "fuels": {
        "sp95": 1.999,
        "gazole": 2.099
      }
    },
    {
      "id": "59534",
      "cp": "",
      "ville": "Buonabitacolo",
      "adresse": "Sts 517 Snc 84032",
      "brand": "Pompe Bianche",
      "lat": 40.281,
      "lng": 15.6377,
      "fuels": {
        "sp95": 1.789,
        "gazole": 1.879
      }
    },
    {
      "id": "37567",
      "cp": "",
      "ville": "Caggiano",
      "adresse": "loc. Bocca Del Bosco 10 84030",
      "brand": "Api-Ip",
      "lat": 40.546082105852776,
      "lng": 15.490327700972557,
      "fuels": {
        "sp95": 1.889,
        "gazole": 1.929,
        "gplc": 0.799
      }
    },
    {
      "id": "62232",
      "cp": "",
      "ville": "Camerota",
      "adresse": "Porto Snc 84040",
      "brand": "Api-Ip",
      "lat": 40.00009948841263,
      "lng": 15.373966097831726,
      "fuels": {
        "sp95": 1.899,
        "gazole": 1.999
      }
    },
    {
      "id": "16206",
      "cp": "",
      "ville": "Camerota",
      "adresse": "Via Gioacchino Murat 7 84050",
      "brand": "Api-Ip",
      "lat": 40.05496324218752,
      "lng": 15.359800322753927,
      "fuels": {
        "sp95": 1.899,
        "gazole": 1.999
      }
    },
    {
      "id": "38823",
      "cp": "",
      "ville": "Camerota",
      "adresse": "Via Sirene  Snc 84059",
      "brand": "q8",
      "lat": 40.00281532371576,
      "lng": 15.364697689549303,
      "fuels": {
        "sp95": 1.889,
        "gazole": 1.989
      }
    },
    {
      "id": "42950",
      "cp": "",
      "ville": "Campagna",
      "adresse": "Autostrada a2 Autostrada Del mediterraneo,  km. 46,400, dir. Nord - 84022",
      "brand": "Esso",
      "lat": 40.61803334069339,
      "lng": 15.165479753303543,
      "fuels": {
        "sp95": 2.069,
        "gazole": 2.179,
        "gplc": 0.989
      }
    },
    {
      "id": "22473",
      "cp": "",
      "ville": "Campagna",
      "adresse": "Autostrada a3 Salerno-Reggio calabria, km. 42,700, dir. Sud - -",
      "brand": "q8",
      "lat": 40.624016528671206,
      "lng": 15.182493925094604,
      "fuels": {
        "sp95": 1.889,
        "gazole": 1.949
      }
    },
    {
      "id": "61907",
      "cp": "",
      "ville": "Campagna",
      "adresse": "Calli s.s. 91 Snc 84022",
      "brand": "q8",
      "lat": 40.62800952103476,
      "lng": 15.097610441833504,
      "fuels": {
        "sp95": 1.819,
        "gazole": 1.939
      }
    },
    {
      "id": "57320",
      "cp": "",
      "ville": "Campagna",
      "adresse": "Della Democrazia 4 84022",
      "brand": "Pompe Bianche",
      "lat": 40.63740885897123,
      "lng": 15.105931317999275,
      "fuels": {
        "sp95": 1.849,
        "gazole": 1.969
      }
    },
    {
      "id": "39733",
      "cp": "",
      "ville": "Campagna",
      "adresse": "Via Difesa Maddalena  Snc 84022",
      "brand": "Pompe Bianche",
      "lat": 40.6040252070292,
      "lng": 15.114339435539705,
      "fuels": {
        "sp95": 1.895,
        "gazole": 1.996,
        "e85": 1.599
      }
    },
    {
      "id": "39062",
      "cp": "",
      "ville": "Campagna",
      "adresse": "Via Difesa maddalena, 43 Presso Totalerg 38 84020",
      "brand": "Api-Ip",
      "lat": 40.610987782863745,
      "lng": 15.115048279762277,
      "fuels": {
        "sp95": 1.866,
        "gazole": 1.986
      }
    },
    {
      "id": "39067",
      "cp": "",
      "ville": "Campagna",
      "adresse": "Via Provinciale Per Galdo 398 84022",
      "brand": "Pompe Bianche",
      "lat": 40.60173839464747,
      "lng": 15.114270597696304,
      "fuels": {
        "e85": 1.499,
        "gplc": 0.809
      }
    },
    {
      "id": "47565",
      "cp": "",
      "ville": "Capaccio Paestum",
      "adresse": "166 Degli alburni, km. 4,355, Salerno - 84047",
      "brand": "Pompe Bianche",
      "lat": 40.458913000123,
      "lng": 15.056754000123,
      "fuels": {
        "sp95": 1.789,
        "gazole": 1.899
      }
    },
    {
      "id": "44475",
      "cp": "",
      "ville": "Capaccio Paestum",
      "adresse": "Consortile Per Gromola s.n.c. 84047",
      "brand": "Pompe Bianche",
      "lat": 40.481851,
      "lng": 15.013067,
      "fuels": {
        "sp95": 1.895,
        "gazole": 1.897,
        "gplc": 0.789
      }
    },
    {
      "id": "44420",
      "cp": "",
      "ville": "Capaccio Paestum",
      "adresse": "Pietrale Snc 84047",
      "brand": "q8",
      "lat": 40.451402000123,
      "lng": 15.041754000123,
      "fuels": {
        "sp95": 1.799,
        "gazole": 1.879
      }
    },
    {
      "id": "56999",
      "cp": "",
      "ville": "Capaccio Paestum",
      "adresse": "Sabatella 77 84047",
      "brand": "Agip Eni",
      "lat": 40.477714,
      "lng": 15.014883,
      "fuels": {
        "sp95": 1.789,
        "gazole": 1.834
      }
    },
    {
      "id": "57150",
      "cp": "",
      "ville": "Capaccio Paestum",
      "adresse": "Sandro pertini, s.s. 166 54 84047",
      "brand": "Pompe Bianche",
      "lat": 40.451960010281326,
      "lng": 15.031324625015259,
      "fuels": {
        "sp95": 1.936,
        "gazole": 1.943
      }
    },
    {
      "id": "56915",
      "cp": "",
      "ville": "Capaccio Paestum",
      "adresse": "ss18 Km 97+458 84047",
      "brand": "Pompe Bianche",
      "lat": 40.4206502,
      "lng": 15.0206871,
      "fuels": {
        "sp95": 1.877,
        "gazole": 1.897
      }
    },
    {
      "id": "19905",
      "cp": "",
      "ville": "Capaccio Paestum",
      "adresse": "Statale 18 Tirrena inferiore, km. 90.00, dir. Sud - 84040",
      "brand": "Pompe Bianche",
      "lat": 40.47068995026931,
      "lng": 15.018881857395172,
      "fuels": {
        "gplc": 0.679
      }
    },
    {
      "id": "47090",
      "cp": "",
      "ville": "Capaccio Paestum",
      "adresse": "Strada Provinciale 11 - Km 1.1  84047",
      "brand": "Pompe Bianche",
      "lat": 40.49811454520646,
      "lng": 15.029012398537093,
      "fuels": {
        "sp95": 1.859,
        "gazole": 1.979
      }
    },
    {
      "id": "45835",
      "cp": "",
      "ville": "Capaccio Paestum",
      "adresse": "Via Costabile Carducci 45 84047",
      "brand": "Pompe Bianche",
      "lat": 40.425539435303,
      "lng": 15.076728457672061,
      "fuels": {
        "sp95": 1.919,
        "gazole": 1.999
      }
    },
    {
      "id": "5240",
      "cp": "",
      "ville": "Capaccio Paestum",
      "adresse": "Via Francesco Gregorio 100 84047",
      "brand": "Gregoil",
      "lat": 40.460764018215464,
      "lng": 14.970343261957169,
      "fuels": {
        "sp95": 1.835,
        "gazole": 1.921
      }
    },
    {
      "id": "11062",
      "cp": "",
      "ville": "Capaccio Paestum",
      "adresse": "Via Magna Gracia 389 84047",
      "brand": "Pompe Bianche",
      "lat": 40.452679390399894,
      "lng": 15.011730292993093,
      "fuels": {
        "sp95": 1.932,
        "gazole": 2.182
      }
    },
    {
      "id": "46574",
      "cp": "",
      "ville": "Capaccio Paestum",
      "adresse": "Via Magna Graecia 43 84047",
      "brand": "Esso",
      "lat": 40.457010527880364,
      "lng": 15.012222295294464,
      "fuels": {
        "sp95": 1.789,
        "gazole": 1.899
      }
    },
    {
      "id": "62452",
      "cp": "",
      "ville": "Capaccio Paestum",
      "adresse": "Via Magna Graecia 552  84047",
      "brand": "Itala Petroli",
      "lat": 40.4304164,
      "lng": 15.0056923,
      "fuels": {
        "sp95": 1.819,
        "gazole": 1.919
      }
    },
    {
      "id": "9665",
      "cp": "",
      "ville": "Casal Velino",
      "adresse": "\"s.s. 18/cilentana\" km.126+929 Snc 84040",
      "brand": "Agip Eni",
      "lat": 40.231369140048635,
      "lng": 15.160210132598877,
      "fuels": {
        "sp95": 1.83,
        "gazole": 1.919,
        "gplc": 0.777
      }
    },
    {
      "id": "46880",
      "cp": "",
      "ville": "Casal Velino",
      "adresse": "fraz. Marina Snc 84040",
      "brand": "Energas",
      "lat": 40.193856132654375,
      "lng": 15.141182541847229,
      "fuels": {
        "sp95": 1.879,
        "gazole": 1.969,
        "gplc": 0.769
      }
    },
    {
      "id": "52857",
      "cp": "",
      "ville": "Casal Velino",
      "adresse": "loc. Ardisani Snc 84040",
      "brand": "Api-Ip",
      "lat": 40.1939,
      "lng": 15.14131,
      "fuels": {
        "sp95": 1.829,
        "gazole": 1.929,
        "gplc": 0.769
      }
    },
    {
      "id": "10049",
      "cp": "",
      "ville": "Casal Velino",
      "adresse": "Strada prov.pedemontana 1 84040",
      "brand": "Agip Eni",
      "lat": 40.20323831222262,
      "lng": 15.150023893174989,
      "fuels": {
        "sp95": 1.829,
        "gazole": 1.909
      }
    },
    {
      "id": "6740",
      "cp": "",
      "ville": "Casal Velino",
      "adresse": "Via Provinciale 161 84040",
      "brand": "q8",
      "lat": 40.17737542069334,
      "lng": 15.124516539881142,
      "fuels": {
        "sp95": 1.829,
        "gazole": 1.929
      }
    },
    {
      "id": "44357",
      "cp": "",
      "ville": "Casaletto Spartano",
      "adresse": "Via g. Amendola Snc 84030",
      "brand": "Pompe Bianche",
      "lat": 40.15045671910628,
      "lng": 15.619173049926758,
      "fuels": {
        "sp95": 1.909,
        "gazole": 1.959
      }
    },
    {
      "id": "8850",
      "cp": "",
      "ville": "Caselle In Pittari",
      "adresse": "Via s.s. 517 km. 13+600 Snc 84030, Caselle In Pittari (sa)",
      "brand": "q8",
      "lat": 40.17896020461129,
      "lng": 15.529182851314545,
      "fuels": {
        "sp95": 1.839,
        "gazole": 1.919,
        "gplc": 0.835
      }
    },
    {
      "id": "50854",
      "cp": "",
      "ville": "Castel San Giorgio",
      "adresse": "Via Ciancio Snc 84083, Castel San Giorgio (sa) 23/Bis 84083",
      "brand": "Pompe Bianche",
      "lat": 40.772164695898304,
      "lng": 14.687353560001368,
      "fuels": {
        "sp95": 1.849,
        "gazole": 1.949,
        "e85": 1.399,
        "gplc": 0.769
      }
    },
    {
      "id": "37111",
      "cp": "",
      "ville": "Castel San Giorgio",
      "adresse": "Via Dante Alighieri 36 84083",
      "brand": "Pompe Bianche",
      "lat": 40.77338856335892,
      "lng": 14.680640626983632,
      "fuels": {
        "sp95": 1.869,
        "gazole": 1.969
      }
    },
    {
      "id": "51278",
      "cp": "",
      "ville": "Castel San Giorgio",
      "adresse": "Via Guerrasio 61 84083",
      "brand": "Pompe Bianche",
      "lat": 40.77865663214082,
      "lng": 14.69532359516655,
      "fuels": {
        "sp95": 1.859,
        "gazole": 1.949
      }
    },
    {
      "id": "14426",
      "cp": "",
      "ville": "Castel San Giorgio",
      "adresse": "Via Tenente Bruno Lombardi 179 84083",
      "brand": "Pompe Bianche",
      "lat": 40.78027755922205,
      "lng": 14.710102242388984,
      "fuels": {
        "sp95": 1.867,
        "gazole": 1.949
      }
    },
    {
      "id": "51881",
      "cp": "",
      "ville": "Castel San Giorgio",
      "adresse": "Via Trieste Snc 84083, Castel San Giorgio (sa)  84083",
      "brand": "Pompe Bianche",
      "lat": 40.77751327568137,
      "lng": 14.675568726038797,
      "fuels": {
        "sp95": 1.849,
        "gazole": 1.949
      }
    },
    {
      "id": "53293",
      "cp": "",
      "ville": "Castellabate",
      "adresse": "Buonanotte Snc 84048",
      "brand": "Esso",
      "lat": 40.24706441974774,
      "lng": 14.957209304254153,
      "fuels": {
        "sp95": 1.777,
        "gazole": 1.899
      }
    },
    {
      "id": "61362",
      "cp": "",
      "ville": "Castellabate",
      "adresse": "sp. Agropoli/Castellabate",
      "brand": "Tamoil",
      "lat": 40.2943021,
      "lng": 14.95587,
      "fuels": {
        "sp95": 1.739,
        "gazole": 1.839
      }
    },
    {
      "id": "32357",
      "cp": "",
      "ville": "Castellabate",
      "adresse": "Strada stat. s.s.267 km.17+650 fraz.s.maria Snc 84048, Castellabate (sa)  84048",
      "brand": "Api-Ip",
      "lat": 40.29729071635339,
      "lng": 14.958797693252563,
      "fuels": {
        "sp95": 1.759,
        "gazole": 1.869
      }
    },
    {
      "id": "30810",
      "cp": "",
      "ville": "Castelnuovo Cilento",
      "adresse": "Localita' Fiera Snc 84040",
      "brand": "Pompe Bianche",
      "lat": 40.21401542131929,
      "lng": 15.160285234451294,
      "fuels": {
        "sp95": 1.839,
        "gazole": 1.939
      }
    },
    {
      "id": "52084",
      "cp": "",
      "ville": "Castelnuovo Cilento",
      "adresse": "Via Nazionale Snc 84040",
      "brand": "Api-Ip",
      "lat": 40.20056654658498,
      "lng": 15.159183918595653,
      "fuels": {
        "sp95": 1.839,
        "gazole": 1.979
      }
    },
    {
      "id": "39479",
      "cp": "",
      "ville": "Castelnuovo Di Conza",
      "adresse": "Via Sant Ilarione 12 84020",
      "brand": "Pompe Bianche",
      "lat": 40.80057271111089,
      "lng": 15.281101236431823,
      "fuels": {
        "sp95": 1.899,
        "gazole": 1.949
      }
    },
    {
      "id": "49729",
      "cp": "",
      "ville": "Cava De' Tirreni",
      "adresse": "Corso Giovanni Palatucci 51 84013",
      "brand": "Api-Ip",
      "lat": 40.71016576785081,
      "lng": 14.699343790178299,
      "fuels": {
        "sp95": 1.824,
        "gazole": 1.924
      }
    },
    {
      "id": "52406",
      "cp": "",
      "ville": "Cava De' Tirreni",
      "adresse": "Corso Principe Amedeo 87 84013",
      "brand": "Agip Eni",
      "lat": 40.700972552668645,
      "lng": 14.708948862946846,
      "fuels": {
        "sp95": 1.829,
        "gazole": 1.909
      }
    },
    {
      "id": "11831",
      "cp": "",
      "ville": "Cava De' Tirreni",
      "adresse": "ss. 18 km.43+350 loc. s.giuseppe S/N 84013",
      "brand": "q8",
      "lat": 40.72224974152966,
      "lng": 14.696128964424133,
      "fuels": {
        "sp95": 1.779,
        "gazole": 1.879
      }
    },
    {
      "id": "25172",
      "cp": "",
      "ville": "Cava De' Tirreni",
      "adresse": "Via 25 Luglio 60 84013",
      "brand": "Api-Ip",
      "lat": 40.70833949581345,
      "lng": 14.706157743930817,
      "fuels": {
        "sp95": 1.774,
        "gazole": 1.874
      }
    },
    {
      "id": "9832",
      "cp": "",
      "ville": "Cava De' Tirreni",
      "adresse": "Via Canale Snc 84013",
      "brand": "Agip Eni",
      "lat": 40.69619457456886,
      "lng": 14.709444120526314,
      "fuels": {
        "sp95": 1.859
      }
    },
    {
      "id": "46385",
      "cp": "",
      "ville": "Cava De' Tirreni",
      "adresse": "Via Via g. Palumbo 27 84013, Cava De' Tirreni (sa)  84014",
      "brand": "Up",
      "lat": 40.709610803366125,
      "lng": 14.703861329330493,
      "fuels": {
        "sp95": 1.769,
        "gazole": 1.869
      }
    },
    {
      "id": "10166",
      "cp": "",
      "ville": "Cava De' Tirreni",
      "adresse": "Via Via Starza fraz.s.lucia Snc 84013, Cava De' Tirreni (sa) 25 84013",
      "brand": "Pompe Bianche",
      "lat": 40.721599048770265,
      "lng": 14.702839449073736,
      "fuels": {
        "sp95": 1.799,
        "gazole": 1.899,
        "e85": 1.499,
        "gplc": 0.779
      }
    },
    {
      "id": "58048",
      "cp": "",
      "ville": "Cava De' Tirreni",
      "adresse": "Via Xxv Luglio 242 84013",
      "brand": "Pompe Bianche",
      "lat": 40.727129,
      "lng": 14.691352,
      "fuels": {
        "sp95": 1.869,
        "gazole": 1.919
      }
    },
    {
      "id": "27796",
      "cp": "",
      "ville": "Cava De' Tirreni",
      "adresse": "Via Xxv Luglio ang. Corso Mazzini  84013",
      "brand": "q8",
      "lat": 40.71447529280509,
      "lng": 14.702678974205014,
      "fuels": {
        "sp95": 1.779,
        "gazole": 1.879,
        "gplc": 0.789
      }
    },
    {
      "id": "55699",
      "cp": "",
      "ville": "Cava De' Tirreni",
      "adresse": "Vitale 50 84013",
      "brand": "Pompe Bianche",
      "lat": 40.702,
      "lng": 14.7065,
      "fuels": {
        "sp95": 1.839,
        "gazole": 1.939
      }
    },
    {
      "id": "53278",
      "cp": "",
      "ville": "Cava De' Tirreni",
      "adresse": "Xxv Luglio Ss 18 65 84013",
      "brand": "Esso",
      "lat": 40.71047,
      "lng": 14.70596,
      "fuels": {
        "sp95": 1.769,
        "gazole": 1.869
      }
    },
    {
      "id": "39221",
      "cp": "",
      "ville": "Celle Di Bulgheria",
      "adresse": "Localita' Rossini s.n. 84040",
      "brand": "Pompe Bianche",
      "lat": 40.094306165778576,
      "lng": 15.358785182538895,
      "fuels": {
        "sp95": 1.869,
        "gazole": 1.979
      }
    },
    {
      "id": "44545",
      "cp": "",
      "ville": "Centola",
      "adresse": "447 Di palinuro, km. 46+900, Centola - 84064",
      "brand": "Api-Ip",
      "lat": 40.042721000123,
      "lng": 15.290694000123,
      "fuels": {
        "sp95": 1.919,
        "gazole": 1.959
      }
    },
    {
      "id": "19973",
      "cp": "",
      "ville": "Centola",
      "adresse": "Corso Carlo Pisacane 153 84051",
      "brand": "Esso",
      "lat": 40.0367252,
      "lng": 15.2866356,
      "fuels": {
        "sp95": 1.947,
        "gazole": 1.988
      }
    },
    {
      "id": "44100",
      "cp": "",
      "ville": "Centola",
      "adresse": "Piana s.s. 562 km. 2 Sn 84051",
      "brand": "Api-Ip",
      "lat": 40.03925812874101,
      "lng": 15.310790247850377,
      "fuels": {
        "sp95": 1.949,
        "gazole": 1.989
      }
    },
    {
      "id": "53292",
      "cp": "",
      "ville": "Centola",
      "adresse": "Saline Ex s.s.447 Km 6+550 Snc 84051",
      "brand": "Api-Ip",
      "lat": 40.04425088408308,
      "lng": 15.287984684388736,
      "fuels": {
        "sp95": 1.939,
        "gazole": 1.979
      }
    },
    {
      "id": "42711",
      "cp": "",
      "ville": "Ceraso",
      "adresse": "Via Isca 24 84052",
      "brand": "Pompe Bianche",
      "lat": 40.19600888443112,
      "lng": 15.262747238622978,
      "fuels": {
        "sp95": 1.879,
        "gazole": 1.993
      }
    },
    {
      "id": "52476",
      "cp": "",
      "ville": "Colliano",
      "adresse": "c.da Valle Di Raio Sp 268b Colliano Snc 84020",
      "brand": "Pompe Bianche",
      "lat": 40.674717976957,
      "lng": 15.323443148177617,
      "fuels": {
        "sp95": 1.949,
        "gazole": 1.977
      }
    },
    {
      "id": "41558",
      "cp": "",
      "ville": "Colliano",
      "adresse": "Isca Snc 84020",
      "brand": "Pompe Bianche",
      "lat": 40.705920733185295,
      "lng": 15.253368616104126,
      "fuels": {
        "sp95": 1.899,
        "gazole": 1.919
      }
    },
    {
      "id": "53876",
      "cp": "",
      "ville": "Colliano",
      "adresse": "s.s. 691 Fondo Valle Sele Snc 84020",
      "brand": "Pompe Bianche",
      "lat": 40.708978,
      "lng": 15.251081,
      "fuels": {
        "sp95": 1.839,
        "gazole": 1.899,
        "e85": 1.699,
        "gplc": 0.799
      }
    },
    {
      "id": "30015",
      "cp": "",
      "ville": "Colliano",
      "adresse": "Via Cimiralle - loc. Vignali s.n.c. 84020",
      "brand": "Api-Ip",
      "lat": 40.721949090441626,
      "lng": 15.294686034321785,
      "fuels": {
        "sp95": 1.909,
        "gazole": 1.959
      }
    },
    {
      "id": "45632",
      "cp": "",
      "ville": "Conca Dei Marini",
      "adresse": "163 amalfitana, km. 24, Positano - 84010",
      "brand": "q8",
      "lat": 40.615142544408464,
      "lng": 14.558394487156193,
      "fuels": {
        "sp95": 1.934,
        "gazole": 2.014
      }
    },
    {
      "id": "52477",
      "cp": "",
      "ville": "Controne",
      "adresse": "Via Walter Tabagi 1 84022",
      "brand": "Pompe Bianche",
      "lat": 40.51049258063465,
      "lng": 15.204726087752327,
      "fuels": {
        "sp95": 2.099,
        "gazole": 2.119
      }
    },
    {
      "id": "50271",
      "cp": "",
      "ville": "Contursi Terme",
      "adresse": "loc. Castelloni  s.p. 65 Snc 84024",
      "brand": "Pompe Bianche",
      "lat": 40.63889977057852,
      "lng": 15.245364904403687,
      "fuels": {
        "sp95": 1.989,
        "gazole": 1.999
      }
    },
    {
      "id": "58980",
      "cp": "",
      "ville": "Contursi Terme",
      "adresse": "Pruno Sottano 56 84024",
      "brand": "q8",
      "lat": 40.68147178590397,
      "lng": 15.25403012880858,
      "fuels": {
        "sp95": 1.848,
        "gazole": 1.899
      }
    },
    {
      "id": "50799",
      "cp": "",
      "ville": "Corbara",
      "adresse": "Via e.chiunzi 2 84010",
      "brand": "Pompe Bianche",
      "lat": 40.72227233103176,
      "lng": 14.597206204893496,
      "fuels": {
        "sp95": 1.849,
        "gazole": 1.939
      }
    },
    {
      "id": "58703",
      "cp": "",
      "ville": "Cuccaro Vetere",
      "adresse": "s.s. 18-km. 19.603 - loc. Acqua Corria Snc  Snc 84050",
      "brand": "Energas",
      "lat": 40.159858,
      "lng": 15.3052,
      "fuels": {
        "sp95": 1.829,
        "gazole": 1.919
      }
    },
    {
      "id": "42497",
      "cp": "",
      "ville": "Eboli",
      "adresse": "18 Tirrena inferiore, km. 84,100, Nord - 84025",
      "brand": "Api-Ip",
      "lat": 40.5223793413774,
      "lng": 15.003377348184586,
      "fuels": {
        "sp95": 1.809,
        "gazole": 1.909
      }
    },
    {
      "id": "52114",
      "cp": "",
      "ville": "Eboli",
      "adresse": "18 Tirrena inferiore, km. 85+300,  - 84025",
      "brand": "Pompe Bianche",
      "lat": 40.51368943336155,
      "lng": 15.009953306945789,
      "fuels": {
        "sp95": 1.814,
        "gazole": 1.909,
        "gplc": 0.749
      }
    },
    {
      "id": "41014",
      "cp": "",
      "ville": "Eboli",
      "adresse": "Strada Provinciale 312 Snc 84025",
      "brand": "Pompe Bianche",
      "lat": 40.57205960654801,
      "lng": 14.947459325194359,
      "fuels": {
        "sp95": 1.879,
        "gazole": 1.969,
        "gplc": 0.889
      }
    },
    {
      "id": "23656",
      "cp": "",
      "ville": "Eboli",
      "adresse": "Via Bosco Ii Snc 84025",
      "brand": "Pompe Bianche",
      "lat": 40.588106902056005,
      "lng": 15.00332236289978,
      "fuels": {
        "sp95": 1.78,
        "gazole": 1.88,
        "e85": 1.399
      }
    },
    {
      "id": "39477",
      "cp": "",
      "ville": "Eboli",
      "adresse": "Via Circumvallazione Snc 84025",
      "brand": "Pompe Bianche",
      "lat": 40.61225716344907,
      "lng": 15.058320388197899,
      "fuels": {
        "sp95": 1.879,
        "gazole": 1.969
      }
    },
    {
      "id": "9462",
      "cp": "",
      "ville": "Eboli",
      "adresse": "Via s. Giovanni 32  84025",
      "brand": "Agip Eni",
      "lat": 40.6121723,
      "lng": 15.0499423,
      "fuels": {
        "sp95": 1.814,
        "gazole": 1.909
      }
    },
    {
      "id": "59931",
      "cp": "",
      "ville": "Eboli",
      "adresse": "Via s. Vito Martire 31 84025",
      "brand": "Pompe Bianche",
      "lat": 40.60333008278386,
      "lng": 14.882250634374987,
      "fuels": {
        "sp95": 1.839,
        "gazole": 1.939
      }
    },
    {
      "id": "22951",
      "cp": "",
      "ville": "Eboli",
      "adresse": "Via San Vito Martire  84025",
      "brand": "Esso",
      "lat": 40.608187588374705,
      "lng": 15.047560036182404,
      "fuels": {
        "sp95": 1.839,
        "gazole": 1.959
      }
    },
    {
      "id": "9666",
      "cp": "",
      "ville": "Eboli",
      "adresse": "Via sp.30 Loc Cornito Snc 84025, Eboli (sa)  84025",
      "brand": "Pompe Bianche",
      "lat": 40.52883740924297,
      "lng": 15.009502172470093,
      "fuels": {
        "sp95": 1.799,
        "gazole": 1.889,
        "gplc": 0.755
      }
    },
    {
      "id": "59103",
      "cp": "",
      "ville": "Felitto",
      "adresse": "Ss 488 Km 34+959 Snc 84055",
      "brand": "Tamoil",
      "lat": 40.38322232038781,
      "lng": 15.232807768786607,
      "fuels": {
        "sp95": 1.799,
        "gazole": 1.889
      }
    },
    {
      "id": "4363",
      "cp": "",
      "ville": "Fisciano",
      "adresse": "Statale 88 Dei Due principati, km. 10,500, dir. Salerno - 84084",
      "brand": "Api-Ip",
      "lat": 40.760558399137096,
      "lng": 14.775000558370607,
      "fuels": {
        "sp95": 1.889,
        "gazole": 1.979
      }
    },
    {
      "id": "27362",
      "cp": "",
      "ville": "Fisciano",
      "adresse": "Statale 88 Dei Due principati, km. 12+400, dir. Salerno - 84084",
      "brand": "q8",
      "lat": 40.77498096602795,
      "lng": 14.768837487622022,
      "fuels": {
        "sp95": 1.899,
        "gazole": 1.979
      }
    },
    {
      "id": "62874",
      "cp": "",
      "ville": "Fisciano",
      "adresse": "Via cav.v.d'Auria (sa)  84083",
      "brand": "Api-Ip",
      "lat": 40.775893288379294,
      "lng": 14.691726651821154,
      "fuels": {
        "sp95": 1.879,
        "gazole": 1.979,
        "e85": 1.399,
        "gplc": 0.779
      }
    },
    {
      "id": "62870",
      "cp": "",
      "ville": "Fisciano",
      "adresse": "Via g. Paolo Ii 79  84084",
      "brand": "Api-Ip",
      "lat": 40.7771327,
      "lng": 14.7873046,
      "fuels": {
        "sp95": 1.889,
        "gazole": 1.979,
        "e85": 1.599
      }
    },
    {
      "id": "44418",
      "cp": "",
      "ville": "Fisciano",
      "adresse": "Via Giovanni Paolo Ii 5 84084",
      "brand": "Esso",
      "lat": 40.780738000123,
      "lng": 14.767337000123,
      "fuels": {
        "sp95": 1.899,
        "gazole": 1.939
      }
    },
    {
      "id": "38034",
      "cp": "",
      "ville": "Fisciano",
      "adresse": "Via Prignano 97 84084",
      "brand": "Api-Ip",
      "lat": 40.801749651090155,
      "lng": 14.768231794232634,
      "fuels": {
        "sp95": 1.889,
        "gazole": 1.979,
        "gplc": 0.779
      }
    },
    {
      "id": "46547",
      "cp": "",
      "ville": "Giffoni Sei Casali",
      "adresse": "s.p. n.25 Snc 84090",
      "brand": "Tamoil",
      "lat": 40.693086333685834,
      "lng": 14.894077935582004,
      "fuels": {
        "sp95": 1.849,
        "gazole": 1.919
      }
    },
    {
      "id": "27109",
      "cp": "",
      "ville": "Giffoni Sei Casali",
      "adresse": "Via Galaffi  22 84090",
      "brand": "Pompe Bianche",
      "lat": 40.72573617344987,
      "lng": 14.892867872526153,
      "fuels": {
        "sp95": 1.859,
        "gazole": 1.879
      }
    },
    {
      "id": "17409",
      "cp": "",
      "ville": "Giffoni Sei Casali",
      "adresse": "Via Sant'Anna  84090",
      "brand": "Api-Ip",
      "lat": 40.7185862,
      "lng": 14.9077026,
      "fuels": {
        "sp95": 1.869,
        "gazole": 1.959
      }
    },
    {
      "id": "61032",
      "cp": "",
      "ville": "Giffoni Valle Piana",
      "adresse": "Francesco Spirito 34 84095",
      "brand": "Pompe Bianche",
      "lat": 40.71336521573253,
      "lng": 14.94001578713723,
      "fuels": {
        "sp95": 1.839,
        "gazole": 1.929
      }
    },
    {
      "id": "38792",
      "cp": "",
      "ville": "Giffoni Valle Piana",
      "adresse": "Via g. Andria 26 84095",
      "brand": "Pompe Bianche",
      "lat": 40.71524740954829,
      "lng": 14.94380347430706,
      "fuels": {
        "sp95": 1.877,
        "gazole": 1.908
      }
    },
    {
      "id": "59772",
      "cp": "",
      "ville": "Giffoni Valle Piana",
      "adresse": "Via Valentino Fortunato Snc 84095",
      "brand": "Agip Eni",
      "lat": 40.70200858943694,
      "lng": 14.91480600772109,
      "fuels": {
        "sp95": 1.819,
        "gazole": 1.894,
        "gplc": 0.799
      }
    },
    {
      "id": "53190",
      "cp": "",
      "ville": "Gioi",
      "adresse": "Provinciale 47 84056",
      "brand": "Economy",
      "lat": 40.2685952,
      "lng": 15.0536192,
      "fuels": {
        "sp95": 1.869,
        "gazole": 1.969
      }
    },
    {
      "id": "52420",
      "cp": "",
      "ville": "Laurino",
      "adresse": "Provinciale Sala Consilina Snc 84057",
      "brand": "Api-Ip",
      "lat": 40.339793749467184,
      "lng": 15.339108109474182,
      "fuels": {
        "sp95": 1.899,
        "gazole": 1.999
      }
    },
    {
      "id": "49505",
      "cp": "",
      "ville": "Lustra",
      "adresse": "18 Tirrena inferiore, km. 1 + 980, Lato Dx Agropoli  84050",
      "brand": "Pompe Bianche",
      "lat": 40.2662809901432,
      "lng": 15.128013629450354,
      "fuels": {
        "sp95": 1.889,
        "gazole": 1.959
      }
    },
    {
      "id": "48629",
      "cp": "",
      "ville": "Lustra",
      "adresse": "s.s. 18 Variante Km 121+625 Sx Snc 84050",
      "brand": "Tamoil",
      "lat": 40.265484659404066,
      "lng": 15.128471418385313,
      "fuels": {
        "sp95": 1.829,
        "gazole": 1.899
      }
    },
    {
      "id": "14358",
      "cp": "",
      "ville": "Maiori",
      "adresse": "s.p. 2 - km.2+180  - Localita' Vecite  84010",
      "brand": "Agip Eni",
      "lat": 40.66631271451353,
      "lng": 14.644361053938837,
      "fuels": {
        "sp95": 1.829,
        "gazole": 1.909
      }
    },
    {
      "id": "48958",
      "cp": "",
      "ville": "Mercato San Severino",
      "adresse": "prov. Camerelle - s.p. 4 Km 7+600 84085",
      "brand": "Agip Eni",
      "lat": 40.77468298383955,
      "lng": 14.737511377943573,
      "fuels": {
        "sp95": 1.829,
        "gazole": 1.909
      }
    },
    {
      "id": "57136",
      "cp": "",
      "ville": "Mercato San Severino",
      "adresse": "Ss  88 Km 14+550 Snc 84085",
      "brand": "Esso",
      "lat": 40.79164699126939,
      "lng": 14.759110903702489,
      "fuels": {
        "sp95": 1.939,
        "gazole": 1.999
      }
    },
    {
      "id": "63294",
      "cp": "",
      "ville": "Mercato San Severino",
      "adresse": "Ss 88 Km 14+550 Snc  84085",
      "brand": "Esso",
      "lat": 40.79167145537421,
      "lng": 14.759110391787717,
      "fuels": {
        "sp95": 1.829,
        "gazole": 1.919
      }
    },
    {
      "id": "9630",
      "cp": "",
      "ville": "Mercato San Severino",
      "adresse": "Strada Provinciale Codola s.n.c. 84085",
      "brand": "Ies",
      "lat": 40.77876711432966,
      "lng": 14.73268747329712,
      "fuels": {
        "sp95": 1.899,
        "gazole": 1.949,
        "e85": 1.459
      }
    },
    {
      "id": "10136",
      "cp": "",
      "ville": "Mercato San Severino",
      "adresse": "Strada Provinciale Numero 4  84085",
      "brand": "Api-Ip",
      "lat": 40.7820074016377,
      "lng": 14.754300713539124,
      "fuels": {
        "sp95": 1.919,
        "gazole": 1.959
      }
    },
    {
      "id": "45401",
      "cp": "",
      "ville": "Mercato San Severino",
      "adresse": "Variante 4 84085",
      "brand": "Pompe Bianche",
      "lat": 40.7690954490153,
      "lng": 14.706609567667329,
      "fuels": {
        "sp95": 1.849,
        "gazole": 1.919
      }
    },
    {
      "id": "61468",
      "cp": "",
      "ville": "Mercato San Severino",
      "adresse": "Via Macello 3 84085",
      "brand": "Pompe Bianche",
      "lat": 40.78035660932374,
      "lng": 14.752388632679757,
      "fuels": {
        "sp95": 1.879,
        "gazole": 1.929
      }
    },
    {
      "id": "32989",
      "cp": "",
      "ville": "Mercato San Severino",
      "adresse": "Via Molino Del Pagano Snc 84085",
      "brand": "Beneco",
      "lat": 40.778750042079935,
      "lng": 14.746865495404336,
      "fuels": {
        "sp95": 1.855,
        "gazole": 1.915,
        "gplc": 0.765
      }
    },
    {
      "id": "4246",
      "cp": "",
      "ville": "Mercato San Severino",
      "adresse": "Via Spiano Curteri Snc  84085",
      "brand": "Api-Ip",
      "lat": 40.774974595297074,
      "lng": 14.749284982681274,
      "fuels": {
        "sp95": 1.976,
        "gazole": 2.016,
        "e85": 1.499,
        "gplc": 0.869
      }
    },
    {
      "id": "28792",
      "cp": "",
      "ville": "Mercato San Severino",
      "adresse": "Via Variante 2 84085",
      "brand": "Pompe Bianche",
      "lat": 40.76933091322356,
      "lng": 14.706541299819946,
      "fuels": {
        "sp95": 1.849,
        "gazole": 1.919
      }
    },
    {
      "id": "58952",
      "cp": "",
      "ville": "Montano Antilia",
      "adresse": "Frazione Abate Marco -  Località Traverse  Snc  84060",
      "brand": "357",
      "lat": 40.14538541777168,
      "lng": 15.34895639281617,
      "fuels": {
        "sp95": 1.889,
        "gazole": 1.989
      }
    },
    {
      "id": "45460",
      "cp": "",
      "ville": "Montecorice",
      "adresse": "267 Del cilento, km. 82-400, Sud - 84060",
      "brand": "Pompe Bianche",
      "lat": 40.218151,
      "lng": 14.994033,
      "fuels": {
        "sp95": 1.876,
        "gazole": 1.989
      }
    },
    {
      "id": "40254",
      "cp": "",
      "ville": "Montecorvino Pugliano",
      "adresse": "Viale Della repub.-ss18 km70+8 119/C 84090",
      "brand": "Api-Ip",
      "lat": 40.6231207740871,
      "lng": 14.93454784154892,
      "fuels": {
        "sp95": 1.839,
        "gazole": 1.919
      }
    },
    {
      "id": "51180",
      "cp": "",
      "ville": "Montecorvino Rovella",
      "adresse": "s.p. 28 Localita' Mangiarelli Snc 84096",
      "brand": "Pompe Bianche",
      "lat": 40.70162733246313,
      "lng": 14.970119123369985,
      "fuels": {
        "sp95": 1.869,
        "gazole": 1.969,
        "gplc": 0.799
      }
    },
    {
      "id": "42180",
      "cp": "",
      "ville": "Montecorvino Rovella",
      "adresse": "Strada statale, km. 164, Salerno - 84096",
      "brand": "Italia Carburanti",
      "lat": 40.648066619517735,
      "lng": 14.975698378470955,
      "fuels": {
        "sp95": 1.888,
        "gazole": 1.918,
        "gplc": 0.728
      }
    },
    {
      "id": "32178",
      "cp": "",
      "ville": "Montesano Sulla Marcellana",
      "adresse": "Via Mazziotto n.60 84033",
      "brand": "Pompe Bianche",
      "lat": 40.248651450106564,
      "lng": 15.758747120208682,
      "fuels": {
        "sp95": 1.89,
        "gazole": 1.91
      }
    },
    {
      "id": "32271",
      "cp": "",
      "ville": "Nocera Inferiore",
      "adresse": "Atzori 145/147 84014",
      "brand": "Esso",
      "lat": 40.74096041530166,
      "lng": 14.646588563919067,
      "fuels": {
        "sp95": 1.819,
        "gazole": 1.899
      }
    },
    {
      "id": "63363",
      "cp": "",
      "ville": "Nocera Inferiore",
      "adresse": "n.b. Grimaldi 76 84014",
      "brand": "Up",
      "lat": 40.744870416750295,
      "lng": 14.629957692546299,
      "fuels": {
        "sp95": 1.729,
        "gazole": 1.799
      }
    },
    {
      "id": "54673",
      "cp": "",
      "ville": "Nocera Inferiore",
      "adresse": "s.anna 96 84014",
      "brand": "Tamoil",
      "lat": 40.7527129,
      "lng": 14.6471336,
      "fuels": {
        "sp95": 1.829,
        "gazole": 1.899
      }
    },
    {
      "id": "53223",
      "cp": "",
      "ville": "Nocera Inferiore",
      "adresse": "Variante ss.266 Nocerina 12 84014",
      "brand": "Esso",
      "lat": 40.767497791603965,
      "lng": 14.654372334480286,
      "fuels": {
        "sp95": 1.899,
        "gazole": 1.999,
        "e85": 1.495,
        "gplc": 0.799
      }
    },
    {
      "id": "21864",
      "cp": "",
      "ville": "Nocera Inferiore",
      "adresse": "Via Fiano 102 84014",
      "brand": "Tamoil",
      "lat": 40.77310100446204,
      "lng": 14.646015912294388,
      "fuels": {
        "sp95": 1.919,
        "gazole": 1.999
      }
    },
    {
      "id": "45771",
      "cp": "",
      "ville": "Nocera Inferiore",
      "adresse": "Via Giovanni Falcone 23 84014",
      "brand": "Api-Ip",
      "lat": 40.75002182561649,
      "lng": 14.649439193096782,
      "fuels": {
        "sp95": 1.799,
        "gazole": 1.869
      }
    },
    {
      "id": "58654",
      "cp": "",
      "ville": "Nocera Inferiore",
      "adresse": "Via Giovanni Falcone 94  84014",
      "brand": "Pompe Bianche",
      "lat": 40.75329746043246,
      "lng": 14.649768996711714,
      "fuels": {
        "sp95": 1.919,
        "gazole": 1.969
      }
    },
    {
      "id": "61916",
      "cp": "",
      "ville": "Nocera Inferiore",
      "adresse": "Via Giuseppe Atzori 271 84014",
      "brand": "Pompe Bianche",
      "lat": 40.740609,
      "lng": 14.635356,
      "fuels": {
        "sp95": 1.999,
        "gazole": 1.817
      }
    },
    {
      "id": "58769",
      "cp": "",
      "ville": "Nocera Inferiore",
      "adresse": "Via Isaia Gabola Snc 84014",
      "brand": "Pompe Bianche",
      "lat": 40.7699456,
      "lng": 14.6702336,
      "fuels": {
        "sp95": 1.759,
        "gazole": 1.829
      }
    },
    {
      "id": "28646",
      "cp": "",
      "ville": "Nocera Inferiore",
      "adresse": "Via Napoli 112 84014",
      "brand": "Api-Ip",
      "lat": 40.74702307557616,
      "lng": 14.63225819170475,
      "fuels": {
        "sp95": 1.779,
        "gazole": 1.829
      }
    },
    {
      "id": "52606",
      "cp": "",
      "ville": "Nocera Inferiore",
      "adresse": "Via Padula 36 84014",
      "brand": "q8",
      "lat": 40.773478741420114,
      "lng": 14.61566999727784,
      "fuels": {
        "sp95": 1.799,
        "gazole": 1.879,
        "e85": 1.495,
        "gplc": 0.795
      }
    },
    {
      "id": "24952",
      "cp": "",
      "ville": "Nocera Inferiore",
      "adresse": "Via Petrarca  84014",
      "brand": "Pompe Bianche",
      "lat": 40.7638074245025,
      "lng": 14.653138518333435,
      "fuels": {
        "sp95": 1.879,
        "gazole": 1.969,
        "e85": 1.495,
        "gplc": 0.775
      }
    },
    {
      "id": "28525",
      "cp": "",
      "ville": "Nocera Inferiore",
      "adresse": "Via Petrarca 45 84014",
      "brand": "Api-Ip",
      "lat": 40.76252714468493,
      "lng": 14.65238481760025,
      "fuels": {
        "sp95": 1.929,
        "gazole": 1.999
      }
    },
    {
      "id": "28788",
      "cp": "",
      "ville": "Nocera Inferiore",
      "adresse": "Via Provinciale Nocera-Sarno 136 84014",
      "brand": "Pompe Bianche",
      "lat": 40.7744819874325,
      "lng": 14.626154344844053,
      "fuels": {
        "sp95": 1.889,
        "gazole": 1.899
      }
    },
    {
      "id": "46430",
      "cp": "",
      "ville": "Nocera Inferiore",
      "adresse": "Via Via n.b.grimaldi Snc 84014, Nocera Inferiore (sa) 23 84014",
      "brand": "Up",
      "lat": 40.7434272975674,
      "lng": 14.648674726486206,
      "fuels": {
        "sp95": 1.799,
        "gazole": 1.859
      }
    },
    {
      "id": "58309",
      "cp": "",
      "ville": "Nocera Inferiore",
      "adresse": "Viale s. Francesco D'Assisi 3 84014",
      "brand": "Up",
      "lat": 40.74576781473316,
      "lng": 14.654245066453568,
      "fuels": {
        "sp95": 1.759,
        "gazole": 1.819
      }
    },
    {
      "id": "58410",
      "cp": "",
      "ville": "Nocera Inferiore",
      "adresse": "Villanova Snc 84014",
      "brand": "Pompe Bianche",
      "lat": 40.75882634330973,
      "lng": 14.640568345785141,
      "fuels": {
        "sp95": 1.859,
        "gazole": 1.949
      }
    },
    {
      "id": "52750",
      "cp": "",
      "ville": "Nocera Superiore",
      "adresse": "Autostrada a3 Napoli-salerno,  km. 40, dir. Napoli 84015",
      "brand": "Esso",
      "lat": 40.733470700852415,
      "lng": 14.679803097275563,
      "fuels": {
        "sp95": 2.059,
        "gazole": 2.179
      }
    },
    {
      "id": "58462",
      "cp": "",
      "ville": "Nocera Superiore",
      "adresse": "Autostrada a3 Napoli-salerno,  km. 40.1, dir. Sud 84015",
      "brand": "Esso",
      "lat": 40.732869947969625,
      "lng": 14.67874311456268,
      "fuels": {
        "sp95": 2.059,
        "gazole": 2.179
      }
    },
    {
      "id": "52537",
      "cp": "",
      "ville": "Nocera Superiore",
      "adresse": "s.s. 18 Km 40+823, Snc - 84015",
      "brand": "Pompe Bianche",
      "lat": 40.737788279190305,
      "lng": 14.675297149691652,
      "fuels": {
        "sp95": 1.879,
        "gazole": 1.929,
        "gplc": 0.775
      }
    },
    {
      "id": "53988",
      "cp": "",
      "ville": "Nocera Superiore",
      "adresse": "Via Della Libertà- fraz. Pecorari  73 84015",
      "brand": "Pompe Bianche",
      "lat": 40.7699456,
      "lng": 14.6735104,
      "fuels": {
        "sp95": 1.819,
        "gazole": 1.919
      }
    },
    {
      "id": "43012",
      "cp": "",
      "ville": "Nocera Superiore",
      "adresse": "Via Federico Ricco Snc 84015",
      "brand": "Api-Ip",
      "lat": 40.75216493623717,
      "lng": 14.687774399388308,
      "fuels": {
        "sp95": 1.855,
        "gazole": 1.955
      }
    },
    {
      "id": "45926",
      "cp": "",
      "ville": "Nocera Superiore",
      "adresse": "Via Giuseppe Garibaldi 115 84015",
      "brand": "Pompe Bianche",
      "lat": 40.74781258872445,
      "lng": 14.672136055857777,
      "fuels": {
        "sp95": 1.819,
        "gazole": 1.879,
        "gplc": 0.729
      }
    },
    {
      "id": "9326",
      "cp": "",
      "ville": "Nocera Superiore",
      "adresse": "Via Nazionale  84015",
      "brand": "Agip Eni",
      "lat": 40.73364014552279,
      "lng": 14.685555696487427,
      "fuels": {
        "sp95": 1.829,
        "gazole": 1.899
      }
    },
    {
      "id": "52363",
      "cp": "",
      "ville": "Nocera Superiore",
      "adresse": "Via Portaromana Snc 84015, Nocera Superiore (sa)  84015",
      "brand": "Pompe Bianche",
      "lat": 40.74599556666164,
      "lng": 14.663699012746779,
      "fuels": {
        "sp95": 1.789,
        "gazole": 1.819
      }
    },
    {
      "id": "58870",
      "cp": "",
      "ville": "Nocera Superiore",
      "adresse": "Via s. Maria Delle Grazie 140 84015",
      "brand": "Pompe Bianche",
      "lat": 40.752894447603005,
      "lng": 14.66926394127809,
      "fuels": {
        "sp95": 1.819,
        "gazole": 1.899,
        "e85": 1.385,
        "gplc": 0.729
      }
    },
    {
      "id": "55605",
      "cp": "",
      "ville": "Nocera Superiore",
      "adresse": "Vincenzo Russo Snc 84015",
      "brand": "Pompe Bianche",
      "lat": 40.742301467349535,
      "lng": 14.676232738189702,
      "fuels": {
        "sp95": 1.879,
        "gazole": 1.969
      }
    },
    {
      "id": "54561",
      "cp": "",
      "ville": "Olevano Sul Tusciano",
      "adresse": "Festola 138 84062",
      "brand": "Fstation",
      "lat": 40.6423187,
      "lng": 15.0078416,
      "fuels": {
        "sp95": 1.879,
        "gazole": 1.959
      }
    },
    {
      "id": "55121",
      "cp": "",
      "ville": "Olevano Sul Tusciano",
      "adresse": "Festola 60 84062",
      "brand": "Pompe Bianche",
      "lat": 40.6372729,
      "lng": 15.0020729,
      "fuels": {
        "sp95": 1.899,
        "gazole": 1.939,
        "gplc": 0.899
      }
    },
    {
      "id": "51729",
      "cp": "",
      "ville": "Olevano Sul Tusciano",
      "adresse": "Via Frosano 116 84062",
      "brand": "Pompe Bianche",
      "lat": 40.6566903574174,
      "lng": 15.000556994539318,
      "fuels": {
        "sp95": 1.818,
        "gazole": 1.838,
        "gplc": 0.728
      }
    },
    {
      "id": "26201",
      "cp": "",
      "ville": "Oliveto Citra",
      "adresse": "Via f.cavallotti 32 84020",
      "brand": "Pompe Bianche",
      "lat": 40.689700483068805,
      "lng": 15.229715178464062,
      "fuels": {
        "sp95": 1.9,
        "gazole": 1.94
      }
    },
    {
      "id": "26291",
      "cp": "",
      "ville": "Oliveto Citra",
      "adresse": "Via Isca 12 84020",
      "brand": "Pompe Bianche",
      "lat": 40.701182989663685,
      "lng": 15.23356318473816,
      "fuels": {
        "sp95": 1.9,
        "gazole": 1.94,
        "gplc": 0.75
      }
    },
    {
      "id": "8284",
      "cp": "",
      "ville": "Omignano",
      "adresse": "Statale 18 Tirrena inferiore, km. 128+693, dir. Reggio Calabria  84060",
      "brand": "Esso",
      "lat": 40.25781692459535,
      "lng": 15.131264414827797,
      "fuels": {
        "sp95": 1.799,
        "gazole": 1.879
      }
    },
    {
      "id": "47454",
      "cp": "",
      "ville": "Padula",
      "adresse": "s.s. 19 Km 86+200  84034",
      "brand": "Agip Eni",
      "lat": 40.28956805584389,
      "lng": 15.651562585628218,
      "fuels": {
        "sp95": 1.829,
        "gazole": 1.889
      }
    },
    {
      "id": "38410",
      "cp": "",
      "ville": "Padula",
      "adresse": "Statale 19 Delle calabrie, km. 88, dir. Lagonegro - 84034",
      "brand": "Esso",
      "lat": 40.29980715822243,
      "lng": 15.643746703863144,
      "fuels": {
        "sp95": 1.799,
        "gazole": 1.889
      }
    },
    {
      "id": "30896",
      "cp": "",
      "ville": "Padula",
      "adresse": "Statale 517 bussentina, km. 1+665, dir. Padula - 84034",
      "brand": "q8",
      "lat": 40.28823661874004,
      "lng": 15.640085234605749,
      "fuels": {
        "sp95": 1.849,
        "gazole": 1.949,
        "e85": 1.479,
        "gplc": 0.849
      }
    },
    {
      "id": "62626",
      "cp": "",
      "ville": "Padula",
      "adresse": "Via Camerelle 12  84039",
      "brand": "Pompe Bianche",
      "lat": 40.329187,
      "lng": 15.626564,
      "fuels": {
        "gplc": 0.739
      }
    },
    {
      "id": "62627",
      "cp": "",
      "ville": "Padula",
      "adresse": "Via Nazionale s.s.19 km.81+130 Snc 84034",
      "brand": "Pompe Bianche",
      "lat": 40.329301,
      "lng": 15.62589,
      "fuels": {
        "sp95": 1.799,
        "gazole": 1.879
      }
    },
    {
      "id": "41077",
      "cp": "",
      "ville": "Padula",
      "adresse": "Via Nazionale Snc 84034",
      "brand": "Pompe Bianche",
      "lat": 40.33261700788541,
      "lng": 15.624786168336868,
      "fuels": {
        "sp95": 1.869,
        "gazole": 1.909
      }
    },
    {
      "id": "46578",
      "cp": "",
      "ville": "Padula",
      "adresse": "Via Provinciale 51/b, c.da Starze  84034",
      "brand": "Api-Ip",
      "lat": 40.33651005994621,
      "lng": 15.62810376062,
      "fuels": {
        "sp95": 1.849,
        "gazole": 1.899,
        "gplc": 0.739
      }
    },
    {
      "id": "54256",
      "cp": "",
      "ville": "Pagani",
      "adresse": "c. Tramontano Snc 84016",
      "brand": "Pompe Bianche",
      "lat": 40.73825401543668,
      "lng": 14.617201032197924,
      "fuels": {
        "sp95": 1.744,
        "gazole": 1.819
      }
    },
    {
      "id": "60075",
      "cp": "",
      "ville": "Pagani",
      "adresse": "Carlo Tramontano 3/3bis 84016",
      "brand": "Esso",
      "lat": 40.7402426,
      "lng": 14.6241045,
      "fuels": {
        "sp95": 1.839,
        "gazole": 1.899,
        "gplc": 0.769
      }
    },
    {
      "id": "6737",
      "cp": "",
      "ville": "Pagani",
      "adresse": "ss. 18 km. 36+450 loc.s.chiara Snc pagani, Sa 84016",
      "brand": "q8",
      "lat": 40.743004191407564,
      "lng": 14.627369150530285,
      "fuels": {
        "sp95": 1.799,
        "gazole": 1.859
      }
    },
    {
      "id": "32396",
      "cp": "",
      "ville": "Pagani",
      "adresse": "Via Alcide De Gasperi 340 84016",
      "brand": "Conad",
      "lat": 40.74986271798383,
      "lng": 14.59837898998262,
      "fuels": {
        "sp95": 1.749,
        "gazole": 1.829
      }
    },
    {
      "id": "49857",
      "cp": "",
      "ville": "Pagani",
      "adresse": "Via Filettine 118 84016",
      "brand": "Pompe Bianche",
      "lat": 40.755019758641126,
      "lng": 14.608788183872585,
      "fuels": {
        "sp95": 1.749,
        "gazole": 1.819
      }
    },
    {
      "id": "28298",
      "cp": "",
      "ville": "Pagani",
      "adresse": "Via Mangioni 1 84016",
      "brand": "q8",
      "lat": 40.75153343863095,
      "lng": 14.619114696979523,
      "fuels": {
        "sp95": 1.885,
        "gazole": 1.965
      }
    },
    {
      "id": "50444",
      "cp": "",
      "ville": "Pagani",
      "adresse": "Via Nazionale 27 84016",
      "brand": "Esso",
      "lat": 40.74334472636938,
      "lng": 14.625697267327084,
      "fuels": {
        "sp95": 1.809,
        "gazole": 1.879
      }
    },
    {
      "id": "18901",
      "cp": "",
      "ville": "Pagani",
      "adresse": "Via Olivella  6 84016",
      "brand": "q8",
      "lat": 40.74704017765911,
      "lng": 14.62159879929493,
      "fuels": {
        "sp95": 1.805,
        "gazole": 1.869
      }
    },
    {
      "id": "20971",
      "cp": "",
      "ville": "Pagani",
      "adresse": "Via Padre Vincenzo Sorrentino Snc 84016",
      "brand": "Agip Eni",
      "lat": 40.7535128869219,
      "lng": 14.61111232638359,
      "fuels": {
        "sp95": 1.824,
        "gazole": 1.904
      }
    },
    {
      "id": "43054",
      "cp": "",
      "ville": "Pagani",
      "adresse": "Via San Domenico 98 84016",
      "brand": "q8",
      "lat": 40.74152181786024,
      "lng": 14.60260385959782,
      "fuels": {
        "sp95": 1.999,
        "gazole": 1.999
      }
    },
    {
      "id": "50920",
      "cp": "",
      "ville": "Pagani",
      "adresse": "Via Taurano 123 84016",
      "brand": "Pompe Bianche",
      "lat": 40.75241567036497,
      "lng": 14.598368931985153,
      "fuels": {
        "sp95": 1.829,
        "gazole": 1.849,
        "gplc": 0.769
      }
    },
    {
      "id": "5643",
      "cp": "",
      "ville": "Pagani",
      "adresse": "Via Taurano 128 84016",
      "brand": "Agip Eni",
      "lat": 40.755152155426124,
      "lng": 14.592188000679016,
      "fuels": {
        "sp95": 1.824,
        "gazole": 1.884,
        "e85": 1.469,
        "gplc": 0.769
      }
    },
    {
      "id": "25803",
      "cp": "",
      "ville": "Palomonte",
      "adresse": "Via Via Tempa Gaudiana Snc 84020, Palomonte (sa) 8 84020",
      "brand": "Api-Ip",
      "lat": 40.63991901538098,
      "lng": 15.297021455929325,
      "fuels": {
        "sp95": 1.899,
        "gazole": 1.959
      }
    },
    {
      "id": "31426",
      "cp": "",
      "ville": "Pellezzano",
      "adresse": "Sp 27 Fratte Pellezzano Km 0+333",
      "brand": "Tamoil",
      "lat": 40.6975783153766,
      "lng": 14.773820921018341,
      "fuels": {
        "sp95": 1.829,
        "gazole": 1.919
      }
    },
    {
      "id": "43936",
      "cp": "",
      "ville": "Perdifumo",
      "adresse": "Strada Regionale Ex 267 Snc 84060",
      "brand": "Api-Ip",
      "lat": 40.30274735195413,
      "lng": 14.985095682209021,
      "fuels": {
        "sp95": 1.759,
        "gazole": 1.859
      }
    },
    {
      "id": "42630",
      "cp": "",
      "ville": "Perdifumo",
      "adresse": "Via Castagnone  84060",
      "brand": "Esso",
      "lat": 40.267658647517315,
      "lng": 15.04196307319944,
      "fuels": {
        "sp95": 1.899,
        "gazole": 1.989
      }
    },
    {
      "id": "58652",
      "cp": "",
      "ville": "Piaggine",
      "adresse": "Madonna Delle Grazie Snc 84065",
      "brand": "Pompe Bianche",
      "lat": 40.34986695266896,
      "lng": 15.374169544116224,
      "fuels": {
        "sp95": 1.849,
        "gazole": 1.949
      }
    },
    {
      "id": "43849",
      "cp": "",
      "ville": "Polla",
      "adresse": "Contrada Sant'Antuono - z.i. 8 84035",
      "brand": "Pompe Bianche",
      "lat": 40.488185059890434,
      "lng": 15.526597000000038,
      "fuels": {
        "sp95": 1.879,
        "gazole": 1.959
      }
    },
    {
      "id": "21916",
      "cp": "",
      "ville": "Polla",
      "adresse": "Statale 19 Delle calabrie, km. 104, dir. Salerno - 84035",
      "brand": "Agip Eni",
      "lat": 40.52378323930956,
      "lng": 15.495824470687808,
      "fuels": {
        "sp95": 1.829,
        "gazole": 1.909
      }
    },
    {
      "id": "57129",
      "cp": "",
      "ville": "Polla",
      "adresse": "Strada Statale 19 Delle Calabrie Km 57+413 Snc 84035",
      "brand": "Pompe Bianche",
      "lat": 40.50424800233883,
      "lng": 15.520565244580098,
      "fuels": {
        "sp95": 1.977,
        "gazole": 1.999,
        "gplc": 0.899
      }
    },
    {
      "id": "9224",
      "cp": "",
      "ville": "Pollica",
      "adresse": "Via Nazionale Del Cilento 267 Snc 84068",
      "brand": "Api-Ip",
      "lat": 40.188349824615955,
      "lng": 15.024350058802838,
      "fuels": {
        "sp95": 1.879,
        "gazole": 1.969
      }
    },
    {
      "id": "26508",
      "cp": "",
      "ville": "Pontecagnano Faiano",
      "adresse": "Corso Italia 114 84098",
      "brand": "Pompe Bianche",
      "lat": 40.640805565539054,
      "lng": 14.883297225894921,
      "fuels": {
        "sp95": 1.818,
        "gazole": 1.898
      }
    },
    {
      "id": "6736",
      "cp": "",
      "ville": "Pontecagnano Faiano",
      "adresse": "Corso Italia 80 imp. q8 Snc 84098",
      "brand": "q8",
      "lat": 40.64319558167595,
      "lng": 14.878392877646888,
      "fuels": {
        "sp95": 1.808,
        "gazole": 1.888
      }
    },
    {
      "id": "55903",
      "cp": "",
      "ville": "Pontecagnano Faiano",
      "adresse": "Dei Navigatori 48 84098",
      "brand": "Esso",
      "lat": 40.601612540591304,
      "lng": 14.86502230167389,
      "fuels": {
        "sp95": 1.809,
        "gazole": 1.879
      }
    },
    {
      "id": "60901",
      "cp": "",
      "ville": "Pontecagnano Faiano",
      "adresse": "Provinciale 417 Snc 84098",
      "brand": "Esso",
      "lat": 40.61306,
      "lng": 14.87451,
      "fuels": {
        "sp95": 1.799,
        "gazole": 1.889
      }
    },
    {
      "id": "53167",
      "cp": "",
      "ville": "Pontecagnano Faiano",
      "adresse": "Provinciale Aversana Snc 84098",
      "brand": "Api-Ip",
      "lat": 40.62921381410255,
      "lng": 14.862534972793686,
      "fuels": {
        "sp95": 1.856,
        "gazole": 1.956,
        "gplc": 0.776
      }
    },
    {
      "id": "5159",
      "cp": "",
      "ville": "Pontecagnano Faiano",
      "adresse": "Statale 18 Tirrena inferiore, km. 66, dir. Sud - 84098",
      "brand": "Pompe Bianche",
      "lat": 40.629541033974085,
      "lng": 14.90969181060791,
      "fuels": {
        "sp95": 1.829,
        "gazole": 1.909,
        "gplc": 0.759
      }
    },
    {
      "id": "28288",
      "cp": "",
      "ville": "Pontecagnano Faiano",
      "adresse": "Strada Statale 18 Km 67 + 117  84098",
      "brand": "Api-Ip",
      "lat": 40.63121690970982,
      "lng": 14.905316858049673,
      "fuels": {
        "sp95": 1.819,
        "gazole": 1.899
      }
    },
    {
      "id": "61288",
      "cp": "",
      "ville": "Pontecagnano Faiano",
      "adresse": "Via Europa  84098",
      "brand": "Pompe Bianche",
      "lat": 40.64368101726916,
      "lng": 14.873549044132192,
      "fuels": {
        "sp95": 1.845,
        "gazole": 1.898
      }
    },
    {
      "id": "58338",
      "cp": "",
      "ville": "Pontecagnano Faiano",
      "adresse": "Via Mare Ionio 125 84098",
      "brand": "Pompe Bianche",
      "lat": 40.614316,
      "lng": 14.852593,
      "fuels": {
        "sp95": 1.835,
        "gazole": 1.895
      }
    },
    {
      "id": "31438",
      "cp": "",
      "ville": "Pontecagnano Faiano",
      "adresse": "Via Pompei 119 84098",
      "brand": "Api-Ip",
      "lat": 40.65332713500583,
      "lng": 14.904936254024506,
      "fuels": {
        "sp95": 1.829,
        "gazole": 1.898
      }
    },
    {
      "id": "25657",
      "cp": "",
      "ville": "Positano",
      "adresse": "pasitea,34 82 84017",
      "brand": "Agip Eni",
      "lat": 40.63086367424864,
      "lng": 14.484706791633585,
      "fuels": {
        "sp95": 1.859,
        "gazole": 1.934
      }
    },
    {
      "id": "55578",
      "cp": "",
      "ville": "Postiglione",
      "adresse": "Vittorio Emanuele Sn 84026",
      "brand": "Pompe Bianche",
      "lat": 40.5627383,
      "lng": 15.2323238,
      "fuels": {
        "sp95": 1.999,
        "gazole": 2.02
      }
    },
    {
      "id": "58617",
      "cp": "",
      "ville": "Ravello",
      "adresse": "Nuova Chiunzi Sn 84010",
      "brand": "Tamoil",
      "lat": 40.6540922,
      "lng": 14.613551,
      "fuels": {
        "sp95": 1.979,
        "gazole": 2.089
      }
    },
    {
      "id": "32358",
      "cp": "",
      "ville": "Ricigliano",
      "adresse": "Via g. Falcone 18 84020",
      "brand": "Pompe Bianche",
      "lat": 40.66740185949182,
      "lng": 15.474859401583672,
      "fuels": {
        "sp95": 1.978,
        "gazole": 1.987
      }
    },
    {
      "id": "33747",
      "cp": "",
      "ville": "Roccadaspide",
      "adresse": "Localita' Carpine Snc 84069",
      "brand": "Energas",
      "lat": 40.424426216818844,
      "lng": 15.187930762767792,
      "fuels": {
        "sp95": 1.788,
        "gazole": 1.889
      }
    },
    {
      "id": "59303",
      "cp": "",
      "ville": "Roccadaspide",
      "adresse": "Nazionale 125 84069",
      "brand": "q8",
      "lat": 40.455411822616576,
      "lng": 15.107819355229951,
      "fuels": {
        "sp95": 1.881,
        "gazole": 1.949,
        "gplc": 0.749
      }
    },
    {
      "id": "50378",
      "cp": "",
      "ville": "Roccagloriosa",
      "adresse": "Variante Ss 18 Km 38+990 Km 38+ 98 84069",
      "brand": "Pompe Bianche",
      "lat": 40.08994707889531,
      "lng": 15.454724058508873,
      "fuels": {
        "sp95": 1.899,
        "gazole": 1.999,
        "gplc": 0.859
      }
    },
    {
      "id": "56981",
      "cp": "",
      "ville": "Roccapiemonte",
      "adresse": "Via Della Libertà Snc 84086",
      "brand": "Pompe Bianche",
      "lat": 40.7695357,
      "lng": 14.6704544,
      "fuels": {
        "sp95": 1.829,
        "gazole": 1.919
      }
    },
    {
      "id": "43011",
      "cp": "",
      "ville": "Roccapiemonte",
      "adresse": "Via Della Liberta' 63 84086",
      "brand": "Pompe Bianche",
      "lat": 40.75954714245201,
      "lng": 14.69288004662701,
      "fuels": {
        "sp95": 1.859,
        "gazole": 1.949
      }
    },
    {
      "id": "8829",
      "cp": "",
      "ville": "Rofrano",
      "adresse": "Piazza s.sofia Snc 84070",
      "brand": "Api-Ip",
      "lat": 40.211491732628616,
      "lng": 15.427283190867911,
      "fuels": {
        "sp95": 1.899,
        "gazole": 1.999
      }
    },
    {
      "id": "43038",
      "cp": "",
      "ville": "Sala Consilina",
      "adresse": "19 Delle calabrie, km. 74,600, Sud - 84036",
      "brand": "Api-Ip",
      "lat": 40.38220091371041,
      "lng": 15.604181317791017,
      "fuels": {
        "sp95": 1.829,
        "gazole": 1.919
      }
    },
    {
      "id": "52131",
      "cp": "",
      "ville": "Sala Consilina",
      "adresse": "Area p.i.p Via Mezzaniello s.n.c. 84036",
      "brand": "Tamoil",
      "lat": 40.42313,
      "lng": 15.55221,
      "fuels": {
        "sp95": 1.859,
        "gazole": 1.919,
        "e85": 1.479
      }
    },
    {
      "id": "32062",
      "cp": "",
      "ville": "Sala Consilina",
      "adresse": "Autostrada a3 Salerno-Reggio calabria, km. 91, dir. Nord - 84036",
      "brand": "Agip Eni",
      "lat": 40.39873834488029,
      "lng": 15.581182837486267,
      "fuels": {
        "sp95": 1.909,
        "gazole": 1.999,
        "gplc": 0.889
      }
    },
    {
      "id": "31570",
      "cp": "",
      "ville": "Sala Consilina",
      "adresse": "Autostrada a3 Salerno-Reggio calabria, km. 91+426, dir. Sud - 84036",
      "brand": "Agip Eni",
      "lat": 40.39807366551684,
      "lng": 15.580337941646576,
      "fuels": {
        "sp95": 1.929,
        "gazole": 1.999
      }
    },
    {
      "id": "48146",
      "cp": "",
      "ville": "Sala Consilina",
      "adresse": "c.da Madonna Del Latte Km 69+3 Snc 84036",
      "brand": "Esso",
      "lat": 40.4123498983387,
      "lng": 15.568050574507852,
      "fuels": {
        "sp95": 1.829,
        "gazole": 1.909
      }
    },
    {
      "id": "59861",
      "cp": "",
      "ville": "Sala Consilina",
      "adresse": "s.da Statale 19 Delle Calabrie 40  84036",
      "brand": "Up",
      "lat": 40.366934218839944,
      "lng": 15.614522661342258,
      "fuels": {
        "sp95": 1.799,
        "gazole": 1.869
      }
    },
    {
      "id": "41376",
      "cp": "",
      "ville": "Sala Consilina",
      "adresse": "s.s. 19 km. 76+900 Snc 84036",
      "brand": "Tamoil",
      "lat": 40.365087738018346,
      "lng": 15.616382465641436,
      "fuels": {
        "sp95": 1.799,
        "gazole": 1.839
      }
    },
    {
      "id": "46370",
      "cp": "",
      "ville": "Sala Consilina",
      "adresse": "San Sebastiano 11 84036",
      "brand": "Agip Eni",
      "lat": 40.410297868488094,
      "lng": 15.572522539954434,
      "fuels": {
        "sp95": 1.829,
        "gazole": 1.889
      }
    },
    {
      "id": "42297",
      "cp": "",
      "ville": "Sala Consilina",
      "adresse": "Via Mura Rosse Snc 84036",
      "brand": "q8",
      "lat": 40.421638606835174,
      "lng": 15.555196925997734,
      "fuels": {
        "sp95": 1.829,
        "gazole": 1.919,
        "e85": 1.479,
        "gplc": 0.799
      }
    },
    {
      "id": "42549",
      "cp": "",
      "ville": "Sala Consilina",
      "adresse": "Via Santa Maria Della Misericordia  84036",
      "brand": "q8",
      "lat": 40.41084195625603,
      "lng": 15.569067232501993,
      "fuels": {
        "sp95": 1.829,
        "gazole": 1.909,
        "gplc": 0.799
      }
    },
    {
      "id": "50581",
      "cp": "",
      "ville": "Salerno",
      "adresse": "a2 Autostrada Del mediterraneo, km. 7, Ovest - 84090",
      "brand": "Agip Eni",
      "lat": 40.692242335849095,
      "lng": 14.834231605286048,
      "fuels": {
        "sp95": 1.885,
        "gazole": 1.974,
        "gplc": 0.872
      }
    },
    {
      "id": "56979",
      "cp": "",
      "ville": "Salerno",
      "adresse": "Francesco Prudente Snc 84126",
      "brand": "Esso",
      "lat": 40.68416555557101,
      "lng": 14.772024699135867,
      "fuels": {
        "sp95": 1.819,
        "gazole": 1.919
      }
    },
    {
      "id": "58100",
      "cp": "",
      "ville": "Salerno",
      "adresse": "Irno 98 84135",
      "brand": "Esso",
      "lat": 40.674977,
      "lng": 14.7902345,
      "fuels": {
        "sp95": 1.819,
        "gazole": 1.919
      }
    },
    {
      "id": "43984",
      "cp": "",
      "ville": "Salerno",
      "adresse": "Ostaglio Sn 84131",
      "brand": "Icm",
      "lat": 40.65424365866962,
      "lng": 14.859095364809036,
      "fuels": {
        "sp95": 1.859,
        "gazole": 1.939
      }
    },
    {
      "id": "62209",
      "cp": "",
      "ville": "Salerno",
      "adresse": "Provinciale Aversana Snc 84131",
      "brand": "Pompe Bianche",
      "lat": 40.63512248200552,
      "lng": 14.85399842262268,
      "fuels": {
        "sp95": 1.819,
        "gazole": 1.899
      }
    },
    {
      "id": "6020",
      "cp": "",
      "ville": "Salerno",
      "adresse": "Tangenziale Di Salerno Km 60+900  84100",
      "brand": "Api-Ip",
      "lat": 40.65093160904689,
      "lng": 14.82467383146286,
      "fuels": {
        "sp95": 1.709,
        "gazole": 1.709,
        "gplc": 0.779
      }
    },
    {
      "id": "61319",
      "cp": "",
      "ville": "Salerno",
      "adresse": "Ugo Stanzione Snc 84133",
      "brand": "q8",
      "lat": 40.67550075907877,
      "lng": 14.794291595647104,
      "fuels": {
        "sp95": 1.839,
        "gazole": 1.939
      }
    },
    {
      "id": "39044",
      "cp": "",
      "ville": "Salerno",
      "adresse": "Via Benedetto Croce 92 84121",
      "brand": "Pompe Bianche",
      "lat": 40.6771331,
      "lng": 14.7403453,
      "fuels": {
        "sp95": 1.798,
        "gazole": 1.899
      }
    },
    {
      "id": "39720",
      "cp": "",
      "ville": "Salerno",
      "adresse": "Via Cappello Vecchio Snc 84131",
      "brand": "Pompe Bianche",
      "lat": 40.64461699596108,
      "lng": 14.853553846478462,
      "fuels": {
        "sp95": 1.929,
        "gazole": 1.959,
        "e85": 1.459,
        "gplc": 0.809
      }
    },
    {
      "id": "47188",
      "cp": "",
      "ville": "Salerno",
      "adresse": "Via Carmine Snc 84121",
      "brand": "Api-Ip",
      "lat": 40.68447376702785,
      "lng": 14.770445587690784,
      "fuels": {
        "sp95": 1.859,
        "gazole": 1.959
      }
    },
    {
      "id": "36645",
      "cp": "",
      "ville": "Salerno",
      "adresse": "Via Dei Carrari Snc 84131",
      "brand": "Pompe Bianche",
      "lat": 40.64376018623356,
      "lng": 14.83567088842392,
      "fuels": {
        "e85": 1.65
      }
    },
    {
      "id": "43631",
      "cp": "",
      "ville": "Salerno",
      "adresse": "Via Dei Greci Snc 84135",
      "brand": "q8",
      "lat": 40.70212116705078,
      "lng": 14.777531658895441,
      "fuels": {
        "sp95": 1.849,
        "gazole": 1.939
      }
    },
    {
      "id": "58757",
      "cp": "",
      "ville": "Salerno",
      "adresse": "Via Delle Calabrie  84100",
      "brand": "Pompe Bianche",
      "lat": 40.64872403502565,
      "lng": 14.858375787734985,
      "fuels": {
        "sp95": 1.819,
        "gazole": 1.909
      }
    },
    {
      "id": "37651",
      "cp": "",
      "ville": "Salerno",
      "adresse": "Via Demetrio Moscato  84126",
      "brand": "Esso",
      "lat": 40.68677431553105,
      "lng": 14.762105941772461,
      "fuels": {
        "sp95": 1.819,
        "gazole": 1.919
      }
    },
    {
      "id": "30907",
      "cp": "",
      "ville": "Salerno",
      "adresse": "Via Generale Clark Snc 84100",
      "brand": "Api-Ip",
      "lat": 40.65216804653779,
      "lng": 14.81014832854271,
      "fuels": {
        "sp95": 1.929,
        "gazole": 1.969
      }
    },
    {
      "id": "58149",
      "cp": "",
      "ville": "Salerno",
      "adresse": "Via Generale Clark Snc 84131",
      "brand": "Api-Ip",
      "lat": 40.6499427,
      "lng": 14.8128577,
      "fuels": {
        "sp95": 1.829,
        "gazole": 1.919
      }
    },
    {
      "id": "9649",
      "cp": "",
      "ville": "Salerno",
      "adresse": "Via Irno 212, 84135 - -",
      "brand": "Agip Eni",
      "lat": 40.686246928728536,
      "lng": 14.77759838104248,
      "fuels": {
        "sp95": 1.824,
        "gazole": 1.899
      }
    },
    {
      "id": "47281",
      "cp": "",
      "ville": "Salerno",
      "adresse": "Via Irno Snc 84100",
      "brand": "Api-Ip",
      "lat": 40.68346516783326,
      "lng": 14.775983170069228,
      "fuels": {
        "sp95": 1.866,
        "gazole": 1.946
      }
    },
    {
      "id": "55773",
      "cp": "",
      "ville": "Salerno",
      "adresse": "Via Lamia s.s. 18 km.63 + 400 Snc 84100",
      "brand": "Agip Eni",
      "lat": 40.6477699,
      "lng": 14.868089,
      "fuels": {
        "sp95": 1.824,
        "gazole": 1.899,
        "e85": 1.46
      }
    },
    {
      "id": "45879",
      "cp": "",
      "ville": "Salerno",
      "adresse": "Via Lungomare Colombo  2 84129",
      "brand": "Esso",
      "lat": 40.66433006206355,
      "lng": 14.791377463271147,
      "fuels": {
        "sp95": 1.819,
        "gazole": 1.919
      }
    },
    {
      "id": "35398",
      "cp": "",
      "ville": "Salerno",
      "adresse": "Via Medaglie D'Oro Snc 84132",
      "brand": "Agip Eni",
      "lat": 40.66665947743597,
      "lng": 14.802820533514023,
      "fuels": {
        "sp95": 1.824,
        "gazole": 1.899
      }
    },
    {
      "id": "28635",
      "cp": "",
      "ville": "Salerno",
      "adresse": "Via Nuova Tangenziale Snc 84131",
      "brand": "Pompe Bianche",
      "lat": 40.65109603455001,
      "lng": 14.826830327510834,
      "fuels": {
        "sp95": 1.899,
        "gazole": 1.989,
        "e85": 1.999,
        "gplc": 0.825
      }
    },
    {
      "id": "55315",
      "cp": "",
      "ville": "Salerno",
      "adresse": "Via Parmenide Snc",
      "brand": "Esso",
      "lat": 40.65540269955461,
      "lng": 14.808695912361145,
      "fuels": {
        "sp95": 1.819,
        "gazole": 1.889
      }
    },
    {
      "id": "57615",
      "cp": "",
      "ville": "Salerno",
      "adresse": "Via Raffaele Schiavone Snc 84100",
      "brand": "Pompe Bianche",
      "lat": 40.666058,
      "lng": 14.805954,
      "fuels": {
        "sp95": 1.859,
        "gazole": 1.929
      }
    },
    {
      "id": "24774",
      "cp": "",
      "ville": "Salerno",
      "adresse": "Via Risorgimento 28 84125",
      "brand": "q8",
      "lat": 40.68487785469651,
      "lng": 14.763801508458073,
      "fuels": {
        "sp95": 1.959,
        "gazole": 1.989
      }
    },
    {
      "id": "62022",
      "cp": "",
      "ville": "Salerno",
      "adresse": "Via Rocco Cocchia 203",
      "brand": "Pompe Bianche",
      "lat": 40.6642,
      "lng": 14.8026,
      "fuels": {
        "sp95": 1.859,
        "gazole": 1.929
      }
    },
    {
      "id": "14359",
      "cp": "",
      "ville": "Salerno",
      "adresse": "Via s. Baratta 165 84134",
      "brand": "Esso",
      "lat": 40.68032287851179,
      "lng": 14.77495587853889,
      "fuels": {
        "sp95": 1.829,
        "gazole": 1.939
      }
    },
    {
      "id": "23820",
      "cp": "",
      "ville": "Salerno",
      "adresse": "Via Salvador Allende snc, 84131 - -",
      "brand": "Pompe Bianche",
      "lat": 40.63979775604075,
      "lng": 14.825599193572998,
      "fuels": {
        "sp95": 1.809,
        "gazole": 1.899,
        "gplc": 0.759
      }
    },
    {
      "id": "46801",
      "cp": "",
      "ville": "Salerno",
      "adresse": "Via San Leonardo 234 84131",
      "brand": "Esso",
      "lat": 40.64846776124135,
      "lng": 14.838935955623583,
      "fuels": {
        "sp95": 1.819,
        "gazole": 1.899
      }
    },
    {
      "id": "60699",
      "cp": "",
      "ville": "Salerno",
      "adresse": "Via Settimio Mobilio 65  84127",
      "brand": "Pompe Bianche",
      "lat": 40.67704292057234,
      "lng": 14.77641150355339,
      "fuels": {
        "sp95": 1.814,
        "gazole": 1.914
      }
    },
    {
      "id": "52029",
      "cp": "",
      "ville": "Salerno",
      "adresse": "Via ss. 18 Delle Calabrie Kn 62+173  84131",
      "brand": "Api-Ip",
      "lat": 40.64902080376648,
      "lng": 14.853566827409049,
      "fuels": {
        "sp95": 1.869,
        "gazole": 1.949
      }
    },
    {
      "id": "24881",
      "cp": "",
      "ville": "Salerno",
      "adresse": "Via Torrione 104 84127",
      "brand": "q8",
      "lat": 40.67234994688689,
      "lng": 14.77857264173349,
      "fuels": {
        "sp95": 1.819,
        "gazole": 1.919
      }
    },
    {
      "id": "30998",
      "cp": "",
      "ville": "Salerno",
      "adresse": "Via Trento - loc.mercatello 140 84129",
      "brand": "Agip Eni",
      "lat": 40.65916480092063,
      "lng": 14.800094068050385,
      "fuels": {
        "sp95": 1.824,
        "gazole": 1.909
      }
    },
    {
      "id": "10165",
      "cp": "",
      "ville": "Salerno",
      "adresse": "Via Via Carlo Gatto Snc 84135, Salerno (sa) 2 84100",
      "brand": "Pompe Bianche",
      "lat": 40.69388905267952,
      "lng": 14.77997750043869,
      "fuels": {
        "sp95": 1.81,
        "gazole": 1.899,
        "gplc": 0.78
      }
    },
    {
      "id": "6734",
      "cp": "",
      "ville": "San Cipriano Picentino",
      "adresse": "Str Prov Fuorni Snc 84099",
      "brand": "q8",
      "lat": 40.68140852485349,
      "lng": 14.871786832809448,
      "fuels": {
        "sp95": 1.839,
        "gazole": 1.918
      }
    },
    {
      "id": "46603",
      "cp": "",
      "ville": "San Cipriano Picentino",
      "adresse": "Via Localita' Cantina Snc 84099, San Cipriano Picentino (sa)  84014",
      "brand": "Up",
      "lat": 40.67561596201747,
      "lng": 14.868947187729873,
      "fuels": {
        "sp95": 1.829,
        "gazole": 1.909
      }
    },
    {
      "id": "46800",
      "cp": "",
      "ville": "San Cipriano Picentino",
      "adresse": "Via Tora Di Pezzano  12 84099",
      "brand": "Tamoil",
      "lat": 40.699526203183446,
      "lng": 14.869625439012225,
      "fuels": {
        "sp95": 1.839,
        "gazole": 1.919
      }
    },
    {
      "id": "56654",
      "cp": "",
      "ville": "San Giovanni A Piro",
      "adresse": "Rione Nuovo 42 84070",
      "brand": "Pompe Bianche",
      "lat": 40.0543407,
      "lng": 15.4771199,
      "fuels": {
        "sp95": 1.829,
        "gazole": 1.929
      }
    },
    {
      "id": "62674",
      "cp": "",
      "ville": "San Gregorio Magno",
      "adresse": "Del Sole 14 84020",
      "brand": "Pompe Bianche",
      "lat": 40.6573392,
      "lng": 15.396441,
      "fuels": {
        "sp95": 1.979,
        "gazole": 1.999
      }
    },
    {
      "id": "32202",
      "cp": "",
      "ville": "San Gregorio Magno",
      "adresse": "Via Pallaforte 5 84020",
      "brand": "Pompe Bianche",
      "lat": 40.66213487879464,
      "lng": 15.405497930059482,
      "fuels": {
        "sp95": 1.979,
        "gazole": 2.047
      }
    },
    {
      "id": "50583",
      "cp": "",
      "ville": "San Mango Piemonte",
      "adresse": "a2 Autostrada Del mediterraneo, km. 7, Est - 84090",
      "brand": "Agip Eni",
      "lat": 40.69326409185566,
      "lng": 14.83470573107228,
      "fuels": {
        "sp95": 1.885,
        "gazole": 1.974
      }
    },
    {
      "id": "13451",
      "cp": "",
      "ville": "San Mango Piemonte",
      "adresse": "Via Francesco Spirito 16/18 84090",
      "brand": "Api-Ip",
      "lat": 40.70260363185144,
      "lng": 14.83201452492358,
      "fuels": {
        "sp95": 1.899,
        "gazole": 1.999
      }
    },
    {
      "id": "47669",
      "cp": "",
      "ville": "San Marzano Sul Sarno",
      "adresse": "Via Piave 106 84010",
      "brand": "Pompe Bianche",
      "lat": 40.77709121761687,
      "lng": 14.591359582207755,
      "fuels": {
        "sp95": 1.799,
        "gazole": 1.859
      }
    },
    {
      "id": "35752",
      "cp": "",
      "ville": "San Valentino Torio",
      "adresse": "Cesina 78 84010",
      "brand": "Gt-Fuel",
      "lat": 40.7881311,
      "lng": 14.6000336,
      "fuels": {
        "sp95": 1.789,
        "gazole": 1.849
      }
    },
    {
      "id": "29345",
      "cp": "",
      "ville": "San Valentino Torio",
      "adresse": "Via Provinciale 133 84010",
      "brand": "q8",
      "lat": 40.78672217336834,
      "lng": 14.621578339978441,
      "fuels": {
        "sp95": 1.879,
        "gazole": 1.879
      }
    },
    {
      "id": "13494",
      "cp": "",
      "ville": "San Valentino Torio",
      "adresse": "Via Sottosanti 40 84010",
      "brand": "Api-Ip",
      "lat": 40.79552600094498,
      "lng": 14.60153775267554,
      "fuels": {
        "sp95": 1.869,
        "gazole": 1.919
      }
    },
    {
      "id": "31815",
      "cp": "",
      "ville": "San Valentino Torio",
      "adresse": "Via Vetice 13 84010",
      "brand": "Pompe Bianche",
      "lat": 40.79242573664654,
      "lng": 14.593898510689542,
      "fuels": {
        "sp95": 1.859,
        "gazole": 1.899
      }
    },
    {
      "id": "57187",
      "cp": "",
      "ville": "San Valentino Torio",
      "adresse": "Zeccagnuolo 114 84010",
      "brand": "Esso",
      "lat": 40.78373234315129,
      "lng": 14.610143343716446,
      "fuels": {
        "sp95": 1.839,
        "gazole": 1.899,
        "gplc": 0.769
      }
    },
    {
      "id": "24380",
      "cp": "",
      "ville": "Sant'Angelo A Fasanella",
      "adresse": "grccml56l46i278t 12 84027",
      "brand": "Pompe Bianche",
      "lat": 40.450115240535425,
      "lng": 15.36055013524117,
      "fuels": {
        "sp95": 1.892,
        "gazole": 1.992
      }
    },
    {
      "id": "15220",
      "cp": "",
      "ville": "Sant'Arsenio",
      "adresse": "Piazza Europa  84037",
      "brand": "Api-Ip",
      "lat": 40.4693853119944,
      "lng": 15.482546589638787,
      "fuels": {
        "sp95": 1.889,
        "gazole": 1.969
      }
    },
    {
      "id": "58801",
      "cp": "",
      "ville": "Sant'Egidio Del Monte Albino",
      "adresse": "Degli Aranci 50/52 84010",
      "brand": "Api-Ip",
      "lat": 40.732975,
      "lng": 14.591846,
      "fuels": {
        "sp95": 1.839,
        "gazole": 1.919
      }
    },
    {
      "id": "62343",
      "cp": "",
      "ville": "Sant'Egidio Del Monte Albino",
      "adresse": "Via Della Rinascita  84010",
      "brand": "Pompe Bianche",
      "lat": 40.7458599,
      "lng": 14.589236,
      "fuels": {
        "sp95": 1.84,
        "gazole": 1.96,
        "e85": 1.34,
        "gplc": 0.77
      }
    },
    {
      "id": "56224",
      "cp": "",
      "ville": "Sant'Egidio Del Monte Albino",
      "adresse": "Via Quarto  Snc 84010",
      "brand": "Pompe Bianche",
      "lat": 40.748822,
      "lng": 14.584953,
      "fuels": {
        "sp95": 1.829,
        "gazole": 1.849
      }
    },
    {
      "id": "34896",
      "cp": "",
      "ville": "Sant'Egidio Del Monte Albino",
      "adresse": "Viale Kennedy 23 84010",
      "brand": "Api-Ip",
      "lat": 40.738189638920026,
      "lng": 14.597060343586008,
      "fuels": {
        "sp95": 1.759,
        "gazole": 1.839
      }
    },
    {
      "id": "57012",
      "cp": "",
      "ville": "Santa Marina",
      "adresse": "s.s. 18 Km 205 203 Snc 84067",
      "brand": "Pompe Bianche",
      "lat": 40.0491142,
      "lng": 15.4419661,
      "fuels": {
        "sp95": 1.829,
        "gazole": 1.929
      }
    },
    {
      "id": "51805",
      "cp": "",
      "ville": "Sanza",
      "adresse": "517 bussentina, km. 21+108, Sud  84030",
      "brand": "Api-Ip",
      "lat": 40.22696127563449,
      "lng": 15.559504383185086,
      "fuels": {
        "sp95": 1.859,
        "gazole": 1.939
      }
    },
    {
      "id": "51807",
      "cp": "",
      "ville": "Sanza",
      "adresse": "517 bussentina, km. 21+108, Sud  84030",
      "brand": "Api-Ip",
      "lat": 40.22696127563449,
      "lng": 15.559504383185086,
      "fuels": {
        "sp95": 1.859,
        "gazole": 1.939
      }
    },
    {
      "id": "7870",
      "cp": "",
      "ville": "Sapri",
      "adresse": "Via Lungomare snc, 84073 - -",
      "brand": "Api-Ip",
      "lat": 40.071978452114436,
      "lng": 15.630952519326797,
      "fuels": {
        "sp95": 1.799,
        "gazole": 1.899
      }
    },
    {
      "id": "18849",
      "cp": "",
      "ville": "Sarno",
      "adresse": "Marconi 5 84087",
      "brand": "Pompe Bianche",
      "lat": 40.81181822198798,
      "lng": 14.619951620376582,
      "fuels": {
        "sp95": 1.695,
        "gazole": 1.782
      }
    },