{
  "code": "SO",
  "name": "Sondrio",
  "regionCode": "LOM",
  "regionName": "Lombardia",
  "asOf": "2026-06-08T09:18:59.111Z",
  "source": "https://www.mimit.gov.it/it/open-data/elenco-dataset/2032336-dataset-prezzi-carburanti",
  "stationCount": 67,
  "fuels": {
    "gazole": {
      "count": 65,
      "mean": 1.8768,
      "median": 1.959,
      "min": 1.471,
      "max": 2.185
    },
    "sp95": {
      "count": 65,
      "mean": 1.8448,
      "median": 1.919,
      "min": 1.498,
      "max": 2.12
    },
    "e85": {
      "count": 2,
      "mean": 1.534,
      "median": 1.534,
      "min": 1.499,
      "max": 1.569
    },
    "gplc": {
      "count": 6,
      "mean": 0.7958,
      "median": 0.799,
      "min": 0.72,
      "max": 0.829
    }
  },
  "stations": [
    {
      "id": "48129",
      "cp": "",
      "ville": "Aprica",
      "adresse": "39 Del Passo Di aprica, km. 13,400, Edolo - 23031",
      "brand": "Agip Eni",
      "lat": 46.15392686458065,
      "lng": 10.153008840117286,
      "fuels": {
        "sp95": 1.969,
        "gazole": 2.034
      }
    },
    {
      "id": "16782",
      "cp": "",
      "ville": "Aprica",
      "adresse": "Via Roma 180 23031",
      "brand": "Api-Ip",
      "lat": 46.15488280019562,
      "lng": 10.157345831394196,
      "fuels": {
        "sp95": 1.939,
        "gazole": 1.979
      }
    },
    {
      "id": "42474",
      "cp": "",
      "ville": "Ardenno",
      "adresse": "Nazionale 111 23011",
      "brand": "Retitalia",
      "lat": 46.16231818566884,
      "lng": 9.651951268315315,
      "fuels": {
        "sp95": 1.929,
        "gazole": 1.959
      }
    },
    {
      "id": "11837",
      "cp": "",
      "ville": "Berbenno Di Valtellina",
      "adresse": "Via Nazionale Ovest  fz.s.p 138 23010",
      "brand": "q8",
      "lat": 46.161457161164265,
      "lng": 9.741870065357034,
      "fuels": {
        "sp95": 1.879,
        "gazole": 2.009
      }
    },
    {
      "id": "7735",
      "cp": "",
      "ville": "Bormio",
      "adresse": "38 Dello stelvio, km. 104, Passo Stelvio - 23032",
      "brand": "Agip Eni",
      "lat": 46.46492582398835,
      "lng": 10.36732792854309,
      "fuels": {
        "sp95": 1.949,
        "gazole": 2.034
      }
    },
    {
      "id": "9197",
      "cp": "",
      "ville": "Bormio",
      "adresse": "Statale 38 Dello stelvio, km. 102+187, dir. Stelvio - -",
      "brand": "Pompe Bianche",
      "lat": 46.466584116053184,
      "lng": 10.370691418647766,
      "fuels": {
        "sp95": 2.12,
        "gazole": 2.11
      }
    },
    {
      "id": "23111",
      "cp": "",
      "ville": "Buglio In Monte",
      "adresse": "Via Valeriana 37 23100",
      "brand": "Api-Ip",
      "lat": 46.17461434842343,
      "lng": 9.677944686454111,
      "fuels": {
        "sp95": 1.919,
        "gazole": 1.929
      }
    },
    {
      "id": "33445",
      "cp": "",
      "ville": "Caiolo",
      "adresse": "Valeriana 4/A 23010",
      "brand": "Pompe Bianche",
      "lat": 46.15541444757983,
      "lng": 9.806597963023705,
      "fuels": {
        "sp95": 1.935,
        "gazole": 1.915
      }
    },
    {
      "id": "33344",
      "cp": "",
      "ville": "Campodolcino",
      "adresse": "Via Corti 11 23021",
      "brand": "Retitalia",
      "lat": 46.404239843113615,
      "lng": 9.353007342549517,
      "fuels": {
        "sp95": 2.098,
        "gazole": 2.185
      }
    },
    {
      "id": "58506",
      "cp": "",
      "ville": "Castione Andevenno",
      "adresse": "Andevenno 177 23012",
      "brand": "Pompe Bianche",
      "lat": 46.16297794206887,
      "lng": 9.790297336210253,
      "fuels": {
        "gplc": 0.829
      }
    },
    {
      "id": "33884",
      "cp": "",
      "ville": "Castione Andevenno",
      "adresse": "Bruno Tirelli 52 23012",
      "brand": "Tamoil",
      "lat": 46.161986353773294,
      "lng": 9.823633432388306,
      "fuels": {
        "sp95": 1.829,
        "gazole": 1.869
      }
    },
    {
      "id": "34643",
      "cp": "",
      "ville": "Castione Andevenno",
      "adresse": "Nazionale 877 23012",
      "brand": "Pompe Bianche",
      "lat": 46.16181970577179,
      "lng": 9.795046939759459,
      "fuels": {
        "sp95": 1.789,
        "gazole": 1.929
      }
    },
    {
      "id": "56187",
      "cp": "",
      "ville": "Castione Andevenno",
      "adresse": "Via Del Piano 1/D 23012",
      "brand": "Pompe Bianche",
      "lat": 46.16188,
      "lng": 9.82187,
      "fuels": {
        "sp95": 1.789,
        "gazole": 1.869,
        "e85": 1.499
      }
    },
    {
      "id": "7776",
      "cp": "",
      "ville": "Chiavenna",
      "adresse": "Statale 36 Del Lago Di Como E Dello spluga, km. 118, dir. Sud  23022",
      "brand": "Agip Eni",
      "lat": 46.31306426224836,
      "lng": 9.397081732749939,
      "fuels": {
        "sp95": 1.939,
        "gazole": 1.989
      }
    },
    {
      "id": "48930",
      "cp": "",
      "ville": "Chiavenna",
      "adresse": "Via Roma 13 23022",
      "brand": "Esso",
      "lat": 46.318021395156954,
      "lng": 9.399894627583958,
      "fuels": {
        "sp95": 1.939,
        "gazole": 1.979
      }
    },
    {
      "id": "47340",
      "cp": "",
      "ville": "Chiavenna",
      "adresse": "Viale Maloggia 9 23022",
      "brand": "Api-Ip",
      "lat": 46.32173883256155,
      "lng": 9.397943276449041,
      "fuels": {
        "sp95": 1.939,
        "gazole": 1.979
      }
    },
    {
      "id": "56844",
      "cp": "",
      "ville": "Chiesa In Valmalenco",
      "adresse": "Roma 55 23023",
      "brand": "Agip Eni",
      "lat": 46.26146406818629,
      "lng": 9.846933782100677,
      "fuels": {
        "sp95": 1.899,
        "gazole": 1.934
      }
    },
    {
      "id": "38856",
      "cp": "",
      "ville": "Chiuro",
      "adresse": "Stelvio 65 23030",
      "brand": "Agip Eni",
      "lat": 46.16367814992121,
      "lng": 9.979287385940552,
      "fuels": {
        "sp95": 1.939,
        "gazole": 1.989
      }
    },
    {
      "id": "38471",
      "cp": "",
      "ville": "Colorina",
      "adresse": "Nazionale 696 23010",
      "brand": "Pompe Bianche",
      "lat": 46.163863993940986,
      "lng": 9.693520814180374,
      "fuels": {
        "sp95": 1.895,
        "gazole": 1.895
      }
    },
    {
      "id": "62993",
      "cp": "",
      "ville": "Cosio Valtellino",
      "adresse": "Ss 38 Var  23013",
      "brand": "Pompe Bianche",
      "lat": 46.1373335,
      "lng": 9.5357569,
      "fuels": {
        "sp95": 1.829,
        "gazole": 1.899
      }
    },
    {
      "id": "49193",
      "cp": "",
      "ville": "Delebio",
      "adresse": "38 Dello stelvio, km. 5, Sondrio - 231014",
      "brand": "Agip Eni",
      "lat": 46.137510336606354,
      "lng": 9.458272024653892,
      "fuels": {
        "sp95": 1.938,
        "gazole": 1.989
      }
    },
    {
      "id": "25725",
      "cp": "",
      "ville": "Delebio",
      "adresse": "Strada Statale 38 Dello Stelvio Snc 23014",
      "brand": "Api-Ip",
      "lat": 46.138036183463505,
      "lng": 9.443367272615433,
      "fuels": {
        "sp95": 1.919,
        "gazole": 1.939
      }
    },
    {
      "id": "21898",
      "cp": "",
      "ville": "Dubino",
      "adresse": "Via Valeriana 45 23015",
      "brand": "Tamoil",
      "lat": 46.15298458946965,
      "lng": 9.457533448857816,
      "fuels": {
        "sp95": 1.889,
        "gazole": 1.919
      }
    },
    {
      "id": "38814",
      "cp": "",
      "ville": "Lanzada",
      "adresse": "Via Pizzo Scalino 144 23020",
      "brand": "Pompe Bianche",
      "lat": 46.26897496535141,
      "lng": 9.866385161876678,
      "fuels": {
        "sp95": 1.969,
        "gazole": 1.999
      }
    },
    {
      "id": "9205",
      "cp": "",
      "ville": "Livigno",
      "adresse": "Statale 301 Del foscagno, km. 28,400, dir. Bormio -",
      "brand": "Agip Eni",
      "lat": 46.52654659099641,
      "lng": 10.175803687190637,
      "fuels": {
        "sp95": 1.513,
        "gazole": 1.471
      }
    },
    {
      "id": "60873",
      "cp": "",
      "ville": "Livigno",
      "adresse": "Tresenda 1344 23041",
      "brand": "q8",
      "lat": 46.48956396030341,
      "lng": 10.112877554725666,
      "fuels": {
        "sp95": 1.546,
        "gazole": 1.488
      }
    },
    {
      "id": "22687",
      "cp": "",
      "ville": "Livigno",
      "adresse": "Via Arneira 96 23030",
      "brand": "q8",
      "lat": 46.51800524520484,
      "lng": 10.18708348274231,
      "fuels": {
        "sp95": 1.539,
        "gazole": 1.489,
        "gplc": 0.72
      }
    },
    {
      "id": "21869",
      "cp": "",
      "ville": "Livigno",
      "adresse": "Via Bondi 233/A 23030",
      "brand": "Api-Ip",
      "lat": 46.537901232396536,
      "lng": 10.138709294686805,
      "fuels": {
        "sp95": 1.543,
        "gazole": 1.483
      }
    },
    {
      "id": "22628",
      "cp": "",
      "ville": "Livigno",
      "adresse": "Via Borch 770 23030",
      "brand": "Agip Eni",
      "lat": 46.51908386115937,
      "lng": 10.124913901090622,
      "fuels": {
        "sp95": 1.547,
        "gazole": 1.492
      }
    },
    {
      "id": "51364",
      "cp": "",
      "ville": "Livigno",
      "adresse": "Via Freita 104 23041",
      "brand": "q8",
      "lat": 46.52761921935373,
      "lng": 10.135169724327566,
      "fuels": {
        "sp95": 1.534,
        "gazole": 1.48
      }
    },
    {
      "id": "21866",
      "cp": "",
      "ville": "Livigno",
      "adresse": "Via Pedrana  200 23030",
      "brand": "Api-Ip",
      "lat": 46.52810766409564,
      "lng": 10.127918645739555,
      "fuels": {
        "sp95": 1.543,
        "gazole": 1.483
      }
    },
    {
      "id": "24309",
      "cp": "",
      "ville": "Livigno",
      "adresse": "Via Pedrana 100 23030",
      "brand": "Api-Ip",
      "lat": 46.529713169182166,
      "lng": 10.129013318979673,
      "fuels": {
        "sp95": 1.543,
        "gazole": 1.485
      }
    },
    {
      "id": "22670",
      "cp": "",
      "ville": "Livigno",
      "adresse": "Via Pedrana 500 23030",
      "brand": "Agip Eni",
      "lat": 46.52608880693164,
      "lng": 10.12782409787178,
      "fuels": {
        "sp95": 1.541,
        "gazole": 1.487
      }
    },
    {
      "id": "23219",
      "cp": "",
      "ville": "Livigno",
      "adresse": "Via Pontiglia n.159 23041",
      "brand": "Pompe Bianche",
      "lat": 46.53959047065005,
      "lng": 10.138176083564758,
      "fuels": {
        "sp95": 1.529,
        "gazole": 1.485
      }
    },
    {
      "id": "51363",
      "cp": "",
      "ville": "Livigno",
      "adresse": "Via Rasia 1077 23041",
      "brand": "q8",
      "lat": 46.556565931550104,
      "lng": 10.143738985061646,
      "fuels": {
        "sp95": 1.498,
        "gazole": 1.473
      }
    },
    {
      "id": "51253",
      "cp": "",
      "ville": "Livigno",
      "adresse": "Via Rasia 833 23041",
      "brand": "Agip Eni",
      "lat": 46.554025226052566,
      "lng": 10.145127028226852,
      "fuels": {
        "sp95": 1.542,
        "gazole": 1.485
      }
    },
    {
      "id": "48274",
      "cp": "",
      "ville": "Lovero",
      "adresse": "Ss 38 Dello stelvio, km. 70  23030",
      "brand": "Pompe Bianche",
      "lat": 46.2378399854638,
      "lng": 10.230592903066995,
      "fuels": {
        "sp95": 1.915,
        "gazole": 2.025
      }
    },
    {
      "id": "58846",
      "cp": "",
      "ville": "Montagna In Valtellina",
      "adresse": "Via Stelvio 310 23020",
      "brand": "Api-Ip",
      "lat": 46.16988215731916,
      "lng": 9.901697647111515,
      "fuels": {
        "sp95": 1.818,
        "gazole": 1.868
      }
    },
    {
      "id": "48301",
      "cp": "",
      "ville": "Morbegno",
      "adresse": "38 Dello stelvio, km.  12.915, Ovest - 23017",
      "brand": "Pompe Bianche",
      "lat": 46.150807702640144,
      "lng": 9.632733925517591,
      "fuels": {
        "sp95": 1.929,
        "gazole": 1.959
      }
    },
    {
      "id": "49192",
      "cp": "",
      "ville": "Morbegno",
      "adresse": "Via Stelvio 16 23017",
      "brand": "Agip Eni",
      "lat": 46.135243978773794,
      "lng": 9.564789271163932,
      "fuels": {
        "sp95": 1.919,
        "gazole": 1.989
      }
    },
    {
      "id": "49261",
      "cp": "",
      "ville": "Novate Mezzola",
      "adresse": "Via Nazionale 437 23025",
      "brand": "Pompe Bianche",
      "lat": 46.212442449388746,
      "lng": 9.448394648255151,
      "fuels": {
        "sp95": 1.899,
        "gazole": 1.989,
        "gplc": 0.799
      }
    },
    {
      "id": "59846",
      "cp": "",
      "ville": "Piantedo",
      "adresse": "Nazionale 1146 23010",
      "brand": "Agip Eni",
      "lat": 46.138250079117014,
      "lng": 9.425797093753836,
      "fuels": {
        "sp95": 1.919,
        "gazole": 2.04
      }
    },
    {
      "id": "21882",
      "cp": "",
      "ville": "Piantedo",
      "adresse": "Via San Martino 141 23010",
      "brand": "Pompe Bianche",
      "lat": 46.13921357193617,
      "lng": 9.424292743206024,
      "fuels": {
        "gplc": 0.799
      }
    },
    {
      "id": "57941",
      "cp": "",
      "ville": "Piateda",
      "adresse": "Roma ang. Via Fabbrica Snc  23020",
      "brand": "Tamoil",
      "lat": 46.1600016,
      "lng": 9.9388096,
      "fuels": {
        "sp95": 1.849,
        "gazole": 1.889
      }
    },
    {
      "id": "62913",
      "cp": "",
      "ville": "Poggiridenti",
      "adresse": "Via Panoramica 25  23020",
      "brand": "Pompe Bianche",
      "lat": 46.1753075,
      "lng": 9.9245808,
      "fuels": {
        "sp95": 1.939,
        "gazole": 2.019
      }
    },
    {
      "id": "21785",
      "cp": "",
      "ville": "Poggiridenti",
      "adresse": "Via Panoramica 25 23020",
      "brand": "Pompe Bianche",
      "lat": 46.17523850310842,
      "lng": 9.924469903977183,
      "fuels": {
        "sp95": 1.969,
        "gazole": 1.969
      }
    },
    {
      "id": "44698",
      "cp": "",
      "ville": "Postalesio",
      "adresse": "Nazionale 10 23010",
      "brand": "Tamoil",
      "lat": 46.15875871687754,
      "lng": 9.776630400024715,
      "fuels": {
        "sp95": 1.829,
        "gazole": 1.869
      }
    },
    {
      "id": "56186",
      "cp": "",
      "ville": "Rogolo",
      "adresse": "Via Andrea Doria 2 23010",
      "brand": "Pompe Bianche",
      "lat": 46.136181,
      "lng": 9.48004,
      "fuels": {
        "sp95": 1.789,
        "gazole": 1.869
      }
    },
    {
      "id": "8737",
      "cp": "",
      "ville": "Samolaco",
      "adresse": "Tonaia 60 A 23027",
      "brand": "Tamoil",
      "lat": 46.26165432872162,
      "lng": 9.388504028320312,
      "fuels": {
        "sp95": 1.919,
        "gazole": 1.909
      }
    },
    {
      "id": "40814",
      "cp": "",
      "ville": "Sondalo",
      "adresse": "38 Km 83+901 Snc 23035",
      "brand": "Tamoil",
      "lat": 46.325307734011275,
      "lng": 10.326841324567795,
      "fuels": {
        "sp95": 1.939,
        "gazole": 1.969
      }
    },
    {
      "id": "57782",
      "cp": "",
      "ville": "Sondalo",
      "adresse": "Via Bolladore 10 23035",
      "brand": "Pompe Bianche",
      "lat": 46.32556821311294,
      "lng": 10.321011543273926,
      "fuels": {
        "sp95": 1.915,
        "gazole": 2.025
      }
    },
    {
      "id": "56843",
      "cp": "",
      "ville": "Sondrio",
      "adresse": "Dello Stadio 28 23100",
      "brand": "Agip Eni",
      "lat": 46.16806965070566,
      "lng": 9.858158826828003,
      "fuels": {
        "sp95": 1.939,
        "gazole": 1.989
      }
    },
    {
      "id": "55314",
      "cp": "",
      "ville": "Sondrio",
      "adresse": "Milano 44 23100",
      "brand": "Esso",
      "lat": 46.16955564170246,
      "lng": 9.861570589583422,
      "fuels": {
        "sp95": 1.849,
        "gazole": 1.879
      }
    },
    {
      "id": "47212",
      "cp": "",
      "ville": "Sondrio",
      "adresse": "Piazzale Toccalli 15 23100",
      "brand": "Retitalia",
      "lat": 46.1706231,
      "lng": 9.8652556,
      "fuels": {
        "sp95": 1.919,
        "gazole": 1.949
      }
    },
    {
      "id": "53114",
      "cp": "",
      "ville": "Sondrio",
      "adresse": "Vanoni Snc 23100",
      "brand": "Pompe Bianche",
      "lat": 46.16140338065851,
      "lng": 9.867189522046829,
      "fuels": {
        "sp95": 1.939,
        "gazole": 2.019,
        "gplc": 0.829
      }
    },
    {
      "id": "55967",
      "cp": "",
      "ville": "Sondrio",
      "adresse": "Via Enrico Toti 20 23100",
      "brand": "Pompe Bianche",
      "lat": 46.169386550538384,
      "lng": 9.880003791332225,
      "fuels": {
        "sp95": 1.949,
        "gazole": 1.989
      }
    },
    {
      "id": "18789",
      "cp": "",
      "ville": "Sondrio",
      "adresse": "Via Maffei 10 23100",
      "brand": "Api-Ip",
      "lat": 46.166182056879165,
      "lng": 9.864081746165198,
      "fuels": {
        "sp95": 1.959,
        "gazole": 1.959
      }
    },
    {
      "id": "38847",
      "cp": "",
      "ville": "Sondrio",
      "adresse": "Via Stelvio 39 23100",
      "brand": "Agip Eni",
      "lat": 46.1703854956982,
      "lng": 9.89609407294688,
      "fuels": {
        "sp95": 1.939,
        "gazole": 2.049
      }
    },
    {
      "id": "7209",
      "cp": "",
      "ville": "Sondrio",
      "adresse": "Via Tonale 12 23100",
      "brand": "Pompe Bianche",
      "lat": 46.165870839296936,
      "lng": 9.87237420834117,
      "fuels": {
        "sp95": 1.939,
        "gazole": 2.019
      }
    },
    {
      "id": "9950",
      "cp": "",
      "ville": "Talamona",
      "adresse": "Stelvio 752 23018",
      "brand": "Retitalia",
      "lat": 46.14089759165892,
      "lng": 9.605734458727511,
      "fuels": {
        "sp95": 1.929,
        "gazole": 1.959
      }
    },
    {
      "id": "7899",
      "cp": "",
      "ville": "Talamona",
      "adresse": "Via Stelvio 294 23018",
      "brand": "Agip Eni",
      "lat": 46.139351102592414,
      "lng": 9.59980845451355,
      "fuels": {
        "sp95": 1.939,
        "gazole": 1.989
      }
    },
    {
      "id": "48370",
      "cp": "",
      "ville": "Teglio",
      "adresse": "Nazionale 8/A 23036",
      "brand": "Tamoil",
      "lat": 46.15900401571485,
      "lng": 10.049205864418038,
      "fuels": {
        "sp95": 1.829,
        "gazole": 1.869
      }
    },
    {
      "id": "22442",
      "cp": "",
      "ville": "Teglio",
      "adresse": "s.s.38 Km 53+685 s.n. 23036, Teglio (so)  23036",
      "brand": "q8",
      "lat": 46.160320596935634,
      "lng": 10.072409796295233,
      "fuels": {
        "sp95": 1.899,
        "gazole": 1.919
      }
    },
    {
      "id": "23259",
      "cp": "",
      "ville": "Tirano",
      "adresse": "Strada Di Fort 1 23037",
      "brand": "Pompe Bianche",
      "lat": 46.208009421162096,
      "lng": 10.154430444971126,
      "fuels": {
        "sp95": 1.929,
        "gazole": 1.999
      }
    },
    {
      "id": "15131",
      "cp": "",
      "ville": "Tovo Di Sant'Agata",
      "adresse": "Via Roma 66 23030",
      "brand": "Pompe Bianche",
      "lat": 46.24043045578786,
      "lng": 10.240710228681564,
      "fuels": {
        "sp95": 1.945,
        "gazole": 1.985
      }
    },
    {
      "id": "8239",
      "cp": "",
      "ville": "Traona",
      "adresse": "Via Valeriana sp.4 km11+266, dir. Sondrio  23019",
      "brand": "Pompe Bianche",
      "lat": 46.14462942044784,
      "lng": 9.539076536893845,
      "fuels": {
        "sp95": 1.879,
        "gazole": 1.899,
        "e85": 1.569,
        "gplc": 0.799
      }
    },
    {
      "id": "6115",
      "cp": "",
      "ville": "Villa Di Tirano",
      "adresse": "Via Nazionale 81 23030",
      "brand": "Pompe Bianche",
      "lat": 46.20237163520332,
      "lng": 10.136963725090027,
      "fuels": {
        "sp95": 1.929,
        "gazole": 1.999
      }
    }
  ]
}