{
  "code": "SS",
  "name": "Sassari",
  "regionCode": "SAR",
  "regionName": "Sardegna",
  "asOf": "2026-06-24T18:51:15.733Z",
  "source": "https://www.mimit.gov.it/it/open-data/elenco-dataset/2032336-dataset-prezzi-carburanti",
  "stationCount": 184,
  "fuels": {
    "gazole": {
      "count": 184,
      "mean": 1.9475,
      "median": 1.9355,
      "min": 1.849,
      "max": 2.389
    },
    "sp95": {
      "count": 184,
      "mean": 1.8486,
      "median": 1.829,
      "min": 1.739,
      "max": 2.199
    },
    "gplc": {
      "count": 30,
      "mean": 0.9103,
      "median": 0.899,
      "min": 0.748,
      "max": 1.399
    }
  },
  "stations": [
    {
      "id": "23682",
      "cp": "",
      "ville": "Aggius",
      "adresse": "Via Roma  07020",
      "brand": "Tamoil",
      "lat": 40.92735333447829,
      "lng": 9.063703972071137,
      "fuels": {
        "sp95": 1.819,
        "gazole": 1.919
      }
    },
    {
      "id": "10103",
      "cp": "",
      "ville": "Aglientu",
      "adresse": "loc. Bivio Portobello Sp 90 Km 47  07020",
      "brand": "Agip Eni",
      "lat": 41.09770253525586,
      "lng": 9.032419323921204,
      "fuels": {
        "sp95": 1.829,
        "gazole": 1.919
      }
    },
    {
      "id": "30630",
      "cp": "",
      "ville": "Aglientu",
      "adresse": "Santa Teresa -Castelsardo Snc 07020",
      "brand": "Tamoil",
      "lat": 41.12461524274908,
      "lng": 9.071076661348343,
      "fuels": {
        "sp95": 1.829,
        "gazole": 1.919
      }
    },
    {
      "id": "52917",
      "cp": "",
      "ville": "Alà Dei Sardi",
      "adresse": "389 km. 28.380  07020",
      "brand": "Agip Eni",
      "lat": 40.64426613269596,
      "lng": 9.314903542399406,
      "fuels": {
        "sp95": 1.859,
        "gazole": 1.949
      }
    },
    {
      "id": "61278",
      "cp": "",
      "ville": "Alghero",
      "adresse": "ss127bis",
      "brand": "Agip Eni",
      "lat": 40.59555,
      "lng": 8.2851,
      "fuels": {
        "sp95": 1.829,
        "gazole": 1.919
      }
    },
    {
      "id": "52586",
      "cp": "",
      "ville": "Alghero",
      "adresse": "Tanca Farra' 4 07041",
      "brand": "Pompe Bianche",
      "lat": 40.6234882,
      "lng": 8.3320263,
      "fuels": {
        "sp95": 1.899,
        "gazole": 1.989,
        "gplc": 0.899
      }
    },
    {
      "id": "57571",
      "cp": "",
      "ville": "Alghero",
      "adresse": "Via Garibaldi",
      "brand": "q8",
      "lat": 40.5674236,
      "lng": 8.3192536,
      "fuels": {
        "sp95": 1.829,
        "gazole": 1.919
      }
    },
    {
      "id": "43209",
      "cp": "",
      "ville": "Alghero",
      "adresse": "Via Vittorio Emanuele 76 07041",
      "brand": "Esso",
      "lat": 40.56233313852971,
      "lng": 8.322912149885497,
      "fuels": {
        "sp95": 1.879,
        "gazole": 1.989
      }
    },
    {
      "id": "57388",
      "cp": "",
      "ville": "Alghero",
      "adresse": "Via Vittorio Emanuele Ii 209  07041",
      "brand": "Agip Eni",
      "lat": 40.56307,
      "lng": 8.325741,
      "fuels": {
        "sp95": 1.829,
        "gazole": 1.919
      }
    },
    {
      "id": "54097",
      "cp": "",
      "ville": "Arzachena",
      "adresse": "Europa Snc 07021",
      "brand": "Esso",
      "lat": 41.0779889,
      "lng": 9.3901389,
      "fuels": {
        "sp95": 1.819,
        "gazole": 1.919
      }
    },
    {
      "id": "48015",
      "cp": "",
      "ville": "Arzachena",
      "adresse": "Loc Porto Cervo Sp 59 Snc 07021",
      "brand": "Agip Eni",
      "lat": 41.128528783047344,
      "lng": 9.530357980232939,
      "fuels": {
        "sp95": 1.859,
        "gazole": 1.964
      }
    },
    {
      "id": "58090",
      "cp": "",
      "ville": "Arzachena",
      "adresse": "loc. Cannigione  Snc",
      "brand": "Agip Eni",
      "lat": 41.10758,
      "lng": 9.438788,
      "fuels": {
        "sp95": 1.829,
        "gazole": 1.919
      }
    },
    {
      "id": "52136",
      "cp": "",
      "ville": "Arzachena",
      "adresse": "loc. Cascioni - s.p. Baia Sardinia  07021",
      "brand": "Esso",
      "lat": 41.082103293723264,
      "lng": 9.382475194599264,
      "fuels": {
        "sp95": 1.829,
        "gazole": 1.919,
        "gplc": 0.899
      }
    },
    {
      "id": "41215",
      "cp": "",
      "ville": "Arzachena",
      "adresse": "Sp 73  Snc 07021",
      "brand": "Amg Carburanti",
      "lat": 41.06816310009117,
      "lng": 9.442994445562363,
      "fuels": {
        "sp95": 1.834,
        "gazole": 1.934,
        "gplc": 0.899
      }
    },
    {
      "id": "61082",
      "cp": "",
      "ville": "Arzachena",
      "adresse": "sp. Per Porto Cervo  07021",
      "brand": "Tamoil",
      "lat": 41.0991441,
      "lng": 9.52076911,
      "fuels": {
        "sp95": 1.849,
        "gazole": 1.899
      }
    },
    {
      "id": "22410",
      "cp": "",
      "ville": "Arzachena",
      "adresse": "Strada Statale 125 Km 339,250 Sc - 07021",
      "brand": "Agip Eni",
      "lat": 41.06845176980448,
      "lng": 9.420668184869328,
      "fuels": {
        "sp95": 1.829,
        "gazole": 1.919
      }
    },
    {
      "id": "18692",
      "cp": "",
      "ville": "Arzachena",
      "adresse": "Strada Statale 125 km. 343,245  07021",
      "brand": "Esso",
      "lat": 41.082120825884886,
      "lng": 9.382409999999936,
      "fuels": {
        "sp95": 1.836,
        "gazole": 1.956
      }
    },
    {
      "id": "55403",
      "cp": "",
      "ville": "Arzachena",
      "adresse": "Via Baja Sardinia  07021",
      "brand": "Agip Eni",
      "lat": 41.07470312237306,
      "lng": 9.39334618966095,
      "fuels": {
        "sp95": 1.824,
        "gazole": 1.914
      }
    },
    {
      "id": "6684",
      "cp": "",
      "ville": "Arzachena",
      "adresse": "Via Della Costa Smeralda Snc 07020",
      "brand": "q8",
      "lat": 41.076151806448145,
      "lng": 9.392369804962982,
      "fuels": {
        "sp95": 1.809,
        "gazole": 1.909
      }
    },
    {
      "id": "24496",
      "cp": "",
      "ville": "Arzachena",
      "adresse": "Via loc. Mulgianu Snc 07021, Arzachena (ss) Snc 07021",
      "brand": "Fiamma 2000",
      "lat": 41.06452969892728,
      "lng": 9.398202370178524,
      "fuels": {
        "sp95": 1.849,
        "gazole": 1.969
      }
    },
    {
      "id": "6982",
      "cp": "",
      "ville": "Arzachena",
      "adresse": "Viale Costa Smeralda  07021",
      "brand": "Agip Eni",
      "lat": 41.074361034651744,
      "lng": 9.394083023071289,
      "fuels": {
        "sp95": 1.829,
        "gazole": 1.919
      }
    },
    {
      "id": "58369",
      "cp": "",
      "ville": "Badesi",
      "adresse": "prov.le 90 - km.14,425 Snc 07030",
      "brand": "Isola Gas",
      "lat": 40.95154408114322,
      "lng": 8.870711953372972,
      "fuels": {
        "sp95": 1.859,
        "gazole": 1.959
      }
    },
    {
      "id": "43713",
      "cp": "",
      "ville": "Badesi",
      "adresse": "Via Nazionale Snc 07030",
      "brand": "Esso",
      "lat": 40.967031436567325,
      "lng": 8.880734509269246,
      "fuels": {
        "sp95": 1.869,
        "gazole": 1.949
      }
    },
    {
      "id": "46158",
      "cp": "",
      "ville": "Benetutti",
      "adresse": "Tirso 13 07010",
      "brand": "q8",
      "lat": 40.45798545048827,
      "lng": 9.164695563036844,
      "fuels": {
        "sp95": 2.059,
        "gazole": 2.179
      }
    },
    {
      "id": "14287",
      "cp": "",
      "ville": "Berchidda",
      "adresse": "Via Umberto I 50 07022",
      "brand": "Esso",
      "lat": 40.78272250205262,
      "lng": 9.168380498886108,
      "fuels": {
        "sp95": 1.959,
        "gazole": 1.999
      }
    },
    {
      "id": "59214",
      "cp": "",
      "ville": "Bonnanaro",
      "adresse": "Nazionale Snc 07043",
      "brand": "q8",
      "lat": 40.531886,
      "lng": 8.767086,
      "fuels": {
        "sp95": 1.879,
        "gazole": 1.969
      }
    },
    {
      "id": "4210",
      "cp": "",
      "ville": "Bono",
      "adresse": "10m \"cant.tirso\" Sos Nodos Km 51 07011",
      "brand": "Pompe Bianche",
      "lat": 40.411198540681355,
      "lng": 9.065241515636444,
      "fuels": {
        "sp95": 1.999,
        "gazole": 2.099,
        "gplc": 1.399
      }
    },
    {
      "id": "34752",
      "cp": "",
      "ville": "Bono",
      "adresse": "Via Grazia Deledda Snc 07011",
      "brand": "Esso",
      "lat": 40.413433966883986,
      "lng": 9.033567309379578,
      "fuels": {
        "sp95": 1.926,
        "gazole": 2.026
      }
    },
    {
      "id": "24304",
      "cp": "",
      "ville": "Bonorva",
      "adresse": "Corso Umberto I  07012",
      "brand": "Esso",
      "lat": 40.41676992877172,
      "lng": 8.767178192203346,
      "fuels": {
        "sp95": 1.899,
        "gazole": 1.949
      }
    },
    {
      "id": "57191",
      "cp": "",
      "ville": "Bonorva",
      "adresse": "Umberto s.n.c. 07012",
      "brand": "Esso",
      "lat": 40.416139,
      "lng": 8.763861,
      "fuels": {
        "sp95": 1.869,
        "gazole": 1.919
      }
    },
    {
      "id": "49247",
      "cp": "",
      "ville": "Bottidda",
      "adresse": "Strada Provinciale 10m Km 48 01 07010",
      "brand": "Pompe Bianche",
      "lat": 40.37280976093953,
      "lng": 9.049652516841888,
      "fuels": {
        "sp95": 1.979,
        "gazole": 2.049
      }
    },
    {
      "id": "39135",
      "cp": "",
      "ville": "Buddusò",
      "adresse": "Statale 389 Di Budduso' E Del correboi, km. 0.900, dir. Sassari  07020",
      "brand": "Pompe Bianche",
      "lat": 40.57937969932966,
      "lng": 9.249831140041351,
      "fuels": {
        "sp95": 2.199,
        "gazole": 2.389
      }
    },
    {
      "id": "26210",
      "cp": "",
      "ville": "Buddusò",
      "adresse": "Statale 389 Di Budduso' E Del correboi, km. 36, dir. Olbia - 07020",
      "brand": "Agip Eni",
      "lat": 40.58730232696869,
      "lng": 9.261215776205063,
      "fuels": {
        "sp95": 1.829,
        "gazole": 1.919,
        "gplc": 1.049
      }
    },
    {
      "id": "26437",
      "cp": "",
      "ville": "Budoni",
      "adresse": "Nazionale 175 07051",
      "brand": "q8",
      "lat": 40.7068231029546,
      "lng": 9.701749831438065,
      "fuels": {
        "sp95": 1.869,
        "gazole": 1.979
      }
    },
    {
      "id": "56975",
      "cp": "",
      "ville": "Budoni",
      "adresse": "s.s. 131 Dcn Km 112,800 Snc 08020",
      "brand": "Agip Eni",
      "lat": 40.701321,
      "lng": 9.696921,
      "fuels": {
        "sp95": 1.829,
        "gazole": 1.919,
        "gplc": 0.919
      }
    },
    {
      "id": "9556",
      "cp": "",
      "ville": "Budoni",
      "adresse": "Statale 131 Diramazione Centrale nuorese, km. 113,282, dir. Olbia - 08020",
      "brand": "Agip Eni",
      "lat": 40.7017503816923,
      "lng": 9.697351277136477,
      "fuels": {
        "sp95": 1.829,
        "gazole": 1.919,
        "gplc": 0.93
      }
    },
    {
      "id": "38232",
      "cp": "",
      "ville": "Calangianus",
      "adresse": "Località La Sarra Snc 07023",
      "brand": "Pompe Bianche",
      "lat": 40.916600360090484,
      "lng": 9.167602062225342,
      "fuels": {
        "sp95": 1.89,
        "gazole": 1.979
      }
    },
    {
      "id": "61953",
      "cp": "",
      "ville": "Calangianus",
      "adresse": "p.zza Fonte Vecchia  Snc",
      "brand": "Agip Eni",
      "lat": 40.920254,
      "lng": 9.195821,
      "fuels": {
        "sp95": 1.829,
        "gazole": 1.919
      }
    },
    {
      "id": "47662",
      "cp": "",
      "ville": "Castelsardo",
      "adresse": "200 Dell'anglona, km. 38, Castelsardo  07031",
      "brand": "q8",
      "lat": 40.90406719062777,
      "lng": 8.688006046627041,
      "fuels": {
        "sp95": 1.849,
        "gazole": 1.929
      }
    },
    {
      "id": "50205",
      "cp": "",
      "ville": "Castelsardo",
      "adresse": "Strada Provinciale 90 km124 - Localita' L'Eni  Snc 07031",
      "brand": "Esso",
      "lat": 40.895647729378204,
      "lng": 8.761415576057447,
      "fuels": {
        "sp95": 1.849,
        "gazole": 1.939
      }
    },
    {
      "id": "6047",
      "cp": "",
      "ville": "Cheremule",
      "adresse": "131 Carlo felice, km. 171,350, Sassari  07040",
      "brand": "Agip Eni",
      "lat": 40.47974206194779,
      "lng": 8.750090984960934,
      "fuels": {
        "sp95": 1.829,
        "gazole": 1.919
      }
    },
    {
      "id": "59197",
      "cp": "",
      "ville": "Chiaramonti",
      "adresse": "s.s. 672 km. 12,574 Snc 07030",
      "brand": "q8",
      "lat": 40.72929684883104,
      "lng": 8.814128201321706,
      "fuels": {
        "sp95": 1.849,
        "gazole": 1.919
      }
    },
    {
      "id": "38233",
      "cp": "",
      "ville": "Codrongianos",
      "adresse": "Strada Provinciale 68, km0,300  Sn 07040",
      "brand": "Pompe Bianche",
      "lat": 40.65060316379984,
      "lng": 8.691092133522034,
      "fuels": {
        "sp95": 1.929,
        "gazole": 1.999
      }
    },
    {
      "id": "30213",
      "cp": "",
      "ville": "Cossoine",
      "adresse": "Localita' Santa Ittoria Snc 07010",
      "brand": "Pompe Bianche",
      "lat": 40.436228016609974,
      "lng": 8.730235995866224,
      "fuels": {
        "sp95": 1.899,
        "gazole": 1.999
      }
    },
    {
      "id": "5765",
      "cp": "",
      "ville": "Giave",
      "adresse": "Statale 131 Carlo felice, km. 169.700, dir. Cagliari Snc 07010",
      "brand": "q8",
      "lat": 40.4677516256368,
      "lng": 8.739798367023468,
      "fuels": {
        "sp95": 1.839,
        "gazole": 1.919,
        "gplc": 0.824
      }
    },
    {
      "id": "56633",
      "cp": "",
      "ville": "Golfo Aranci",
      "adresse": "Via Libertà 188 07020",
      "brand": "Esso",
      "lat": 41.00270266805318,
      "lng": 9.610977172851562,
      "fuels": {
        "sp95": 1.829,
        "gazole": 1.919
      }
    },
    {
      "id": "54763",
      "cp": "",
      "ville": "Ittiri",
      "adresse": "Irventi s.p. Ittiri Sassari s.n. 07044",
      "brand": "q8",
      "lat": 40.7273,
      "lng": 8.5588,
      "fuels": {
        "sp95": 1.869,
        "gazole": 1.989
      }
    },
    {
      "id": "32425",
      "cp": "",
      "ville": "Ittiri",
      "adresse": "Via Sassari Snc 07044",
      "brand": "Tamoil",
      "lat": 40.59458703309229,
      "lng": 8.566604010774654,
      "fuels": {
        "sp95": 1.869,
        "gazole": 1.989
      }
    },
    {
      "id": "50720",
      "cp": "",
      "ville": "Ittiri",
      "adresse": "Via Sassari Snc 07044",
      "brand": "Esso",
      "lat": 40.59588627715675,
      "lng": 8.566408047614823,
      "fuels": {
        "sp95": 1.949,
        "gazole": 1.989
      }
    },
    {
      "id": "41662",
      "cp": "",
      "ville": "La Maddalena",
      "adresse": "Via Ammiraglio Mirabello Snc 07024",
      "brand": "Agip Eni",
      "lat": 41.217110960861554,
      "lng": 9.428400546312332,
      "fuels": {
        "sp95": 1.859,
        "gazole": 1.964
      }
    },
    {
      "id": "41626",
      "cp": "",
      "ville": "La Maddalena",
      "adresse": "Via Padule .snct 07024",
      "brand": "Esso",
      "lat": 41.2115771422751,
      "lng": 9.392246633603236,
      "fuels": {
        "sp95": 1.839,
        "gazole": 1.899
      }
    },
    {
      "id": "37384",
      "cp": "",
      "ville": "Loiri Porto San Paolo",
      "adresse": "La Castagna Snc 07020",
      "brand": "q8",
      "lat": 40.838056759953446,
      "lng": 9.5542511343956,
      "fuels": {
        "sp95": 1.879,
        "gazole": 1.989,
        "gplc": 0.899
      }
    },
    {
      "id": "57192",
      "cp": "",
      "ville": "Loiri Porto San Paolo",
      "adresse": "La Castagna Snc 07020",
      "brand": "Tamoil",
      "lat": 40.8447233,
      "lng": 9.4939456,
      "fuels": {
        "sp95": 1.9,
        "gazole": 2.05,
        "gplc": 0.81
      }
    },
    {
      "id": "38598",
      "cp": "",
      "ville": "Luogosanto",
      "adresse": "Via nazionale, loc. Bulbuseddu 21 07020",
      "brand": "Tamoil",
      "lat": 41.10523563537348,
      "lng": 9.258963391184807,
      "fuels": {
        "sp95": 1.829,
        "gazole": 1.969
      }
    },
    {
      "id": "38597",
      "cp": "",
      "ville": "Luogosanto",
      "adresse": "Via Vittorio Emanuele 147 07020",
      "brand": "Tamoil",
      "lat": 41.055330016255134,
      "lng": 9.204109534621239,
      "fuels": {
        "sp95": 1.829,
        "gazole": 1.979
      }
    },
    {
      "id": "11206",
      "cp": "",
      "ville": "Luras",
      "adresse": "Via Nazionale  07025",
      "brand": "Agip Eni",
      "lat": 40.934819607075625,
      "lng": 9.177730679512024,
      "fuels": {
        "sp95": 1.829,
        "gazole": 1.919
      }
    },
    {
      "id": "37584",
      "cp": "",
      "ville": "Monti",
      "adresse": "Statale 199 Di monti, km. 50+050, dir. Sassari  07020",
      "brand": "q8",
      "lat": 40.84443582007921,
      "lng": 9.410894438624382,
      "fuels": {
        "sp95": 1.849,
        "gazole": 1.989
      }
    },
    {
      "id": "59517",
      "cp": "",
      "ville": "Mores",
      "adresse": "Vittorio Emanuele Snc 07013",
      "brand": "q8",
      "lat": 40.54901078538302,
      "lng": 8.832444256258007,
      "fuels": {
        "sp95": 1.929,
        "gazole": 2.049
      }
    },
    {
      "id": "56775",
      "cp": "",
      "ville": "Muros",
      "adresse": "ss. 131 Carlo Felice km. 202+075  07030",
      "brand": "Tamoil",
      "lat": 40.6932203,
      "lng": 8.61998274,
      "fuels": {
        "sp95": 1.819,
        "gazole": 1.869,
        "gplc": 0.829
      }
    },
    {
      "id": "7503",
      "cp": "",
      "ville": "Muros",
      "adresse": "Statale 131 Carlo felice, km. 202, dir. Cagliari  07030",
      "brand": "Esso",
      "lat": 40.690087624536034,
      "lng": 8.623902797698975,
      "fuels": {
        "sp95": 1.799,
        "gazole": 1.879
      }
    },
    {
      "id": "47898",
      "cp": "",
      "ville": "Nulvi",
      "adresse": "127 km. 96,750 Snc 07032",
      "brand": "Tamoil",
      "lat": 40.779116953413634,
      "lng": 8.744169306134241,
      "fuels": {
        "sp95": 1.939,
        "gazole": 1.989
      }
    },
    {
      "id": "54094",
      "cp": "",
      "ville": "Nulvi",
      "adresse": "Strada Pronciale 17 Km 0 + 120, - -",
      "brand": "Pompe Bianche",
      "lat": 40.7924763244122,
      "lng": 8.745246268808842,
      "fuels": {
        "sp95": 1.999,
        "gazole": 1.999
      }
    },
    {
      "id": "42679",
      "cp": "",
      "ville": "Olbia",
      "adresse": "125 Orientale sarda, km. 308+470, Olbia - 07026",
      "brand": "q8",
      "lat": 40.89313038759154,
      "lng": 9.570595361464484,
      "fuels": {
        "sp95": 1.885,
        "gazole": 1.985
      }
    },
    {
      "id": "28049",
      "cp": "",
      "ville": "Olbia",
      "adresse": "127,  km. 3,400 Snc 07026",
      "brand": "Beyfin",
      "lat": 40.91969851601266,
      "lng": 9.459421634674072,
      "fuels": {
        "sp95": 1.829,
        "gazole": 1.929,
        "gplc": 0.899
      }
    },
    {
      "id": "43088",
      "cp": "",
      "ville": "Olbia",
      "adresse": "131 Diramazione Centrale nuorese, km. 12,971, Olbia Cagliari - 07026",
      "brand": "Pompe Bianche",
      "lat": 40.88696931076803,
      "lng": 9.493136405944824,
      "fuels": {
        "sp95": 1.899,
        "gazole": 1.999,
        "gplc": 0.899
      }
    },
    {
      "id": "57342",
      "cp": "",
      "ville": "Olbia",
      "adresse": "Circonvallazione Lato Nw Snc 07026",
      "brand": "Amg Carburanti",
      "lat": 40.93601349412838,
      "lng": 9.468335608692552,
      "fuels": {
        "sp95": 1.799,
        "gazole": 1.899
      }
    },
    {
      "id": "20587",
      "cp": "",
      "ville": "Olbia",
      "adresse": "Circonvallazione Nord-str.olbia-g.aranci snc, 07026  07026",
      "brand": "q8",
      "lat": 40.94681814256813,
      "lng": 9.519792472387323,
      "fuels": {
        "sp95": 1.869,
        "gazole": 1.999,
        "gplc": 0.945
      }
    },
    {
      "id": "58908",
      "cp": "",
      "ville": "Olbia",
      "adresse": "Nuova s.p. Per Palau  Snc",
      "brand": "Agip Eni",
      "lat": 40.94568,
      "lng": 9.503783,
      "fuels": {
        "sp95": 1.809,
        "gazole": 1.919
      }
    },
    {
      "id": "39645",
      "cp": "",
      "ville": "Olbia",
      "adresse": "s.p. 99-loc. Rudalza  07026",
      "brand": "q8",
      "lat": 40.99867963879966,
      "lng": 9.528735280036926,
      "fuels": {
        "sp95": 1.799,
        "gazole": 1.899
      }
    },
    {
      "id": "33620",
      "cp": "",
      "ville": "Olbia",
      "adresse": "s.s. 127 Via Veneto  07026",
      "brand": "q8",
      "lat": 40.922416660582286,
      "lng": 9.487446355819657,
      "fuels": {
        "sp95": 1.799,
        "gazole": 1.899
      }
    },
    {
      "id": "59580",
      "cp": "",
      "ville": "Olbia",
      "adresse": "Santorre Di Santarosa 61 07026",
      "brand": "Pompe Bianche",
      "lat": 40.3965941,
      "lng": 9.4929486,
      "fuels": {
        "sp95": 1.999,
        "gazole": 2.099
      }
    },
    {
      "id": "54102",
      "cp": "",
      "ville": "Olbia",
      "adresse": "Sp Olbia Gfo Aranci  07026",
      "brand": "q8",
      "lat": 40.9349998,
      "lng": 9.5438887,
      "fuels": {
        "sp95": 1.829,
        "gazole": 1.949
      }
    },
    {
      "id": "58527",
      "cp": "",
      "ville": "Olbia",
      "adresse": "Ss 125 Km 313+129 Lato Destro Snc 07026",
      "brand": "Conad",
      "lat": 40.908026,
      "lng": 9.526473,
      "fuels": {
        "sp95": 1.778,
        "gazole": 1.888,
        "gplc": 0.748
      }
    },
    {
      "id": "59370",
      "cp": "",
      "ville": "Olbia",
      "adresse": "Ss 125 Km 314+945 Via Roma 348",
      "brand": "q8",
      "lat": 40.923576,
      "lng": 9.496443,
      "fuels": {
        "sp95": 1.788,
        "gazole": 1.898
      }
    },
    {
      "id": "58178",
      "cp": "",
      "ville": "Olbia",
      "adresse": "ss125 km.323+189 07026",
      "brand": "Api-Ip",
      "lat": 40.97243018253218,
      "lng": 9.490971251190174,
      "fuels": {
        "sp95": 1.789,
        "gazole": 1.909
      }
    },
    {
      "id": "31703",
      "cp": "",
      "ville": "Olbia",
      "adresse": "Via Barcellona Snc 07026",
      "brand": "Agip Eni",
      "lat": 40.93016870379764,
      "lng": 9.461419209837914,
      "fuels": {
        "sp95": 1.814,
        "gazole": 1.914,
        "gplc": 0.899
      }
    },
    {
      "id": "63328",
      "cp": "",
      "ville": "Olbia",
      "adresse": "Via Basa 2  07026",
      "brand": "Api-Ip",
      "lat": 40.9607701,
      "lng": 9.4926354,
      "fuels": {
        "sp95": 1.799,
        "gazole": 1.899
      }
    },
    {
      "id": "47550",
      "cp": "",
      "ville": "Olbia",
      "adresse": "Via Basa 2 07026",
      "brand": "Api-Ip",
      "lat": 40.96079036088567,
      "lng": 9.492426184547407,
      "fuels": {
        "sp95": 1.799,
        "gazole": 1.959
      }
    },
    {
      "id": "62981",
      "cp": "",
      "ville": "Olbia",
      "adresse": "Via Capo Verde 16 07026",
      "brand": "q8",
      "lat": 40.916847,
      "lng": 9.525515,
      "fuels": {
        "sp95": 1.819,
        "gazole": 1.949
      }
    },
    {
      "id": "37473",
      "cp": "",
      "ville": "Olbia",
      "adresse": "Via Capo Verde Snc 07026",
      "brand": "Pompe Bianche",
      "lat": 40.938058145783984,
      "lng": 9.515345692634583,
      "fuels": {
        "sp95": 1.819,
        "gazole": 1.949
      }
    },
    {
      "id": "42689",
      "cp": "",
      "ville": "Olbia",
      "adresse": "Via Dei Lidi Snc 07026",
      "brand": "Agip Eni",
      "lat": 40.92971103586722,
      "lng": 9.504870930659763,
      "fuels": {
        "sp95": 1.809,
        "gazole": 1.919
      }
    },
    {
      "id": "37457",
      "cp": "",
      "ville": "Olbia",
      "adresse": "Via Roma 159 07026",
      "brand": "Esso",
      "lat": 40.91370103376564,
      "lng": 9.500708774274472,
      "fuels": {
        "sp95": 1.849,
        "gazole": 1.929
      }
    },
    {
      "id": "13447",
      "cp": "",
      "ville": "Olbia",
      "adresse": "Via Vittorio Veneto  07026",
      "brand": "Agip Eni",
      "lat": 40.92171289398148,
      "lng": 9.482757279762268,
      "fuels": {
        "sp95": 1.809,
        "gazole": 1.919
      }
    },
    {
      "id": "39048",
      "cp": "",
      "ville": "Olbia",
      "adresse": "Viale Aldo Moro 324 07026",
      "brand": "Agip Eni",
      "lat": 40.944760239872686,
      "lng": 9.498502761125565,
      "fuels": {
        "sp95": 1.809,
        "gazole": 1.919
      }
    },
    {
      "id": "53239",
      "cp": "",
      "ville": "Olbia",
      "adresse": "Viale Aldo Moro 72 07026",
      "brand": "Esso",
      "lat": 40.93370351974274,
      "lng": 9.499076236193673,
      "fuels": {
        "sp95": 1.829,
        "gazole": 1.919
      }
    },
    {
      "id": "9182",
      "cp": "",
      "ville": "Olbia",
      "adresse": "Viale Italia , 1  ( Zona ind.le  Settore  3 )  07026",
      "brand": "Api-Ip",
      "lat": 40.934276964361516,
      "lng": 9.513697475194931,
      "fuels": {
        "sp95": 1.827,
        "gazole": 1.949,
        "gplc": 0.927
      }
    },
    {
      "id": "60702",
      "cp": "",
      "ville": "Olbia",
      "adresse": "Zara 26 07026",
      "brand": "Esso",
      "lat": 41.045867,
      "lng": 9.469916,
      "fuels": {
        "sp95": 1.829,
        "gazole": 1.949
      }
    },
    {
      "id": "54130",
      "cp": "",
      "ville": "Olmedo",
      "adresse": "291 Var Della Nurra Km 21,800 Snc 07040",
      "brand": "Isola Gas",
      "lat": 40.63584170588893,
      "lng": 8.36754714581967,
      "fuels": {
        "sp95": 1.849,
        "gazole": 1.947
      }
    },
    {
      "id": "59363",
      "cp": "",
      "ville": "Olmedo",
      "adresse": "Risorgimento Snc 07040",
      "brand": "Esso",
      "lat": 40.65334418316283,
      "lng": 8.376826466085676,
      "fuels": {
        "sp95": 1.819,
        "gazole": 1.899
      }
    },
    {
      "id": "30103",
      "cp": "",
      "ville": "Oschiri",
      "adresse": "Statale 199 Di monti, km. 17,000, dir. Olbia -",
      "brand": "Tamoil",
      "lat": 40.71761683963199,
      "lng": 9.095008671283722,
      "fuels": {
        "sp95": 1.959,
        "gazole": 1.969
      }
    },
    {
      "id": "48292",
      "cp": "",
      "ville": "Oschiri",
      "adresse": "Via g. Marconi  07020",
      "brand": "Esso",
      "lat": 40.71887643542592,
      "lng": 9.098529741168022,
      "fuels": {
        "sp95": 1.939,
        "gazole": 1.969
      }
    },
    {
      "id": "33686",
      "cp": "",
      "ville": "Osilo",
      "adresse": "Piazza San Valentino  07033",
      "brand": "q8",
      "lat": 40.74151770357768,
      "lng": 8.673797613789702,
      "fuels": {
        "sp95": 1.939,
        "gazole": 2.049
      }
    },
    {
      "id": "25346",
      "cp": "",
      "ville": "Ossi",
      "adresse": "p.zza Giovanni Xxiii  07045",
      "brand": "Api-Ip",
      "lat": 40.67629898290094,
      "lng": 8.588676442956967,
      "fuels": {
        "sp95": 1.799,
        "gazole": 1.889
      }
    },
    {
      "id": "15701",
      "cp": "",
      "ville": "Ozieri",
      "adresse": "Largo prof. Soro 1 07014",
      "brand": "Esso",
      "lat": 40.586565368486674,
      "lng": 9.001378118991852,
      "fuels": {
        "sp95": 1.789,
        "gazole": 1.959
      }
    },
    {
      "id": "51272",
      "cp": "",
      "ville": "Ozieri",
      "adresse": "loc. Chilivani s.p. 63 Snc 07014",
      "brand": "Mesu E Rios",
      "lat": 40.61074559767934,
      "lng": 8.928154141313808,
      "fuels": {
        "sp95": 1.819,
        "gazole": 1.939
      }
    },
    {
      "id": "59497",
      "cp": "",
      "ville": "Ozieri",
      "adresse": "Provinciale 1 Km 2,00 Snc 07014",
      "brand": "Isola Gas",
      "lat": 40.604092566537325,
      "lng": 8.98817420024069,
      "fuels": {
        "sp95": 1.799,
        "gazole": 1.937,
        "gplc": 0.859
      }
    },
    {
      "id": "22220",
      "cp": "",
      "ville": "Ozieri",
      "adresse": "Regione Mesu E Rios  07014",
      "brand": "Mesu E Rios",
      "lat": 40.63361705480217,
      "lng": 8.871915340423579,
      "fuels": {
        "sp95": 1.819,
        "gazole": 1.939
      }
    },
    {
      "id": "4262",
      "cp": "",
      "ville": "Ozieri",
      "adresse": "Statale 597 Di logudoro, km. 30+067, dir. Olbia-Sassari - 07014",
      "brand": "q8",
      "lat": 40.66721997767908,
      "lng": 8.97788867354393,
      "fuels": {
        "sp95": 1.859,
        "gazole": 1.989
      }
    },
    {
      "id": "6683",
      "cp": "",
      "ville": "Ozieri",
      "adresse": "Via De Gasperi Snc 07014",
      "brand": "q8",
      "lat": 40.58748147029061,
      "lng": 9.00245921289752,
      "fuels": {
        "sp95": 1.739,
        "gazole": 1.909
      }
    },
    {
      "id": "16288",
      "cp": "",
      "ville": "Ozieri",
      "adresse": "Via Vittorio Veneto 2 07014",
      "brand": "Tamoil",
      "lat": 40.58707074481765,
      "lng": 9.001383929430403,
      "fuels": {
        "sp95": 1.769,
        "gazole": 1.949
      }
    },
    {
      "id": "46141",
      "cp": "",
      "ville": "Padru",
      "adresse": "Roma 8 07020",
      "brand": "Isola Gas",
      "lat": 40.764207000123,
      "lng": 9.521742000123,
      "fuels": {
        "sp95": 1.839,
        "gazole": 1.967
      }
    },
    {
      "id": "59227",
      "cp": "",
      "ville": "Palau",
      "adresse": "Piazza Del Molo  07020",
      "brand": "Agip Eni",
      "lat": 41.180733,
      "lng": 9.385214,
      "fuels": {
        "sp95": 1.829,
        "gazole": 1.919
      }
    },
    {
      "id": "43023",
      "cp": "",
      "ville": "Palau",
      "adresse": "Piazza Del Molo Snc 07020",
      "brand": "Esso",
      "lat": 41.18092054827373,
      "lng": 9.384806987582465,
      "fuels": {
        "sp95": 1.839,
        "gazole": 1.939
      }
    },
    {
      "id": "43198",
      "cp": "",
      "ville": "Pattada",
      "adresse": "128 Centrale sarda, km. 20,290, Pattada  07016",
      "brand": "Esso",
      "lat": 40.568948415294855,
      "lng": 9.060577729684853,
      "fuels": {
        "sp95": 1.759,
        "gazole": 1.949
      }
    },
    {
      "id": "62349",
      "cp": "",
      "ville": "Perfugas",
      "adresse": "Via Mazzini  Snc",
      "brand": "Agip Eni",
      "lat": 40.83058,
      "lng": 8.885833,
      "fuels": {
        "sp95": 1.829,
        "gazole": 1.919
      }
    },
    {
      "id": "30824",
      "cp": "",
      "ville": "Ploaghe",
      "adresse": "68 - Km 3,700 Snc 07017",
      "brand": "Tamoil",
      "lat": 40.66118166700214,
      "lng": 8.724697530269623,
      "fuels": {
        "sp95": 1.819,
        "gazole": 1.889
      }
    },
    {
      "id": "50131",
      "cp": "",
      "ville": "Porto Torres",
      "adresse": "131 Carlo felice, km. 233,800, Sassari  - 07046",
      "brand": "Esso",
      "lat": 40.82515610593993,
      "lng": 8.411824811741093,
      "fuels": {
        "sp95": 1.809,
        "gazole": 1.909
      }
    },
    {
      "id": "62227",
      "cp": "",
      "ville": "Porto Torres",
      "adresse": "Antonio Pigafetta 119 07046",
      "brand": "Pompe Bianche",
      "lat": 40.8151086905001,
      "lng": 8.376875516638185,
      "fuels": {
        "sp95": 1.829,
        "gazole": 1.958,
        "gplc": 0.899
      }
    },
    {
      "id": "54280",
      "cp": "",
      "ville": "Porto Torres",
      "adresse": "Lungomare Balai 1 07046",
      "brand": "Esso",
      "lat": 40.83805107806576,
      "lng": 8.404358625411987,
      "fuels": {
        "sp95": 1.819,
        "gazole": 1.929
      }
    },
    {
      "id": "59767",
      "cp": "",
      "ville": "Porto Torres",
      "adresse": "s.s. 131 km. 233,400  Snc",
      "brand": "Agip Eni",
      "lat": 40.826275,
      "lng": 8.409813,
      "fuels": {
        "sp95": 1.809,
        "gazole": 1.919
      }
    },
    {
      "id": "6682",
      "cp": "",
      "ville": "Porto Torres",
      "adresse": "Ss 131 Km 229+825 Snc 07046",
      "brand": "q8",
      "lat": 40.80634482309844,
      "lng": 8.442750191505866,
      "fuels": {
        "sp95": 1.789,
        "gazole": 1.896
      }
    },
    {
      "id": "21721",
      "cp": "",
      "ville": "Porto Torres",
      "adresse": "Via Dell'Industria 9  07046",
      "brand": "Pompe Bianche",
      "lat": 40.8282033,
      "lng": 8.40144,
      "fuels": {
        "sp95": 1.999,
        "gazole": 2.099,
        "gplc": 0.899
      }
    },
    {
      "id": "6874",
      "cp": "",
      "ville": "Porto Torres",
      "adresse": "Via Delle Liberta'  07046",
      "brand": "Conad",
      "lat": 40.830499588775496,
      "lng": 8.413695394992828,
      "fuels": {
        "sp95": 1.818,
        "gazole": 1.918
      }
    },
    {
      "id": "23765",
      "cp": "",
      "ville": "Porto Torres",
      "adresse": "Via Sassari 93 07046",
      "brand": "Agip Eni",
      "lat": 40.831706918861876,
      "lng": 8.403610289096832,
      "fuels": {
        "sp95": 1.809,
        "gazole": 1.919
      }
    },
    {
      "id": "8490",
      "cp": "",
      "ville": "Pozzomaggiore",
      "adresse": "Via Grande   Ex Statale 292 Nord Occidentale sarda, km. 121, dir. Padria -193 07018",
      "brand": "q8",
      "lat": 40.39466200284293,
      "lng": 8.654916344488583,
      "fuels": {
        "sp95": 1.859,
        "gazole": 1.939
      }
    },
    {
      "id": "35170",
      "cp": "",
      "ville": "San Teodoro",
      "adresse": "Statale 125 Orientale sarda, km. 289, dir. San Teodoro - 08020",
      "brand": "Esso",
      "lat": 40.76587386028854,
      "lng": 9.654572457075119,
      "fuels": {
        "sp95": 1.869,
        "gazole": 1.979
      }
    },
    {
      "id": "55405",
      "cp": "",
      "ville": "San Teodoro",
      "adresse": "Via Nazionale Snc 07052",
      "brand": "Agip Eni",
      "lat": 40.781701,
      "lng": 9.6581,
      "fuels": {
        "sp95": 1.829,
        "gazole": 1.919
      }
    },
    {
      "id": "52163",
      "cp": "",
      "ville": "Sant'Antonio Di Gallura",
      "adresse": "Sp 38 Km 12 Snc 07030",
      "brand": "Pompe Bianche",
      "lat": 40.96927537842599,
      "lng": 9.274595379829401,
      "fuels": {
        "sp95": 1.851,
        "gazole": 1.921
      }
    },
    {
      "id": "60592",
      "cp": "",
      "ville": "Santa Teresa Gallura",
      "adresse": "s.s. 133 Bis km. 16,493  Snc",
      "brand": "Agip Eni",
      "lat": 41.23215,
      "lng": 9.185786,
      "fuels": {
        "sp95": 1.829,
        "gazole": 1.919
      }
    },
    {
      "id": "18723",
      "cp": "",
      "ville": "Santa Teresa Gallura",
      "adresse": "Statale 133 Di palau, km. 6, dir. Santa Teresa Gallura - 07028",
      "brand": "Esso",
      "lat": 41.1861836341008,
      "lng": 9.268983453512192,
      "fuels": {
        "sp95": 1.839,
        "gazole": 1.939
      }
    },
    {
      "id": "56505",
      "cp": "",
      "ville": "Santa Teresa Gallura",
      "adresse": "Via Nazionale  51 07028",
      "brand": "Esso",
      "lat": 41.23708,
      "lng": 9.18758,
      "fuels": {
        "sp95": 1.839,
        "gazole": 1.939
      }
    },
    {
      "id": "31243",
      "cp": "",
      "ville": "Sassari",
      "adresse": "133 Bis Bivio s. t. Gallura Palau 07029",
      "brand": "Beyfin",
      "lat": 41.16280453695842,
      "lng": 9.312503635883331,
      "fuels": {
        "sp95": 1.869,
        "gazole": 1.989,
        "gplc": 0.989
      }
    },
    {
      "id": "54436",
      "cp": "",
      "ville": "Sassari",
      "adresse": "Carlo Felice 1 07100",
      "brand": "Esso",
      "lat": 40.71822108099891,
      "lng": 8.571746574005132,
      "fuels": {
        "sp95": 1.819,
        "gazole": 1.919
      }
    },
    {
      "id": "26108",
      "cp": "",
      "ville": "Sassari",
      "adresse": "Corso Pascoli  67  07100",
      "brand": "Agip Eni",
      "lat": 40.73563186191682,
      "lng": 8.561055501851683,
      "fuels": {
        "sp95": 1.814,
        "gazole": 1.919
      }
    },
    {
      "id": "61104",
      "cp": "",
      "ville": "Sassari",
      "adresse": "D Italia Snc 07100",
      "brand": "Api-Ip",
      "lat": 40.71584271561822,
      "lng": 8.553180461129756,
      "fuels": {
        "sp95": 1.817,
        "gazole": 1.917
      }
    },
    {
      "id": "59063",
      "cp": "",
      "ville": "Sassari",
      "adresse": "loc. Santa Maria Torres Sn 07100",
      "brand": "Tamoil",
      "lat": 40.763214,
      "lng": 8.346733,
      "fuels": {
        "sp95": 1.819,
        "gazole": 1.919
      }
    },
    {
      "id": "47566",
      "cp": "",
      "ville": "Sassari",
      "adresse": "Piazza Conte Di Moriana 9 07100",
      "brand": "Api-Ip",
      "lat": 40.71870663458026,
      "lng": 8.57052281498909,
      "fuels": {
        "sp95": 1.867,
        "gazole": 1.947
      }
    },
    {
      "id": "50856",
      "cp": "",
      "ville": "Sassari",
      "adresse": "Piazza Santa Maria Snc 07100",
      "brand": "Agip Eni",
      "lat": 40.72698818084469,
      "lng": 8.554462226934696,
      "fuels": {
        "sp95": 1.814,
        "gazole": 1.919
      }
    },
    {
      "id": "29493",
      "cp": "",
      "ville": "Sassari",
      "adresse": "Porto Torres 31 07100",
      "brand": "q8",
      "lat": 40.731551462770106,
      "lng": 8.552521167983969,
      "fuels": {
        "sp95": 1.929,
        "gazole": 2.049
      }
    },
    {
      "id": "58301",
      "cp": "",
      "ville": "Sassari",
      "adresse": "Predda Niedda Strada 1 Snc 07100",
      "brand": "Amg Carburanti",
      "lat": 40.74058038835877,
      "lng": 8.52842889726162,
      "fuels": {
        "sp95": 1.789,
        "gazole": 1.869
      }
    },
    {
      "id": "13185",
      "cp": "",
      "ville": "Sassari",
      "adresse": "Regione Ottava Bivio Platamona  07100",
      "brand": "Esso",
      "lat": 40.78533932623089,
      "lng": 8.469589948654175,
      "fuels": {
        "sp95": 1.809,
        "gazole": 1.919
      }
    },
    {
      "id": "32101",
      "cp": "",
      "ville": "Sassari",
      "adresse": "Regione s. Barbara ang. z.i. p. Niedda Strada 1 07100",
      "brand": "On Carburanti",
      "lat": 40.745039506323224,
      "lng": 8.529434502580216,
      "fuels": {
        "sp95": 1.799,
        "gazole": 1.899
      }
    },
    {
      "id": "23102",
      "cp": "",
      "ville": "Sassari",
      "adresse": "S S 131 Km 224 03 Camionale  07100",
      "brand": "q8",
      "lat": 40.774374174502356,
      "lng": 8.416927456855774,
      "fuels": {
        "sp95": 1.799,
        "gazole": 1.889
      }
    },
    {
      "id": "51787",
      "cp": "",
      "ville": "Sassari",
      "adresse": "s.p 18 Sassari Argentiera  Snc 07100",
      "brand": "q8",
      "lat": 40.734698252609896,
      "lng": 8.458165136668077,
      "fuels": {
        "sp95": 1.869,
        "gazole": 1.989,
        "gplc": 1.111
      }
    },
    {
      "id": "19937",
      "cp": "",
      "ville": "Sassari",
      "adresse": "s.s. 131 Km 209+821  07100",
      "brand": "q8",
      "lat": 40.71234398598453,
      "lng": 8.54481875952456,
      "fuels": {
        "sp95": 1.839,
        "gazole": 1.919,
        "gplc": 0.829
      }
    },
    {
      "id": "62606",
      "cp": "",
      "ville": "Sassari",
      "adresse": "sp. 42 Dei Due Mari km. 10+630 L",
      "brand": "Tamoil",
      "lat": 40.7279376,
      "lng": 8.32706004,
      "fuels": {
        "sp95": 1.819,
        "gazole": 1.899
      }
    },
    {
      "id": "58767",
      "cp": "",
      "ville": "Sassari",
      "adresse": "ss291 Km 12,400",
      "brand": "Api-Ip",
      "lat": 40.7071300993667,
      "lng": 8.418072357619847,
      "fuels": {
        "sp95": 1.789,
        "gazole": 1.869,
        "gplc": 0.882
      }
    },
    {
      "id": "16589",
      "cp": "",
      "ville": "Sassari",
      "adresse": "Statale 291 Della nurra, km. 23,709, dir. Santa Maria La Palma - 07040",
      "brand": "q8",
      "lat": 40.66429433832733,
      "lng": 8.304875493049622,
      "fuels": {
        "sp95": 1.819,
        "gazole": 1.899
      }
    },
    {
      "id": "18763",
      "cp": "",
      "ville": "Sassari",
      "adresse": "Via Amendola   07100",
      "brand": "Agip Eni",
      "lat": 40.723516011391524,
      "lng": 8.552670012626429,
      "fuels": {
        "sp95": 1.814,
        "gazole": 1.919
      }
    },
    {
      "id": "48423",
      "cp": "",
      "ville": "Sassari",
      "adresse": "Via Asproni  07100",
      "brand": "Tamoil",
      "lat": 40.72155287069887,
      "lng": 8.565408217768464,
      "fuels": {
        "sp95": 1.819,
        "gazole": 1.919
      }
    },
    {
      "id": "47892",
      "cp": "",
      "ville": "Sassari",
      "adresse": "Via Budapest 30 07100",
      "brand": "Agip Eni",
      "lat": 40.71390785782291,
      "lng": 8.551501333713526,
      "fuels": {
        "sp95": 1.814,
        "gazole": 1.919
      }
    },
    {
      "id": "47891",
      "cp": "",
      "ville": "Sassari",
      "adresse": "Via Buddi Buddi km.2 Snc 07100",
      "brand": "Agip Eni",
      "lat": 40.75418176540254,
      "lng": 8.542084693908691,
      "fuels": {
        "sp95": 1.814,
        "gazole": 1.919
      }
    },
    {
      "id": "15706",
      "cp": "",
      "ville": "Sassari",
      "adresse": "Via Caniga 35 07100",
      "brand": "Europam",
      "lat": 40.722399175729315,
      "lng": 8.532549810234059,
      "fuels": {
        "sp95": 1.839,
        "gazole": 1.939,
        "gplc": 0.829
      }
    },
    {
      "id": "9565",
      "cp": "",
      "ville": "Sassari",
      "adresse": "Via Carlo Felice  07100",
      "brand": "Api-Ip",
      "lat": 40.715843616001266,
      "lng": 8.577968311657742,
      "fuels": {
        "sp95": 1.919,
        "gazole": 2.019
      }
    },
    {
      "id": "23647",
      "cp": "",
      "ville": "Sassari",
      "adresse": "Via Carlo Felice  07100",
      "brand": "q8",
      "lat": 40.71414486389693,
      "lng": 8.582475760118882,
      "fuels": {
        "sp95": 1.839,
        "gazole": 1.939
      }
    },
    {
      "id": "26109",
      "cp": "",
      "ville": "Sassari",
      "adresse": "Via g. Pascoli ang. Via Montello Snc 07100",
      "brand": "Agip Eni",
      "lat": 40.73603879678138,
      "lng": 8.560530245304108,
      "fuels": {
        "sp95": 1.784,
        "gazole": 1.849
      }
    },
    {
      "id": "53881",
      "cp": "",
      "ville": "Sassari",
      "adresse": "Via Giovanni Maria Angioy 2  07100",
      "brand": "Esso",
      "lat": 40.724673196087494,
      "lng": 8.557660281658173,
      "fuels": {
        "sp95": 1.839,
        "gazole": 1.949
      }
    },
    {
      "id": "62548",
      "cp": "",
      "ville": "Sassari",
      "adresse": "Via Latte Dolce  Snc",
      "brand": "Agip Eni",
      "lat": 40.748516,
      "lng": 8.551287,
      "fuels": {
        "sp95": 1.809,
        "gazole": 1.919,
        "gplc": 0.882
      }
    },
    {
      "id": "55444",
      "cp": "",
      "ville": "Sassari",
      "adresse": "Via Luigi Pirandello 4 07100",
      "brand": "Esso",
      "lat": 40.74405582786743,
      "lng": 8.560237790282427,
      "fuels": {
        "sp95": 1.819,
        "gazole": 1.939
      }
    },
    {
      "id": "53538",
      "cp": "",
      "ville": "Sassari",
      "adresse": "Via Napoli Sassari 4 07100",
      "brand": "q8",
      "lat": 40.7181655195653,
      "lng": 8.561468315628046,
      "fuels": {
        "sp95": 1.859,
        "gazole": 1.959
      }
    },
    {
      "id": "62073",
      "cp": "",
      "ville": "Sassari",
      "adresse": "Via p. Torres Snc 07100",
      "brand": "Api-Ip",
      "lat": 40.73202,
      "lng": 8.55125,
      "fuels": {
        "sp95": 1.817,
        "gazole": 1.917
      }
    },
    {
      "id": "50298",
      "cp": "",
      "ville": "Sassari",
      "adresse": "Via Porto Torres Snc 07100",
      "brand": "Auchan",
      "lat": 40.73930951474753,
      "lng": 8.536246443684561,
      "fuels": {
        "sp95": 1.779,
        "gazole": 1.859
      }
    },
    {
      "id": "21278",
      "cp": "",
      "ville": "Sassari",
      "adresse": "Via Predda Niedda 2/d, 07100",
      "brand": "Esso",
      "lat": 40.7286679812227,
      "lng": 8.548544166470265,
      "fuels": {
        "sp95": 1.839,
        "gazole": 1.919
      }
    },
    {
      "id": "27872",
      "cp": "",
      "ville": "Sassari",
      "adresse": "Via z. ind.le Predda Niedda - Strada n. 24 s.n.c. 07100, Sassari (ss) Snc 07100",
      "brand": "Nonnaisa Station",
      "lat": 40.72921007552905,
      "lng": 8.54210615158081,
      "fuels": {
        "sp95": 1.839,
        "gazole": 1.939
      }
    },
    {
      "id": "62251",
      "cp": "",
      "ville": "Sassari",
      "adresse": "Viale Coppino Ang R Margherita",
      "brand": "q8",
      "lat": 40.725369,
      "lng": 8.5566667,
      "fuels": {
        "sp95": 1.829,
        "gazole": 1.939
      }
    },
    {
      "id": "48366",
      "cp": "",
      "ville": "Sassari",
      "adresse": "Viale Dante Snc 07100",
      "brand": "Esso",
      "lat": 40.71686456425305,
      "lng": 8.568660662963552,
      "fuels": {
        "sp95": 1.849,
        "gazole": 1.989
      }
    },
    {
      "id": "42700",
      "cp": "",
      "ville": "Sassari",
      "adresse": "Viale Porto Torres 49/B 07100",
      "brand": "Agip Eni",
      "lat": 40.73302107167759,
      "lng": 8.548667523278823,
      "fuels": {
        "sp95": 1.814,
        "gazole": 1.919
      }
    },
    {
      "id": "62101",
      "cp": "",
      "ville": "Sassari",
      "adresse": "Zona Industriale Predda Niedda  Snc 07100",
      "brand": "Isola Gas",
      "lat": 40.72675304147218,
      "lng": 8.526121927405404,
      "fuels": {
        "sp95": 1.829,
        "gazole": 1.929
      }
    },
    {
      "id": "9561",
      "cp": "",
      "ville": "Sassari",
      "adresse": "Zona Industriale Predda Niedda Strada 18 -, 07100 - -",
      "brand": "Esso",
      "lat": 40.73482789720996,
      "lng": 8.539332747459412,
      "fuels": {
        "sp95": 1.809,
        "gazole": 1.899
      }
    },
    {
      "id": "50048",
      "cp": "",
      "ville": "Sedini",
      "adresse": "Li Suari Snc 07035",
      "brand": "Pompe Bianche",
      "lat": 40.86935924930102,
      "lng": 8.801465684108537,
      "fuels": {
        "sp95": 1.869,
        "gazole": 1.969
      }
    },
    {
      "id": "23015",
      "cp": "",
      "ville": "Sennori",
      "adresse": "Via Roma 177 07036",
      "brand": "Agip Eni",
      "lat": 40.78815831330133,
      "lng": 8.588462769985199,
      "fuels": {
        "sp95": 1.814,
        "gazole": 1.919
      }
    },
    {
      "id": "61107",
      "cp": "",
      "ville": "Siligo",
      "adresse": "Sa Figu Bianca Snc 07040",
      "brand": "Mesu E Rios",
      "lat": 40.595543434289326,
      "lng": 8.729145595135499,
      "fuels": {
        "sp95": 1.886,
        "gazole": 2.019
      }
    },
    {
      "id": "47899",
      "cp": "",
      "ville": "Sorso",
      "adresse": "Sorso-Porto Torres km4,929 Snc 07037",
      "brand": "Tamoil",
      "lat": 40.80256810897907,
      "lng": 8.522417386864785,
      "fuels": {
        "sp95": 1.799,
        "gazole": 1.899
      }
    },
    {
      "id": "51775",
      "cp": "",
      "ville": "Sorso",
      "adresse": "Strada statale, km. 18, Sorso - 07037",
      "brand": "q8",
      "lat": 40.84949793779533,
      "lng": 8.61019074916839,
      "fuels": {
        "sp95": 1.849,
        "gazole": 1.929,
        "gplc": 0.899
      }
    },
    {
      "id": "59106",
      "cp": "",
      "ville": "Sorso",
      "adresse": "Via Castelsardo Snc 07037",
      "brand": "Isola Gas",
      "lat": 40.80405197112038,
      "lng": 8.582604443095763,
      "fuels": {
        "sp95": 1.847,
        "gazole": 1.947
      }
    },
    {
      "id": "54995",
      "cp": "",
      "ville": "Sorso",
      "adresse": "Viale San Cottoni 31 07037",
      "brand": "q8",
      "lat": 40.79674166412518,
      "lng": 8.574813332557678,
      "fuels": {
        "sp95": 1.847,
        "gazole": 1.947
      }
    },
    {
      "id": "54051",
      "cp": "",
      "ville": "Stintino",
      "adresse": "Loc Unia  07100",
      "brand": "Pompe Bianche",
      "lat": 40.86489336094594,
      "lng": 8.237767050987252,
      "fuels": {
        "sp95": 1.849,
        "gazole": 1.959
      }
    },
    {
      "id": "54052",
      "cp": "",
      "ville": "Stintino",
      "adresse": "Sp La Pelosa Snc 07040",
      "brand": "Pompe Bianche",
      "lat": 40.936164324809255,
      "lng": 8.221259805773915,
      "fuels": {
        "sp95": 1.849,
        "gazole": 1.959
      }
    },
    {
      "id": "52961",
      "cp": "",
      "ville": "Telti",
      "adresse": "ss127 Km 15.093 07020",
      "brand": "Esso",
      "lat": 40.8723,
      "lng": 9.35968,
      "fuels": {
        "sp95": 1.829,
        "gazole": 1.959
      }
    },
    {
      "id": "42101",
      "cp": "",
      "ville": "Tempio Pausania",
      "adresse": "Settembrini Snc 07029",
      "brand": "Tamoil",
      "lat": 40.900187109405515,
      "lng": 9.105227214477509,
      "fuels": {
        "sp95": 1.839,
        "gazole": 1.919
      }
    },
    {
      "id": "53144",
      "cp": "",
      "ville": "Tempio Pausania",
      "adresse": "Via Olbia 40 07027",
      "brand": "Esso",
      "lat": 40.904883081622195,
      "lng": 9.119123411045052,
      "fuels": {
        "sp95": 1.829,
        "gazole": 1.919
      }
    },
    {
      "id": "6994",
      "cp": "",
      "ville": "Tempio Pausania",
      "adresse": "Via Palau 21, 07029 - -",
      "brand": "Agip Eni",
      "lat": 40.90523402363672,
      "lng": 9.09940481185913,
      "fuels": {
        "sp95": 1.829,
        "gazole": 1.919
      }
    },
    {
      "id": "61041",
      "cp": "",
      "ville": "Tempio Pausania",
      "adresse": "Zona Industriale - Strada Per Oschiri Snc 07029",
      "brand": "Isola Gas",
      "lat": 40.89714132933976,
      "lng": 9.145859597553256,
      "fuels": {
        "sp95": 1.839,
        "gazole": 1.947,
        "gplc": 0.859
      }
    },
    {
      "id": "61399",
      "cp": "",
      "ville": "Thiesi",
      "adresse": "s. s. 131 km. 3,825 Snc 07047",
      "brand": "q8",
      "lat": 40.519191559415354,
      "lng": 8.72819726983641,
      "fuels": {
        "sp95": 1.909,
        "gazole": 1.939
      }
    },
    {
      "id": "56288",
      "cp": "",
      "ville": "Thiesi",
      "adresse": "ss. 131 Bis km. 3+995",
      "brand": "Tamoil",
      "lat": 40.5203016,
      "lng": 8.72757352,
      "fuels": {
        "sp95": 1.849,
        "gazole": 1.949
      }
    },
    {
      "id": "4014",
      "cp": "",
      "ville": "Tula",
      "adresse": "Via Rino Canalis 100 07010",
      "brand": "Pompe Bianche",
      "lat": 40.72955594119018,
      "lng": 8.983185262565598,
      "fuels": {
        "sp95": 2.109,
        "gazole": 2.109
      }
    },
    {
      "id": "54339",
      "cp": "",
      "ville": "Uri",
      "adresse": "Strada Provinciale 15m Km 10.500 Snc 07040",
      "brand": "Pompe Bianche",
      "lat": 40.64486,
      "lng": 8.51288,
      "fuels": {
        "sp95": 1.849,
        "gazole": 1.949,
        "gplc": 0.799
      }
    },
    {
      "id": "15444",
      "cp": "",
      "ville": "Uri",
      "adresse": "Via Sassari Snc 07040",
      "brand": "q8",
      "lat": 40.64225758804755,
      "lng": 8.482901751995087,
      "fuels": {
        "sp95": 1.929,
        "gazole": 2.049
      }
    },
    {
      "id": "25427",
      "cp": "",
      "ville": "Usini",
      "adresse": "Via San Giorgio Snc 07049",
      "brand": "Esso",
      "lat": 40.66524484751794,
      "lng": 8.536056350957097,
      "fuels": {
        "sp95": 1.876,
        "gazole": 1.976
      }
    },
    {
      "id": "16014",
      "cp": "",
      "ville": "Valledoria",
      "adresse": "Corso Europa 86 07039",
      "brand": "Tamoil",
      "lat": 40.92728178569798,
      "lng": 8.82073000073433,
      "fuels": {
        "sp95": 1.849,
        "gazole": 1.899
      }
    },
    {
      "id": "62376",
      "cp": "",
      "ville": "Valledoria",
      "adresse": "Corso Europa Snc 07039",
      "brand": "Agip Eni",
      "lat": 40.92677994218124,
      "lng": 8.817918923356615,
      "fuels": {
        "sp95": 1.829,
        "gazole": 1.919
      }
    },
    {
      "id": "41213",
      "cp": "",
      "ville": "Valledoria",
      "adresse": "sp90 Km 15 07039",
      "brand": "Amg Carburanti",
      "lat": 40.90544324631864,
      "lng": 8.800830653527818,
      "fuels": {
        "sp95": 1.864,
        "gazole": 1.964,
        "gplc": 0.899
      }
    },
    {
      "id": "50049",
      "cp": "",
      "ville": "Viddalba",
      "adresse": "Tempio 7 07030",
      "brand": "Pompe Bianche",
      "lat": 40.91797816109608,
      "lng": 8.894601842703945,
      "fuels": {
        "sp95": 1.869,
        "gazole": 1.979
      }
    },
    {
      "id": "25656",
      "cp": "",
      "ville": "Villanova Monteleone",
      "adresse": "Via Su Laccheddu Sn 07019",
      "brand": "q8",
      "lat": 40.50108055002828,
      "lng": 8.476226499683435,
      "fuels": {
        "sp95": 1.869,
        "gazole": 1.939
      }
    }
  ]
}