{
  "code": "SV",
  "name": "Savona",
  "regionCode": "LIG",
  "regionName": "Liguria",
  "asOf": "2026-07-11T13:58:28.284Z",
  "source": "https://www.mimit.gov.it/it/open-data/elenco-dataset/2032336-dataset-prezzi-carburanti",
  "stationCount": 119,
  "fuels": {
    "gazole": {
      "count": 116,
      "mean": 1.9794,
      "median": 1.9815,
      "min": 1.309,
      "max": 2.129
    },
    "sp95": {
      "count": 116,
      "mean": 1.885,
      "median": 1.879,
      "min": 1.712,
      "max": 2.009
    },
    "e85": {
      "count": 3,
      "mean": 1.3757,
      "median": 1.399,
      "min": 1.329,
      "max": 1.399
    },
    "gplc": {
      "count": 11,
      "mean": 0.8438,
      "median": 0.822,
      "min": 0.759,
      "max": 0.946
    }
  },
  "stations": [
    {
      "id": "58964",
      "cp": "",
      "ville": "Alassio",
      "adresse": "Banchina Del Porto\t 80 17021",
      "brand": "Europam",
      "lat": 44.01725269547141,
      "lng": 8.193099985284809,
      "fuels": {
        "sp95": 1.999,
        "gazole": 1.899
      }
    },
    {
      "id": "62233",
      "cp": "",
      "ville": "Alassio",
      "adresse": "Da Vinci ang. c.so Europa 257 17021",
      "brand": "Api-Ip",
      "lat": 43.99917746105419,
      "lng": 8.165337097264796,
      "fuels": {
        "sp95": 1.899,
        "gazole": 2.049
      }
    },
    {
      "id": "20073",
      "cp": "",
      "ville": "Alassio",
      "adresse": "Via San Giovanni Bosco 53 17021",
      "brand": "Agip Eni",
      "lat": 44.00477200052126,
      "lng": 8.168962344180272,
      "fuels": {
        "sp95": 1.884,
        "gazole": 1.999
      }
    },
    {
      "id": "35749",
      "cp": "",
      "ville": "Alassio",
      "adresse": "Via Via Leonardo Da Vinci 192 17021, Alassio (sv) 192 17021",
      "brand": "Esso",
      "lat": 44.00057114160018,
      "lng": 8.165444928835996,
      "fuels": {
        "sp95": 1.869,
        "gazole": 1.999
      }
    },
    {
      "id": "52811",
      "cp": "",
      "ville": "Albenga",
      "adresse": "fraz. Rollo 42 17031",
      "brand": "Dis-Car",
      "lat": 44.06876978556451,
      "lng": 8.215324815416704,
      "fuels": {
        "sp95": 1.859,
        "gazole": 1.979
      }
    },
    {
      "id": "48158",
      "cp": "",
      "ville": "Albenga",
      "adresse": "Piave 6 17031",
      "brand": "Agip Eni",
      "lat": 44.04605887805002,
      "lng": 8.212993660713192,
      "fuels": {
        "sp95": 1.889,
        "gazole": 1.944
      }
    },
    {
      "id": "54150",
      "cp": "",
      "ville": "Albenga",
      "adresse": "reg. frontero, 2",
      "brand": "Agip Eni",
      "lat": 44.054905,
      "lng": 8.205321,
      "fuels": {
        "sp95": 1.869,
        "gazole": 1.969,
        "gplc": 0.822
      }
    },
    {
      "id": "10500",
      "cp": "",
      "ville": "Albenga",
      "adresse": "reg.doria  17031",
      "brand": "Pompe Bianche",
      "lat": 44.04450648476993,
      "lng": 8.206202387809753,
      "fuels": {
        "gplc": 0.822
      }
    },
    {
      "id": "60746",
      "cp": "",
      "ville": "Albenga",
      "adresse": "Regione Bagnoli 32 17031",
      "brand": "Api-Ip",
      "lat": 44.05608976342505,
      "lng": 8.19186732172974,
      "fuels": {
        "sp95": 1.919,
        "gazole": 2.049
      }
    },
    {
      "id": "35879",
      "cp": "",
      "ville": "Albenga",
      "adresse": "Regione Cavallo 15 17031",
      "brand": "Api-Ip",
      "lat": 44.053848811604645,
      "lng": 8.206441352778606,
      "fuels": {
        "sp95": 1.879,
        "gazole": 1.979
      }
    },
    {
      "id": "58831",
      "cp": "",
      "ville": "Albenga",
      "adresse": "Regione Miranda  17031",
      "brand": "Api-Ip",
      "lat": 44.0457235427376,
      "lng": 8.203744142675022,
      "fuels": {
        "sp95": 1.949,
        "gazole": 2.049
      }
    },
    {
      "id": "57269",
      "cp": "",
      "ville": "Albenga",
      "adresse": "Via Al Piemonte 19 17031",
      "brand": "Esso",
      "lat": 44.056305,
      "lng": 8.197346,
      "fuels": {
        "sp95": 1.869,
        "gazole": 1.999
      }
    },
    {
      "id": "8681",
      "cp": "",
      "ville": "Albenga",
      "adresse": "Via Al Piemonte Snc 17031",
      "brand": "Europam",
      "lat": 44.05780741816741,
      "lng": 8.18504512310028,
      "fuels": {
        "sp95": 1.899,
        "gazole": 1.999
      }
    },
    {
      "id": "8213",
      "cp": "",
      "ville": "Albenga",
      "adresse": "Via Piemonte 26 17031",
      "brand": "Agip Eni",
      "lat": 44.056177083380334,
      "lng": 8.194888830184937,
      "fuels": {
        "sp95": 1.864,
        "gazole": 1.964
      }
    },
    {
      "id": "39111",
      "cp": "",
      "ville": "Albenga",
      "adresse": "Via Pontelungo  17031",
      "brand": "q8",
      "lat": 44.05425736348627,
      "lng": 8.213522136211395,
      "fuels": {
        "sp95": 1.859,
        "gazole": 1.999
      }
    },
    {
      "id": "59662",
      "cp": "",
      "ville": "Albenga",
      "adresse": "Via Pontelungo  78",
      "brand": "Agip Eni",
      "lat": 44.052914,
      "lng": 8.213309,
      "fuels": {
        "sp95": 1.889,
        "gazole": 1.989
      }
    },
    {
      "id": "12843",
      "cp": "",
      "ville": "Albisola Superiore",
      "adresse": "Via Alessandria 73 17011",
      "brand": "Api-Ip",
      "lat": 44.341710567934506,
      "lng": 8.510754252114907,
      "fuels": {
        "sp95": 1.929,
        "gazole": 2.049
      }
    },
    {
      "id": "59307",
      "cp": "",
      "ville": "Altare",
      "adresse": "Via Gramsci 5 17041",
      "brand": "Europam",
      "lat": 44.3342447,
      "lng": 8.3445511,
      "fuels": {
        "sp95": 1.787,
        "gazole": 2.057
      }
    },
    {
      "id": "47511",
      "cp": "",
      "ville": "Andora",
      "adresse": "a10 Savona-ventimiglia, km. 95, Ovest - 17051",
      "brand": "Tamoil",
      "lat": 43.95834552974849,
      "lng": 8.134235441684723,
      "fuels": {
        "sp95": 1.999,
        "gazole": 2.099
      }
    },
    {
      "id": "58282",
      "cp": "",
      "ville": "Andora",
      "adresse": "Via Aurelia Km 632+558  178",
      "brand": "Agip Eni",
      "lat": 43.950085,
      "lng": 8.145614,
      "fuels": {
        "sp95": 1.889,
        "gazole": 2.004
      }
    },
    {
      "id": "38694",
      "cp": "",
      "ville": "Andora",
      "adresse": "Via Merula 9 17051",
      "brand": "Esso",
      "lat": 43.963303538959465,
      "lng": 8.136099502444267,
      "fuels": {
        "sp95": 1.849,
        "gazole": 1.949
      }
    },
    {
      "id": "47824",
      "cp": "",
      "ville": "Andora",
      "adresse": "Via s. Caterina 12 17051",
      "brand": "Tamoil",
      "lat": 43.96454684055129,
      "lng": 8.138452470302582,
      "fuels": {
        "sp95": 1.889,
        "gazole": 2.019,
        "gplc": 0.759
      }
    },
    {
      "id": "60518",
      "cp": "",
      "ville": "Borghetto Santo Spirito",
      "adresse": "Corso Europa  17052",
      "brand": "Retitalia",
      "lat": 44.113547,
      "lng": 8.24519,
      "fuels": {
        "sp95": 1.879,
        "gazole": 1.999
      }
    },
    {
      "id": "49177",
      "cp": "",
      "ville": "Borghetto Santo Spirito",
      "adresse": "Via Michelangelo Buonarrotti  12 17052",
      "brand": "Api-Ip",
      "lat": 44.11203284098143,
      "lng": 8.236508339724658,
      "fuels": {
        "sp95": 1.969,
        "gazole": 2.049
      }
    },
    {
      "id": "16333",
      "cp": "",
      "ville": "Borgio Verezzi",
      "adresse": "Via Iv Novembre Snc 17022",
      "brand": "Api-Ip",
      "lat": 44.15766364960674,
      "lng": 8.303677216172218,
      "fuels": {
        "sp95": 1.899,
        "gazole": 1.999
      }
    },
    {
      "id": "62189",
      "cp": "",
      "ville": "Cairo Montenotte",
      "adresse": "c.so Italia  38",
      "brand": "Agip Eni",
      "lat": 44.397896,
      "lng": 8.277968,
      "fuels": {
        "sp95": 1.869,
        "gazole": 1.989
      }
    },
    {
      "id": "6391",
      "cp": "",
      "ville": "Cairo Montenotte",
      "adresse": "Corso Brigate Partigiane Snc 17014",
      "brand": "q8",
      "lat": 44.38843499830716,
      "lng": 8.281929194927216,
      "fuels": {
        "sp95": 1.949,
        "gazole": 1.309
      }
    },
    {
      "id": "56985",
      "cp": "",
      "ville": "Cairo Montenotte",
      "adresse": "Corso Guglielmo Marconi 149 17014",
      "brand": "Esso",
      "lat": 44.37597,
      "lng": 8.28361,
      "fuels": {
        "sp95": 1.839,
        "gazole": 1.959
      }
    },
    {
      "id": "39094",
      "cp": "",
      "ville": "Cairo Montenotte",
      "adresse": "Ex s.s. 29 km. 122+914/122+867  17014",
      "brand": "Api-Ip",
      "lat": 44.432478931693325,
      "lng": 8.301650379133207,
      "fuels": {
        "sp95": 1.899,
        "gazole": 2.059,
        "gplc": 0.789
      }
    },
    {
      "id": "60100",
      "cp": "",
      "ville": "Cairo Montenotte",
      "adresse": "Via Colla Snc 17014",
      "brand": "Oil Italia",
      "lat": 44.396489200234896,
      "lng": 8.278383999298113,
      "fuels": {
        "sp95": 1.839,
        "gazole": 1.949
      }
    },
    {
      "id": "53249",
      "cp": "",
      "ville": "Cairo Montenotte",
      "adresse": "Via Gramsci - fraz. Ferrania 24 17014",
      "brand": "Api-Ip",
      "lat": 44.35644,
      "lng": 8.31304,
      "fuels": {
        "sp95": 1.844,
        "gazole": 1.944
      }
    },
    {
      "id": "25737",
      "cp": "",
      "ville": "Cairo Montenotte",
      "adresse": "Via Resistenza 34 17014",
      "brand": "Pompe Bianche",
      "lat": 44.40189205940621,
      "lng": 8.288224339485168,
      "fuels": {
        "sp95": 1.869,
        "gazole": 1.959,
        "e85": 1.399,
        "gplc": 0.778
      }
    },
    {
      "id": "58661",
      "cp": "",
      "ville": "Cairo Montenotte",
      "adresse": "Via Sanguinetti Adolfo 19 17014",
      "brand": "Tamoil",
      "lat": 44.39847,
      "lng": 8.27976396,
      "fuels": {
        "sp95": 1.879,
        "gazole": 2.029
      }
    },
    {
      "id": "53209",
      "cp": "",
      "ville": "Calice Ligure",
      "adresse": "s.p. 17 Via Roma  Snc 17020",
      "brand": "Api-Ip",
      "lat": 44.20053,
      "lng": 8.298304,
      "fuels": {
        "sp95": 1.859,
        "gazole": 1.959
      }
    },
    {
      "id": "59076",
      "cp": "",
      "ville": "Calizzano",
      "adresse": "f. Leale 1 17057",
      "brand": "Agip Eni",
      "lat": 44.23691817,
      "lng": 8.11648635,
      "fuels": {
        "sp95": 1.849,
        "gazole": 1.934
      }
    },
    {
      "id": "49136",
      "cp": "",
      "ville": "Carcare",
      "adresse": "a6 Torino-savona, km. 107,6, Nord - 17043",
      "brand": "Tamoil",
      "lat": 44.346224218229224,
      "lng": 8.301441669464106,
      "fuels": {
        "sp95": 2.009,
        "gazole": 2.129
      }
    },
    {
      "id": "8142",
      "cp": "",
      "ville": "Carcare",
      "adresse": "Statale 28 Del Colle Di nava, km. 27+35, dir. Savona - 17043",
      "brand": "Agip Eni",
      "lat": 44.36285698276176,
      "lng": 8.290026783943176,
      "fuels": {
        "sp95": 1.864,
        "gazole": 1.984
      }
    },
    {
      "id": "11177",
      "cp": "",
      "ville": "Carcare",
      "adresse": "Statale 29 Del Colle Di cadibona, km. 16, dir. Savona - 17043",
      "brand": "Agip Eni",
      "lat": 44.360506748116286,
      "lng": 8.291764855384827,
      "fuels": {
        "sp95": 1.864,
        "gazole": 1.984
      }
    },
    {
      "id": "23113",
      "cp": "",
      "ville": "Celle Ligure",
      "adresse": "Via s. Brigida ang. Poggi s.n. 17015, Celle Ligure (sv) Snc 17015",
      "brand": "Agip Eni",
      "lat": 44.3418472333379,
      "lng": 8.543488086616549,
      "fuels": {
        "sp95": 1.889,
        "gazole": 1.989
      }
    },
    {
      "id": "41126",
      "cp": "",
      "ville": "Cengio",
      "adresse": "Fiume s.n.c. 17056",
      "brand": "Api-Ip",
      "lat": 44.387396113938074,
      "lng": 8.213476538658142,
      "fuels": {
        "sp95": 1.929,
        "gazole": 2.049,
        "gplc": 0.946
      }
    },
    {
      "id": "3850",
      "cp": "",
      "ville": "Ceriale",
      "adresse": "Autostrada a10 Savona-ventimiglia, km. 77.478, dir. Est - 117023",
      "brand": "Agip Eni",
      "lat": 44.08857912961914,
      "lng": 8.207377195358276,
      "fuels": {
        "sp95": 1.964,
        "gazole": 2.016
      }
    },
    {
      "id": "26580",
      "cp": "",
      "ville": "Ceriale",
      "adresse": "Autostrada a10 Savona-ventimiglia, km. 77+48, dir. Francia - 17023",
      "brand": "Esso",
      "lat": 44.088506961520764,
      "lng": 8.20589844002825,
      "fuels": {
        "sp95": 1.949,
        "gazole": 2.049
      }
    },
    {
      "id": "43658",
      "cp": "",
      "ville": "Ceriale",
      "adresse": "Via Aurelia 100 17023",
      "brand": "Europam",
      "lat": 44.09457543915044,
      "lng": 8.230704111027762,
      "fuels": {
        "sp95": 1.847,
        "gazole": 1.957
      }
    },
    {
      "id": "43901",
      "cp": "",
      "ville": "Ceriale",
      "adresse": "Via Aurelia 152 17023",
      "brand": "Europam",
      "lat": 44.09170048160881,
      "lng": 8.229212740492812,
      "fuels": {
        "sp95": 1.847,
        "gazole": 1.957
      }
    },
    {
      "id": "34137",
      "cp": "",
      "ville": "Ceriale",
      "adresse": "Via Aurelia 80 17023",
      "brand": "Api-Ip",
      "lat": 44.0956814083278,
      "lng": 8.231196079970674,
      "fuels": {
        "sp95": 1.976,
        "gazole": 2.056
      }
    },
    {
      "id": "53248",
      "cp": "",
      "ville": "Cosseria",
      "adresse": "fraz. Ca' Lidora Snc 17017",
      "brand": "Api-Ip",
      "lat": 44.36531,
      "lng": 8.26766,
      "fuels": {
        "sp95": 1.844,
        "gazole": 1.944
      }
    },
    {
      "id": "48379",
      "cp": "",
      "ville": "Dego",
      "adresse": "Via Savona  3 17058",
      "brand": "Agip Eni",
      "lat": 44.44515537310656,
      "lng": 8.30941915512085,
      "fuels": {
        "sp95": 1.884,
        "gazole": 1.999
      }
    },
    {
      "id": "41910",
      "cp": "",
      "ville": "Finale Ligure",
      "adresse": "1 Via aurelia, km. 598+406, Imperia - 17024",
      "brand": "q8",
      "lat": 44.170464723162745,
      "lng": 8.344319388270378,
      "fuels": {
        "sp95": 1.889,
        "gazole": 1.949
      }
    },
    {
      "id": "43628",
      "cp": "",
      "ville": "Finale Ligure",
      "adresse": "Corso Europa 44 17024",
      "brand": "Agip Eni",
      "lat": 44.17136220871,
      "lng": 8.355693402446718,
      "fuels": {
        "sp95": 1.712,
        "gazole": 2.044
      }
    },
    {
      "id": "10129",
      "cp": "",
      "ville": "Finale Ligure",
      "adresse": "Localita' Burdiassa - str. prov. 17  17024",
      "brand": "Pompe Bianche",
      "lat": 44.186213517797164,
      "lng": 8.306728899478912,
      "fuels": {
        "gplc": 0.88
      }
    },
    {
      "id": "54311",
      "cp": "",
      "ville": "Finale Ligure",
      "adresse": "Via Generale Arnaldi  17024",
      "brand": "Api-Ip",
      "lat": 44.1749818,
      "lng": 8.3301838,
      "fuels": {
        "sp95": 1.899,
        "gazole": 1.969
      }
    },
    {
      "id": "42278",
      "cp": "",
      "ville": "Finale Ligure",
      "adresse": "Via Mazzini 13 17024",
      "brand": "Agip Eni",
      "lat": 44.16877769569171,
      "lng": 8.34149722949985,
      "fuels": {
        "sp95": 1.884,
        "gazole": 1.964
      }
    },
    {
      "id": "25932",
      "cp": "",
      "ville": "Finale Ligure",
      "adresse": "Viale Rinaldo Piaggio 6 17024",
      "brand": "Api-Ip",
      "lat": 44.16485695920656,
      "lng": 8.336710631847382,
      "fuels": {
        "sp95": 1.929,
        "gazole": 2.029
      }
    },
    {
      "id": "54605",
      "cp": "",
      "ville": "Garlenda",
      "adresse": "Lerrone 124 17033",
      "brand": "Api-Ip",
      "lat": 44.033342690748995,
      "lng": 8.10876948702528,
      "fuels": {
        "sp95": 1.889,
        "gazole": 1.989
      }
    },
    {
      "id": "57271",
      "cp": "",
      "ville": "Laigueglia",
      "adresse": "Via Roma 81 17053",
      "brand": "Europam",
      "lat": 43.9764,
      "lng": 8.15816,
      "fuels": {
        "sp95": 1.884,
        "gazole": 1.984
      }
    },
    {
      "id": "41108",
      "cp": "",
      "ville": "Loano",
      "adresse": "Aurelia 312 17025",
      "brand": "Esso",
      "lat": 44.125449845303216,
      "lng": 8.255229463788964,
      "fuels": {
        "sp95": 1.856,
        "gazole": 1.959
      }
    },
    {
      "id": "26420",
      "cp": "",
      "ville": "Loano",
      "adresse": "Via Aurelia 203 17025",
      "brand": "Europam",
      "lat": 44.12361380613402,
      "lng": 8.25411056943426,
      "fuels": {
        "sp95": 1.859,
        "gazole": 1.969
      }
    },
    {
      "id": "58188",
      "cp": "",
      "ville": "Loano",
      "adresse": "Via Aurelia Km 607 + 120  Snc",
      "brand": "Agip Eni",
      "lat": 44.129707,
      "lng": 8.2591305,
      "fuels": {
        "sp95": 1.829,
        "gazole": 1.914
      }
    },
    {
      "id": "52810",
      "cp": "",
      "ville": "Loano",
      "adresse": "Via s.s.n 1 Aurelia Km 608 + 550 313 17025, Loano (sv) 313 17025",
      "brand": "Dis-Car",
      "lat": 44.118708965190166,
      "lng": 8.248930212164293,
      "fuels": {
        "sp95": 1.859,
        "gazole": 1.979
      }
    },
    {
      "id": "41775",
      "cp": "",
      "ville": "Loano",
      "adresse": "Via Viale s.amico Snc 17025, Loano (sv) 31 17025",
      "brand": "Api-Ip",
      "lat": 44.13016129658426,
      "lng": 8.246018920797383,
      "fuels": {
        "sp95": 1.869,
        "gazole": 1.969
      }
    },
    {
      "id": "45613",
      "cp": "",
      "ville": "Magliolo",
      "adresse": "Mazzini Snc 17020",
      "brand": "Pompe Bianche",
      "lat": 44.19233870816578,
      "lng": 8.249554336071014,
      "fuels": {
        "sp95": 1.887,
        "gazole": 1.979
      }
    },
    {
      "id": "59468",
      "cp": "",
      "ville": "Millesimo",
      "adresse": "s.p.  28 Bis  Snc 17017",
      "brand": "Pompe Bianche",
      "lat": 44.358955,
      "lng": 8.2157151,
      "fuels": {
        "sp95": 1.879,
        "gazole": 1.979
      }
    },
    {
      "id": "5068",
      "cp": "",
      "ville": "Millesimo",
      "adresse": "Via Trento E Trieste 185-189 17017",
      "brand": "Pompe Bianche",
      "lat": 44.368778941097695,
      "lng": 8.201055228710175,
      "fuels": {
        "sp95": 1.859,
        "gazole": 1.968,
        "e85": 1.399,
        "gplc": 0.799
      }
    },
    {
      "id": "50783",
      "cp": "",
      "ville": "Mioglia",
      "adresse": "Via Acqui 17 17040",
      "brand": "Pompe Bianche",
      "lat": 44.4908882723125,
      "lng": 8.413764098418701,
      "fuels": {
        "sp95": 1.879,
        "gazole": 1.989
      }
    },
    {
      "id": "59270",
      "cp": "",
      "ville": "Murialdo",
      "adresse": "Borgata  Piano Snc 17013",
      "brand": "Pompe Bianche",
      "lat": 44.316807641691575,
      "lng": 8.164177947042628,
      "fuels": {
        "sp95": 1.887,
        "gazole": 1.969
      }
    },
    {
      "id": "41273",
      "cp": "",
      "ville": "Noli",
      "adresse": "1 Via aurelia, km. 589, Savona  - 17026",
      "brand": "Esso",
      "lat": 44.20674924428758,
      "lng": 8.417113199830055,
      "fuels": {
        "sp95": 1.869,
        "gazole": 1.949
      }
    },
    {
      "id": "55886",
      "cp": "",
      "ville": "Orco Feglino",
      "adresse": "Via Aquila Snc 17024",
      "brand": "Api-Ip",
      "lat": 44.213725289352915,
      "lng": 8.32560896873478,
      "fuels": {
        "sp95": 1.909,
        "gazole": 2.009
      }
    },
    {
      "id": "41719",
      "cp": "",
      "ville": "Ortovero",
      "adresse": "Via Roma 241 17037",
      "brand": "Api-Ip",
      "lat": 44.05375629178788,
      "lng": 8.091850031282775,
      "fuels": {
        "sp95": 1.939,
        "gazole": 2.039
      }
    },
    {
      "id": "41309",
      "cp": "",
      "ville": "Ortovero",
      "adresse": "Via Roma 92 17037",
      "brand": "Europam",
      "lat": 44.05381038163507,
      "lng": 8.096403691540559,
      "fuels": {
        "sp95": 1.996,
        "gazole": 2.064
      }
    },
    {
      "id": "38050",
      "cp": "",
      "ville": "Pietra Ligure",
      "adresse": "Italia 38 17027",
      "brand": "Tamoil",
      "lat": 44.150920839722666,
      "lng": 8.288112357258797,
      "fuels": {
        "sp95": 1.879,
        "gazole": 1.929
      }
    },
    {
      "id": "11843",
      "cp": "",
      "ville": "Pietra Ligure",
      "adresse": "ss. 1 Aurelia 90 17027",
      "brand": "q8",
      "lat": 44.141783080709175,
      "lng": 8.271441757678986,
      "fuels": {
        "sp95": 1.859,
        "gazole": 1.939
      }
    },
    {
      "id": "54199",
      "cp": "",
      "ville": "Pietra Ligure",
      "adresse": "Via aurelia, 16",
      "brand": "Agip Eni",
      "lat": 44.14669,
      "lng": 8.277471,
      "fuels": {
        "sp95": 1.849,
        "gazole": 1.969
      }
    },
    {
      "id": "28690",
      "cp": "",
      "ville": "Pietra Ligure",
      "adresse": "Via Via Xxv Aprile 186 17027, Pietra Ligure (sv) 186 17027",
      "brand": "Keropetrol",
      "lat": 44.1398755699861,
      "lng": 8.269027769565582,
      "fuels": {
        "sp95": 1.889,
        "gazole": 1.989
      }
    },
    {
      "id": "28326",
      "cp": "",
      "ville": "Pietra Ligure",
      "adresse": "Viale Riviera 42 17027",
      "brand": "Esso",
      "lat": 44.144936331121116,
      "lng": 8.274371046209126,
      "fuels": {
        "sp95": 1.839,
        "gazole": 1.949
      }
    },
    {
      "id": "49737",
      "cp": "",
      "ville": "Pontinvrea",
      "adresse": "Via Tagliata Della Chiesa 2 17042",
      "brand": "Api-Ip",
      "lat": 44.429671089502904,
      "lng": 8.47388818860054,
      "fuels": {
        "sp95": 1.899,
        "gazole": 1.979
      }
    },
    {
      "id": "3559",
      "cp": "",
      "ville": "Quiliano",
      "adresse": "Autostrada a10 Savona-ventimiglia, km. 46.722, dir. Ovest - 17047",
      "brand": "Esso",
      "lat": 44.27463254173117,
      "lng": 8.423718810081482,
      "fuels": {
        "sp95": 1.952,
        "gazole": 2.062,
        "gplc": 0.922
      }
    },
    {
      "id": "45478",
      "cp": "",
      "ville": "Quiliano",
      "adresse": "Via Diaz 1 17047",
      "brand": "Agip Eni",
      "lat": 44.279330964076316,
      "lng": 8.432698844418042,
      "fuels": {
        "sp95": 1.864,
        "gazole": 1.984
      }
    },
    {
      "id": "60417",
      "cp": "",
      "ville": "Sassello",
      "adresse": "Via g. Badano 30 17046",
      "brand": "Tamoil",
      "lat": 44.4766693115,
      "lng": 8.4855127335,
      "fuels": {
        "sp95": 1.899,
        "gazole": 2.009
      }
    },
    {
      "id": "33154",
      "cp": "",
      "ville": "Sassello",
      "adresse": "Via Piazza  Rolla 1 17046, Sassello (sv) 1 17046",
      "brand": "Keropetrol",
      "lat": 44.47968376022623,
      "lng": 8.490338176488876,
      "fuels": {
        "sp95": 1.855,
        "gazole": 1.955
      }
    },
    {
      "id": "36450",
      "cp": "",
      "ville": "Savona",
      "adresse": "Autostrada a10 Genova-savona, km. 44+800, dir. Est - 17040",
      "brand": "Api-Ip",
      "lat": 44.287221004612114,
      "lng": 8.440479934215546,
      "fuels": {
        "sp95": 1.889,
        "gazole": 1.979
      }
    },
    {
      "id": "53251",
      "cp": "",
      "ville": "Savona",
      "adresse": "Corso Svizzera 50 17100",
      "brand": "Api-Ip",
      "lat": 44.28972,
      "lng": 8.44908,
      "fuels": {
        "sp95": 1.899,
        "gazole": 1.989
      }
    },
    {
      "id": "44099",
      "cp": "",
      "ville": "Savona",
      "adresse": "Corso Tardy E Benech 134r 17100",
      "brand": "Esso",
      "lat": 44.30291459771181,
      "lng": 8.470906976686479,
      "fuels": {
        "sp95": 1.889,
        "gazole": 1.989
      }
    },
    {
      "id": "51666",
      "cp": "",
      "ville": "Savona",
      "adresse": "Piazza Leon Pancaldo 13r 17100",
      "brand": "Esso",
      "lat": 44.31033324759118,
      "lng": 8.485057701120684,
      "fuels": {
        "sp95": 1.859,
        "gazole": 1.939
      }
    },
    {
      "id": "38752",
      "cp": "",
      "ville": "Savona",
      "adresse": "Piazzale Amburgo 90r 17100",
      "brand": "Agip Eni",
      "lat": 44.29415084326569,
      "lng": 8.452990427613258,
      "fuels": {
        "sp95": 1.864,
        "gazole": 1.984
      }
    },
    {
      "id": "55693",
      "cp": "",
      "ville": "Savona",
      "adresse": "Ss 1 Km 570 Rio Termine  Snc 17100",
      "brand": "Europam",
      "lat": 44.320842,
      "lng": 8.4951678,
      "fuels": {
        "sp95": 1.867,
        "gazole": 1.917
      }
    },
    {
      "id": "33623",
      "cp": "",
      "ville": "Savona",
      "adresse": "Statale 1 Via aurelia, km. 571, dir. Roma Ventimiglia - 17100",
      "brand": "Agip Eni",
      "lat": 44.317405326616694,
      "lng": 8.492556706745972,
      "fuels": {
        "sp95": 1.844,
        "gazole": 1.964
      }
    },
    {
      "id": "52331",
      "cp": "",
      "ville": "Savona",
      "adresse": "V Bonini   1 17100",
      "brand": "Agip Eni",
      "lat": 44.30112974361842,
      "lng": 8.457928382489092,
      "fuels": {
        "sp95": 1.884,
        "gazole": 1.999
      }
    },
    {
      "id": "60779",
      "cp": "",
      "ville": "Savona",
      "adresse": "Via Gramsci 9 17100",
      "brand": "Europam",
      "lat": 44.3071533,
      "lng": 8.4833005,
      "fuels": {
        "sp95": 1.887,
        "gazole": 1.937
      }
    },
    {
      "id": "4035",
      "cp": "",
      "ville": "Savona",
      "adresse": "Via Nazionale Piemonte 68/R 17100, Savona (sv) 68r 17100",
      "brand": "Agip Eni",
      "lat": 44.32099274288549,
      "lng": 8.464992642402649,
      "fuels": {
        "sp95": 1.864,
        "gazole": 1.984
      }
    },
    {
      "id": "11842",
      "cp": "",
      "ville": "Savona",
      "adresse": "Via Nazionale Piemonte 7 R 17100",
      "brand": "q8",
      "lat": 44.32062302756176,
      "lng": 8.466198658895564,
      "fuels": {
        "sp95": 1.844,
        "gazole": 1.974
      }
    },
    {
      "id": "11844",
      "cp": "",
      "ville": "Savona",
      "adresse": "Via Nizza 115r 17100",
      "brand": "q8",
      "lat": 44.284881258995014,
      "lng": 8.446667406082156,
      "fuels": {
        "sp95": 1.879,
        "gazole": 1.959
      }
    },
    {
      "id": "44759",
      "cp": "",
      "ville": "Savona",
      "adresse": "Via Nizza 40 17100",
      "brand": "Europam",
      "lat": 44.294472403023576,
      "lng": 8.458550312576122,
      "fuels": {
        "sp95": 1.877,
        "gazole": 1.927
      }
    },
    {
      "id": "44096",
      "cp": "",
      "ville": "Savona",
      "adresse": "Via Nizza 44/R 17100",
      "brand": "Esso",
      "lat": 44.29420827501251,
      "lng": 8.458011810209996,
      "fuels": {
        "sp95": 1.859,
        "gazole": 1.949
      }
    },
    {
      "id": "14714",
      "cp": "",
      "ville": "Savona",
      "adresse": "Via Nizza 98 R 17100",
      "brand": "Api-Ip",
      "lat": 44.28945734474679,
      "lng": 8.451641276478767,
      "fuels": {
        "sp95": 1.899,
        "gazole": 1.989
      }
    },
    {
      "id": "53253",
      "cp": "",
      "ville": "Savona",
      "adresse": "Via Nizza 99r 17100",
      "brand": "Api-Ip",
      "lat": 44.28895,
      "lng": 8.45143,
      "fuels": {
        "sp95": 1.899,
        "gazole": 1.989
      }
    },
    {
      "id": "44194",
      "cp": "",
      "ville": "Savona",
      "adresse": "Via Schiantapetto  11 17100",
      "brand": "Esso",
      "lat": 44.31928,
      "lng": 8.47374,
      "fuels": {
        "gplc": 0.92
      }
    },
    {
      "id": "45061",
      "cp": "",
      "ville": "Savona",
      "adresse": "Via Stalingrado  30 17100",
      "brand": "Europam",
      "lat": 44.29743070141277,
      "lng": 8.458800789889374,
      "fuels": {
        "sp95": 1.877,
        "gazole": 1.927
      }
    },
    {
      "id": "21846",
      "cp": "",
      "ville": "Savona",
      "adresse": "Via Stalingrado 10/R 17100",
      "brand": "Api-Ip",
      "lat": 44.30221919565257,
      "lng": 8.465794635581915,
      "fuels": {
        "sp95": 1.899,
        "gazole": 1.989
      }
    },
    {
      "id": "58482",
      "cp": "",
      "ville": "Savona",
      "adresse": "Via Stalingrado 11 17100",
      "brand": "Agip Eni",
      "lat": 44.3001,
      "lng": 8.465,
      "fuels": {
        "sp95": 1.824,
        "gazole": 1.909
      }
    },
    {
      "id": "57740",
      "cp": "",
      "ville": "Savona",
      "adresse": "Via Stalingrado 38r  17019",
      "brand": "Europam",
      "lat": 44.296104,
      "lng": 8.456068,
      "fuels": {
        "sp95": 1.877,
        "gazole": 1.927
      }
    },
    {
      "id": "24845",
      "cp": "",
      "ville": "Savona",
      "adresse": "Via Torino 181 R 17100",
      "brand": "q8",
      "lat": 44.31647656105537,
      "lng": 8.47197731586914,
      "fuels": {
        "sp95": 1.879,
        "gazole": 1.969
      }
    },
    {
      "id": "48206",
      "cp": "",
      "ville": "Savona",
      "adresse": "Via Vittorio Veneto 292r 23189",
      "brand": "Europam",
      "lat": 44.297688223747784,
      "lng": 8.464505866235713,
      "fuels": {
        "sp95": 1.877,
        "gazole": 1.927
      }
    },
    {
      "id": "44033",
      "cp": "",
      "ville": "Spotorno",
      "adresse": "Aurelia Variante Nuova  17028",
      "brand": "Api-Ip",
      "lat": 44.22138078083992,
      "lng": 8.414562419056892,
      "fuels": {
        "sp95": 1.906,
        "gazole": 1.996
      }
    },
    {
      "id": "61352",
      "cp": "",
      "ville": "Stella",
      "adresse": "Riccardo Poggi 1 17044",
      "brand": "Api-Ip",
      "lat": 44.39187877500058,
      "lng": 8.496964042827813,
      "fuels": {
        "sp95": 1.899,
        "gazole": 1.979
      }
    },
    {
      "id": "19153",
      "cp": "",
      "ville": "Toirano",
      "adresse": "Strada Provinciale Km 2+800  17055",
      "brand": "Api-Ip",
      "lat": 44.1237162324949,
      "lng": 8.211779370903969,
      "fuels": {
        "sp95": 1.979,
        "gazole": 2.049
      }
    },
    {
      "id": "54924",
      "cp": "",
      "ville": "Tovo San Giacomo",
      "adresse": "Nicolo' Rembado 24 17020",
      "brand": "Api-Ip",
      "lat": 44.16684605736339,
      "lng": 8.275873437523842,
      "fuels": {
        "sp95": 1.899,
        "gazole": 1.999
      }
    },
    {
      "id": "58383",
      "cp": "",
      "ville": "Urbe",
      "adresse": "Sp 49 km18+200 Fraz Martina Snc 17048",
      "brand": "Europam",
      "lat": 44.497324,
      "lng": 8.6031831,
      "fuels": {
        "sp95": 1.857,
        "gazole": 1.946
      }
    },
    {
      "id": "57534",
      "cp": "",
      "ville": "Vado Ligure",
      "adresse": "Piave Snc 17047",
      "brand": "Agip Eni",
      "lat": 44.26827252,
      "lng": 8.43441256,
      "fuels": {
        "sp95": 1.849,
        "gazole": 1.934
      }
    },
    {
      "id": "52161",
      "cp": "",
      "ville": "Vado Ligure",
      "adresse": "Strada Scorrimento Veloce 2a 17047",
      "brand": "Pompe Bianche",
      "lat": 44.26877805254986,
      "lng": 8.426290055637793,
      "fuels": {
        "sp95": 1.859,
        "gazole": 1.939,
        "e85": 1.329,
        "gplc": 0.845
      }
    },
    {
      "id": "62007",
      "cp": "",
      "ville": "Vado Ligure",
      "adresse": "Via Aurelia  298 17047",
      "brand": "Api-Ip",
      "lat": 44.263818551122775,
      "lng": 8.44310313463211,
      "fuels": {
        "sp95": 1.849,
        "gazole": 1.949
      }
    },
    {
      "id": "24258",
      "cp": "",
      "ville": "Vado Ligure",
      "adresse": "Via Aurelia 17 17047",
      "brand": "Api-Ip",
      "lat": 44.27866159331191,
      "lng": 8.442367813491842,
      "fuels": {
        "sp95": 1.899,
        "gazole": 1.989
      }
    },
    {
      "id": "59086",
      "cp": "",
      "ville": "Vado Ligure",
      "adresse": "Via Aurelia 256  17047",
      "brand": "Agip Eni",
      "lat": 44.266808,
      "lng": 8.440493,
      "fuels": {
        "sp95": 1.849,
        "gazole": 1.969
      }
    },
    {
      "id": "42125",
      "cp": "",
      "ville": "Varazze",
      "adresse": "1 Bis Via aurelia, km. 560, Ventimiglia - 17019",
      "brand": "q8",
      "lat": 44.36084924134897,
      "lng": 8.587836886438708,
      "fuels": {
        "sp95": 1.869,
        "gazole": 1.969
      }
    },
    {
      "id": "52126",
      "cp": "",
      "ville": "Varazze",
      "adresse": "Autostrada a10 Genova-savona,  km. 26,5, dir. Savona 17019",
      "brand": "q8",
      "lat": 44.37188142982486,
      "lng": 8.616323295631446,
      "fuels": {
        "sp95": 1.899,
        "gazole": 1.999
      }
    },
    {
      "id": "60973",
      "cp": "",
      "ville": "Varazze",
      "adresse": "Autostrada a10 Genova-savona, dir. Sud",
      "brand": "Tamoil",
      "lat": 44.3691237,
      "lng": 8.61083239,
      "fuels": {
        "sp95": 1.939,
        "gazole": 2.049
      }
    },
    {
      "id": "36025",
      "cp": "",
      "ville": "Varazze",
      "adresse": "Via Emilio Vecchia s.n.c. 17019",
      "brand": "Europam",
      "lat": 44.369367576241025,
      "lng": 8.574210852384567,
      "fuels": {
        "sp95": 1.887,
        "gazole": 1.971
      }
    },
    {
      "id": "43889",
      "cp": "",
      "ville": "Varazze",
      "adresse": "Via Torino 24 17019",
      "brand": "Agip Eni",
      "lat": 44.35682671124425,
      "lng": 8.569010016028415,
      "fuels": {
        "sp95": 1.889,
        "gazole": 1.989
      }
    },
    {
      "id": "43271",
      "cp": "",
      "ville": "Vezzi Portio",
      "adresse": "a10 Savona-ventimiglia, km. 55+702, Est - 17028",
      "brand": "Api-Ip",
      "lat": 44.225442701196755,
      "lng": 8.36020706134218,
      "fuels": {
        "sp95": 1.889,
        "gazole": 1.999
      }
    },
    {
      "id": "41128",
      "cp": "",
      "ville": "Villanova D'Albenga",
      "adresse": "Via Martiri 32 17038",
      "brand": "Api-Ip",
      "lat": 44.045427084207695,
      "lng": 8.14248651266098,
      "fuels": {
        "sp95": 1.919,
        "gazole": 2.049
      }
    }
  ]
}