{
  "code": "TO",
  "name": "Torino",
  "regionCode": "PIE",
  "regionName": "Piemonte",
  "asOf": "2026-07-19T07:34:44.524Z",
  "source": "https://www.mimit.gov.it/it/open-data/elenco-dataset/2032336-dataset-prezzi-carburanti",
  "stationCount": 688,
  "fuels": {
    "gazole": {
      "count": 676,
      "mean": 2.0801,
      "median": 2.079,
      "min": 1.305,
      "max": 2.369
    },
    "sp95": {
      "count": 676,
      "mean": 1.9304,
      "median": 1.924,
      "min": 1.629,
      "max": 2.209
    },
    "e85": {
      "count": 45,
      "mean": 1.5808,
      "median": 1.552,
      "min": 1.291,
      "max": 2.899
    },
    "gplc": {
      "count": 150,
      "mean": 0.7402,
      "median": 0.729,
      "min": 0.605,
      "max": 0.999
    }
  },
  "stations": [
    {
      "id": "11874",
      "cp": "",
      "ville": "Agliè",
      "adresse": "s.p. 41 Via Circonvallazione  Aglie' S/N 10011",
      "brand": "q8",
      "lat": 45.362277267760085,
      "lng": 7.7594934699059195,
      "fuels": {
        "sp95": 1.899,
        "gazole": 2.069
      }
    },
    {
      "id": "9902",
      "cp": "",
      "ville": "Airasca",
      "adresse": "s.s. 23 Del Sestriere Km 26+0,93",
      "brand": "Api-Ip",
      "lat": 44.911486750103315,
      "lng": 7.4605536460876465,
      "fuels": {
        "sp95": 2.019,
        "gazole": 2.119,
        "gplc": 0.71
      }
    },
    {
      "id": "17525",
      "cp": "",
      "ville": "Airasca",
      "adresse": "Statale 23 Del Colle Di sestriere, km. 22+400 snc, dir. Airasca  10060",
      "brand": "Esso",
      "lat": 44.921400978345154,
      "lng": 7.502461820840836,
      "fuels": {
        "sp95": 1.929,
        "gazole": 2.089
      }
    },
    {
      "id": "52112",
      "cp": "",
      "ville": "Albiano D'Ivrea",
      "adresse": "Strada Provinciale Ivrea/Cigliano  Km 5 10010",
      "brand": "Api-Ip",
      "lat": 45.44472620074555,
      "lng": 7.921724617481232,
      "fuels": {
        "sp95": 1.909,
        "gazole": 2.049,
        "gplc": 0.729
      }
    },
    {
      "id": "40943",
      "cp": "",
      "ville": "Albiano D'Ivrea",
      "adresse": "Via Caravino 18 10010",
      "brand": "Pompe Bianche",
      "lat": 45.4273623316446,
      "lng": 7.948179915547371,
      "fuels": {
        "sp95": 1.958,
        "gazole": 2.178
      }
    },
    {
      "id": "6389",
      "cp": "",
      "ville": "Almese",
      "adresse": "s.p. Almese-Col Del Lys Km 3 Snc 10040",
      "brand": "q8",
      "lat": 45.113941699341055,
      "lng": 7.390994232540834,
      "fuels": {
        "sp95": 1.899,
        "gazole": 2.069
      }
    },
    {
      "id": "59381",
      "cp": "",
      "ville": "Almese",
      "adresse": "Via Circonvallazione 82  10072",
      "brand": "Agip Eni",
      "lat": 45.1147466,
      "lng": 7.390122499999999,
      "fuels": {
        "sp95": 1.944,
        "gazole": 2.074
      }
    },
    {
      "id": "36991",
      "cp": "",
      "ville": "Alpignano",
      "adresse": "s. p. Alpignano-Rivoli 57 10091",
      "brand": "Api-Ip",
      "lat": 45.087480092461526,
      "lng": 7.5232261419296265,
      "fuels": {
        "sp95": 1.898,
        "gazole": 2.039
      }
    },
    {
      "id": "58514",
      "cp": "",
      "ville": "Alpignano",
      "adresse": "s.s.  24 km.16+760",
      "brand": "Agip Eni",
      "lat": 45.1047,
      "lng": 7.504647,
      "fuels": {
        "sp95": 1.929,
        "gazole": 2.079,
        "gplc": 0.719
      }
    },
    {
      "id": "7872",
      "cp": "",
      "ville": "Alpignano",
      "adresse": "Val Della Torre 210 10091",
      "brand": "Esso",
      "lat": 45.11918184652125,
      "lng": 7.505966126918793,
      "fuels": {
        "sp95": 1.938,
        "gazole": 2.069,
        "e85": 1.599,
        "gplc": 0.743
      }
    },
    {
      "id": "43361",
      "cp": "",
      "ville": "Alpignano",
      "adresse": "Via Venaria 8 10091",
      "brand": "Api-Ip",
      "lat": 45.10202250519849,
      "lng": 7.534227084655754,
      "fuels": {
        "sp95": 1.939,
        "gazole": 2.119
      }
    },
    {
      "id": "59612",
      "cp": "",
      "ville": "Andezeno",
      "adresse": "Chieri 100 10020",
      "brand": "q8",
      "lat": 45.027457722991294,
      "lng": 7.851127518408513,
      "fuels": {
        "sp95": 1.899,
        "gazole": 2.079,
        "gplc": 0.745
      }
    },
    {
      "id": "32456",
      "cp": "",
      "ville": "Andezeno",
      "adresse": "Via Chieri (s.p.119) 15 10020",
      "brand": "Api-Ip",
      "lat": 45.03435875961554,
      "lng": 7.864825480985701,
      "fuels": {
        "sp95": 1.949,
        "gazole": 2.059
      }
    },
    {
      "id": "9505",
      "cp": "",
      "ville": "Avigliana",
      "adresse": "Corso Laghi 222 10051",
      "brand": "Tamoil",
      "lat": 45.07548426985645,
      "lng": 7.394983957672139,
      "fuels": {
        "sp95": 1.949,
        "gazole": 2.089
      }
    },
    {
      "id": "44444",
      "cp": "",
      "ville": "Avigliana",
      "adresse": "Via f. E g. Falcone 103 10051",
      "brand": "Conad",
      "lat": 45.086783348277656,
      "lng": 7.408416330024693,
      "fuels": {
        "sp95": 1.895,
        "gazole": 2.065,
        "e85": 1.699
      }
    },
    {
      "id": "56789",
      "cp": "",
      "ville": "Avigliana",
      "adresse": "Via Torino 15 10051",
      "brand": "Agip Eni",
      "lat": 45.07568791268255,
      "lng": 7.392734778113663,
      "fuels": {
        "sp95": 1.949,
        "gazole": 2.059
      }
    },
    {
      "id": "61044",
      "cp": "",
      "ville": "Bairo",
      "adresse": "p. Ex Ss 565 Km 14+47 Sn 10010",
      "brand": "Kerotris",
      "lat": 45.3800978,
      "lng": 7.7331647,
      "fuels": {
        "sp95": 1.899,
        "gazole": 2.059,
        "gplc": 0.688
      }
    },
    {
      "id": "51630",
      "cp": "",
      "ville": "Bairo",
      "adresse": "s.p. Bairo-Agliè Km 9+809  10010",
      "brand": "Tamoil",
      "lat": 45.38199565176413,
      "lng": 7.761563411045063,
      "fuels": {
        "sp95": 1.949,
        "gazole": 1.998
      }
    },
    {
      "id": "40313",
      "cp": "",
      "ville": "Balangero",
      "adresse": "Stradale Mathi 2 10070",
      "brand": "Pompe Bianche",
      "lat": 45.26630319550874,
      "lng": 7.519732564687729,
      "fuels": {
        "sp95": 1.967,
        "gazole": 2.099
      }
    },
    {
      "id": "42893",
      "cp": "",
      "ville": "Banchette",
      "adresse": "s.c. Banchette/Samone 11 10010",
      "brand": "Tamoil",
      "lat": 45.45790831166072,
      "lng": 7.859473247672099,
      "fuels": {
        "sp95": 1.959,
        "gazole": 2.099
      }
    },
    {
      "id": "3749",
      "cp": "",
      "ville": "Bardonecchia",
      "adresse": "Autostrada t4 Traforo  Del frejus, km. 0, dir. Est -",
      "brand": "Tamoil",
      "lat": 45.08172108517396,
      "lng": 6.710970721159015,
      "fuels": {
        "sp95": 2.209,
        "gazole": 2.329
      }
    },
    {
      "id": "40263",
      "cp": "",
      "ville": "Bardonecchia",
      "adresse": "Piazza Europa 14 10052",
      "brand": "Tamoil",
      "lat": 45.07593903555015,
      "lng": 6.709295064210892,
      "fuels": {
        "sp95": 1.999,
        "gazole": 1.619
      }
    },
    {
      "id": "10458",
      "cp": "",
      "ville": "Bardonecchia",
      "adresse": "Via Torino 10 10052",
      "brand": "Agip Eni",
      "lat": 45.07483211704957,
      "lng": 6.71299874826218,
      "fuels": {
        "sp95": 1.979,
        "gazole": 1.764
      }
    },
    {
      "id": "49146",
      "cp": "",
      "ville": "Beinasco",
      "adresse": "a55 tang.le Di Torino-dir. pinerolo, km. 2,670 , Pinerolo - 10092",
      "brand": "Api-Ip",
      "lat": 45.01229802192051,
      "lng": 7.581468819018551,
      "fuels": {
        "sp95": 2.019,
        "gazole": 2.059,
        "gplc": 0.899
      }
    },
    {
      "id": "62525",
      "cp": "",
      "ville": "Beinasco",
      "adresse": "Autostrada a55 tang.le Di Torino-dir. pinerolo,  km. 1905, dir. Dir Torino 10092",
      "brand": "Agip Eni",
      "lat": 45.0178365,
      "lng": 7.5924342,
      "fuels": {
        "sp95": 2.055,
        "gazole": 2.194,
        "gplc": 0.799
      }
    },
    {
      "id": "44511",
      "cp": "",
      "ville": "Beinasco",
      "adresse": "Strada Orbassano Km 10 620 10092",
      "brand": "Agip Eni",
      "lat": 45.018501000123,
      "lng": 7.578066000123,
      "fuels": {
        "sp95": 1.924,
        "gazole": 2.054
      }
    },
    {
      "id": "60541",
      "cp": "",
      "ville": "Beinasco",
      "adresse": "Torino 51 10092",
      "brand": "Esso",
      "lat": 45.02719,
      "lng": 7.59505,
      "fuels": {
        "sp95": 1.909,
        "gazole": 2.069
      }
    },
    {
      "id": "53816",
      "cp": "",
      "ville": "Beinasco",
      "adresse": "Via s. Luigi 3  10092",
      "brand": "Api-Ip",
      "lat": 45.0283264738146,
      "lng": 7.5841716263402965,
      "fuels": {
        "sp95": 1.898,
        "gazole": 2.099
      }
    },
    {
      "id": "56535",
      "cp": "",
      "ville": "Beinasco",
      "adresse": "Via San Felice 42 10092, Beinasco (to) 40  10092",
      "brand": "Socogas",
      "lat": 45.0303043,
      "lng": 7.59176658,
      "fuels": {
        "gplc": 0.749
      }
    },
    {
      "id": "14958",
      "cp": "",
      "ville": "Beinasco",
      "adresse": "Viale Falcone/loc. Le Fornaci s.n. 10092, Beinasco (to) Snc 10092",
      "brand": "Sacom",
      "lat": 45.02162324376023,
      "lng": 7.593108415603639,
      "fuels": {
        "sp95": 1.919,
        "gazole": 2.069
      }
    },
    {
      "id": "45403",
      "cp": "",
      "ville": "Bibiana",
      "adresse": "Via Pinerolo 66 10060",
      "brand": "q8",
      "lat": 44.80108841719986,
      "lng": 7.289274713563714,
      "fuels": {
        "sp95": 1.889,
        "gazole": 2.109
      }
    },
    {
      "id": "6228",
      "cp": "",
      "ville": "Bollengo",
      "adresse": "228 Del Lago Di viverone, km. 5.4, Ivrea - 10012",
      "brand": "Tamoil",
      "lat": 45.47008530653909,
      "lng": 7.937876880168915,
      "fuels": {
        "sp95": 1.899,
        "gazole": 2.069
      }
    },
    {
      "id": "5702",
      "cp": "",
      "ville": "Bollengo",
      "adresse": "Statale 228 Del Lago Di viverone, km. 7+100, dir. Viverone - 10012",
      "brand": "q8",
      "lat": 45.46559371465181,
      "lng": 7.958162426948547,
      "fuels": {
        "sp95": 1.959,
        "gazole": 2.159,
        "gplc": 0.749
      }
    },
    {
      "id": "57662",
      "cp": "",
      "ville": "Borgaro Torinese",
      "adresse": "11 Del Villaretto Al Km 3+979 10071",
      "brand": "Esso",
      "lat": 45.14626,
      "lng": 7.67751,
      "fuels": {
        "sp95": 1.939,
        "gazole": 2.079,
        "gplc": 0.719
      }
    },
    {
      "id": "60183",
      "cp": "",
      "ville": "Borgaro Torinese",
      "adresse": "Lanzo 21 10071",
      "brand": "q8",
      "lat": 45.1031046,
      "lng": 7.6491896,
      "fuels": {
        "sp95": 1.939,
        "gazole": 2.089
      }
    },
    {
      "id": "61646",
      "cp": "",
      "ville": "Borgaro Torinese",
      "adresse": "Lanzo 76 10071",
      "brand": "Esso",
      "lat": 45.1457480224782,
      "lng": 7.655516713857651,
      "fuels": {
        "sp95": 1.899,
        "gazole": 2.059
      }
    },
    {
      "id": "32694",
      "cp": "",
      "ville": "Borgaro Torinese",
      "adresse": "Sp Torino Caselle Km 11+325  10071",
      "brand": "Api-Ip",
      "lat": 45.15676107613564,
      "lng": 7.654906511306763,
      "fuels": {
        "sp95": 1.979,
        "gazole": 2.169
      }
    },
    {
      "id": "11873",
      "cp": "",
      "ville": "Borgaro Torinese",
      "adresse": "Strad prov. Torino-Lanzo S/N 10071",
      "brand": "q8",
      "lat": 45.14140756768663,
      "lng": 7.655451720237693,
      "fuels": {
        "sp95": 1.989,
        "gazole": 2.099
      }
    },
    {
      "id": "24891",
      "cp": "",
      "ville": "Borgaro Torinese",
      "adresse": "Via Lanzo 18 10071",
      "brand": "q8",
      "lat": 45.13680709766655,
      "lng": 7.65623984603269,
      "fuels": {
        "sp95": 1.949,
        "gazole": 2.099
      }
    },
    {
      "id": "23706",
      "cp": "",
      "ville": "Borgaro Torinese",
      "adresse": "Via Rivarolo 84 10071",
      "brand": "Tamoil",
      "lat": 45.145742961647954,
      "lng": 7.707261516532867,
      "fuels": {
        "sp95": 1.939,
        "gazole": 2.099
      }
    },
    {
      "id": "56250",
      "cp": "",
      "ville": "Borgofranco D'Ivrea",
      "adresse": "Marconi/Via Cavour 21 10013",
      "brand": "Centro Calor",
      "lat": 45.51591701947719,
      "lng": 7.858086860462183,
      "fuels": {
        "sp95": 1.879,
        "gazole": 2.089
      }
    },
    {
      "id": "39875",
      "cp": "",
      "ville": "Borgomasino",
      "adresse": "Strada Statale km. 15+370, dir. Cigliano-Ivrea  10031",
      "brand": "Api-Ip",
      "lat": 45.36901265951655,
      "lng": 7.98198799292707,
      "fuels": {
        "sp95": 1.889,
        "gazole": 1.989,
        "gplc": 0.819
      }
    },
    {
      "id": "24876",
      "cp": "",
      "ville": "Borgone Susa",
      "adresse": "Statale 25 Del moncenisio, km. 38,26, dir. Susa - -",
      "brand": "Agip Eni",
      "lat": 45.12422404562567,
      "lng": 7.229846119880676,
      "fuels": {
        "sp95": 1.954,
        "gazole": 2.057,
        "e85": 1.562
      }
    },
    {
      "id": "28357",
      "cp": "",
      "ville": "Bosconero",
      "adresse": "Strada Nazionale 21 10080",
      "brand": "Beyfin",
      "lat": 45.28087172032888,
      "lng": 7.74462103843689,
      "fuels": {
        "sp95": 1.909,
        "gazole": 2.089,
        "gplc": 0.699
      }
    },
    {
      "id": "26755",
      "cp": "",
      "ville": "Brandizzo",
      "adresse": "11 Km 18+235 Snc 10032",
      "brand": "Agip Eni",
      "lat": 45.17749134047687,
      "lng": 7.838082432790543,
      "fuels": {
        "sp95": 1.914,
        "gazole": 2.054
      }
    },
    {
      "id": "10540",
      "cp": "",
      "ville": "Bricherasio",
      "adresse": "s.p. 161 Dir km.2,300  10060",
      "brand": "Centro Calor",
      "lat": 44.83040987905618,
      "lng": 7.318063974380493,
      "fuels": {
        "sp95": 1.889,
        "gazole": 2.099,
        "gplc": 0.719
      }
    },
    {
      "id": "19954",
      "cp": "",
      "ville": "Bricherasio",
      "adresse": "Strada Pinerolo 101 10060",
      "brand": "Api-Ip",
      "lat": 44.84510298656677,
      "lng": 7.312377020716667,
      "fuels": {
        "sp95": 1.999,
        "gazole": 2.269
      }
    },
    {
      "id": "60613",
      "cp": "",
      "ville": "Bricherasio",
      "adresse": "Via Circonvallazione 47 10060",
      "brand": "Retitalia",
      "lat": 44.8192065,
      "lng": 7.304666,
      "fuels": {
        "sp95": 1.929,
        "gazole": 2.099
      }
    },
    {
      "id": "13926",
      "cp": "",
      "ville": "Bricherasio",
      "adresse": "Via Circonvallazione 7 10060",
      "brand": "Agip Eni",
      "lat": 44.83133016264886,
      "lng": 7.308190762996674,
      "fuels": {
        "sp95": 1.924,
        "gazole": 2.074
      }
    },
    {
      "id": "55902",
      "cp": "",
      "ville": "Bruino",
      "adresse": "Via Orbassano 79  10090",
      "brand": "Dis-Car",
      "lat": 45.018744938770375,
      "lng": 7.481237870756541,
      "fuels": {
        "sp95": 1.915,
        "gazole": 2.069
      }
    },
    {
      "id": "60618",
      "cp": "",
      "ville": "Brusasco",
      "adresse": "Sp 107 Brusasco / Crescentino Km 0+875 10020",
      "brand": "Economysrl",
      "lat": 45.15610526685613,
      "lng": 8.06094897751863,
      "fuels": {
        "sp95": 1.889,
        "gazole": 1.999
      }
    },
    {
      "id": "22077",
      "cp": "",
      "ville": "Bruzolo",
      "adresse": "Null ss. nr. 25 km. 40 + 972 - 10050",
      "brand": "Socogas",
      "lat": 45.13694774029446,
      "lng": 7.175960540771484,
      "fuels": {
        "sp95": 1.929,
        "gazole": 2.139,
        "gplc": 0.799
      }
    },
    {
      "id": "33446",
      "cp": "",
      "ville": "Buriasco",
      "adresse": "Via Circonvallazione Sn 10060",
      "brand": "Tamoil",
      "lat": 44.87166667088725,
      "lng": 7.407947480678558,
      "fuels": {
        "sp95": 1.739,
        "gazole": 2.119,
        "gplc": 0.699
      }
    },
    {
      "id": "48734",
      "cp": "",
      "ville": "Burolo",
      "adresse": "Via Friuli Snc  10010",
      "brand": "Tamoil",
      "lat": 45.484171784087565,
      "lng": 7.9315376482155076,
      "fuels": {
        "sp95": 1.869,
        "gazole": 2.089
      }
    },
    {
      "id": "39427",
      "cp": "",
      "ville": "Busano",
      "adresse": "Stefano Bruda s.n.c. 10080",
      "brand": "Agip Eni",
      "lat": 45.321891806740595,
      "lng": 7.659763991832733,
      "fuels": {
        "sp95": 1.924,
        "gazole": 2.054,
        "e85": 1.547,
        "gplc": 0.649
      }
    },
    {
      "id": "7350",
      "cp": "",
      "ville": "Bussoleno",
      "adresse": "Statale 25 Del moncenisio, km. 44, dir. Susa  10053",
      "brand": "Esso",
      "lat": 45.13797917905389,
      "lng": 7.157998244349642,
      "fuels": {
        "sp95": 1.939,
        "gazole": 2.109
      }
    },
    {
      "id": "11859",
      "cp": "",
      "ville": "Buttigliera Alta",
      "adresse": "fz. Ferriere c.so Torino S/N 10090",
      "brand": "q8",
      "lat": 45.08358484928733,
      "lng": 7.43193218650822,
      "fuels": {
        "sp95": 1.915,
        "gazole": 2.095
      }
    },
    {
      "id": "32022",
      "cp": "",
      "ville": "Buttigliera Alta",
      "adresse": "sp.rivoli/Avigliana km.6+930  10090",
      "brand": "Api-Ip",
      "lat": 45.06680947197759,
      "lng": 7.434045597553222,
      "fuels": {
        "sp95": 1.929,
        "gazole": 2.109
      }
    },
    {
      "id": "19989",
      "cp": "",
      "ville": "Cafasse",
      "adresse": "Strada Provinciale Torino Lanzo km.24.9  10070",
      "brand": "Tamoil",
      "lat": 45.246310509551684,
      "lng": 7.5137049620168455,
      "fuels": {
        "sp95": 1.979,
        "gazole": 1.305
      }
    },
    {
      "id": "13061",
      "cp": "",
      "ville": "Cafasse",
      "adresse": "Strada Provinciale Torino/Lanzo Km 26+140, dir. Torino   10070",
      "brand": "Api-Ip",
      "lat": 45.252929961294775,
      "lng": 7.507566064596176,
      "fuels": {
        "sp95": 1.974,
        "gazole": 2.124
      }
    },
    {
      "id": "12470",
      "cp": "",
      "ville": "Caluso",
      "adresse": "Corso Torino 33 10014",
      "brand": "Europam",
      "lat": 45.30167468874566,
      "lng": 7.889766744180292,
      "fuels": {
        "sp95": 1.939,
        "gazole": 1.999
      }
    },
    {
      "id": "11875",
      "cp": "",
      "ville": "Caluso",
      "adresse": "Nuova Circonvallazione Km 1+39 S/N 10014",
      "brand": "q8",
      "lat": 45.30341353803404,
      "lng": 7.879050672054291,
      "fuels": {
        "sp95": 1.949,
        "gazole": 2.069
      }
    },
    {
      "id": "62419",
      "cp": "",
      "ville": "Caluso",
      "adresse": "Via Charles De Cossé De Brissac 26 10014",
      "brand": "Bianco Carburanti",
      "lat": 45.3087,
      "lng": 7.8854,
      "fuels": {
        "sp95": 1.899,
        "gazole": 2.019
      }
    },
    {
      "id": "61878",
      "cp": "",
      "ville": "Cambiano",
      "adresse": "Via Nazionale 10 10020",
      "brand": "Tamoil",
      "lat": 44.972717,
      "lng": 7.762289,
      "fuels": {
        "sp95": 1.929,
        "gazole": 2.089
      }
    },
    {
      "id": "49030",
      "cp": "",
      "ville": "Cambiano",
      "adresse": "Via s.p. Cambiano/Chieri km.16+073 s.n. 10020, Cambiano (to) 197 10020",
      "brand": "Sacom",
      "lat": 44.98309677167944,
      "lng": 7.785987073071281,
      "fuels": {
        "sp95": 1.909,
        "gazole": 2.069,
        "gplc": 0.739
      }
    },
    {
      "id": "60301",
      "cp": "",
      "ville": "Campiglione Fenile",
      "adresse": "Via Bibiana 1  10060",
      "brand": "Api-Ip",
      "lat": 44.803407162749004,
      "lng": 7.315292336679824,
      "fuels": {
        "sp95": 1.929,
        "gazole": 2.099
      }
    },
    {
      "id": "60630",
      "cp": "",
      "ville": "Candia Canavese",
      "adresse": "Via Roma  73 10010",
      "brand": "Economysrl",
      "lat": 45.322718025412826,
      "lng": 7.878940498750178,
      "fuels": {
        "sp95": 1.889,
        "gazole": 1.999
      }
    },
    {
      "id": "4849",
      "cp": "",
      "ville": "Candiolo",
      "adresse": "Strada Per Orbassano km. 6+470  10060",
      "brand": "Socogas",
      "lat": 44.96629050944528,
      "lng": 7.570121884346008,
      "fuels": {
        "sp95": 1.987,
        "gazole": 2.064,
        "gplc": 0.739
      }
    },
    {
      "id": "45742",
      "cp": "",
      "ville": "Candiolo",
      "adresse": "Torino 19 10060",
      "brand": "Tamoil",
      "lat": 44.960996540545416,
      "lng": 7.604451719881126,
      "fuels": {
        "sp95": 1.929,
        "gazole": 2.099
      }
    },
    {
      "id": "51628",
      "cp": "",
      "ville": "Carignano",
      "adresse": "20 Del Colle Di Tenda E Di Valle roja, km. 9+827, Nord -",
      "brand": "Tamoil",
      "lat": 44.915075698252096,
      "lng": 7.67657195337295,
      "fuels": {
        "sp95": 1.869,
        "gazole": 2.018
      }
    },
    {
      "id": "61327",
      "cp": "",
      "ville": "Carignano",
      "adresse": "s.p. 142 Km 17+810  10041",
      "brand": "Esso",
      "lat": 44.890754,
      "lng": 7.672604,
      "fuels": {
        "sp95": 1.945,
        "gazole": 2.089,
        "gplc": 0.729
      }
    },
    {
      "id": "25375",
      "cp": "",
      "ville": "Carignano",
      "adresse": "s.s 20 Km 11+620/Via s.pellico 81 10041",
      "brand": "Tamoil",
      "lat": 44.90127690605022,
      "lng": 7.671996771377621,
      "fuels": {
        "sp95": 1.879,
        "gazole": 2.019
      }
    },
    {
      "id": "35942",
      "cp": "",
      "ville": "Carignano",
      "adresse": "Saluzzo 1 10041",
      "brand": "Agip Eni",
      "lat": 44.89559294893613,
      "lng": 7.66992396198566,
      "fuels": {
        "sp95": 1.929,
        "gazole": 2.079
      }
    },
    {
      "id": "43916",
      "cp": "",
      "ville": "Carignano",
      "adresse": "Sp 142 Per Orbassano  10041",
      "brand": "Europam",
      "lat": 44.90403034858639,
      "lng": 7.6511599533729395,
      "fuels": {
        "sp95": 1.917,
        "gazole": 2.047,
        "gplc": 0.727
      }
    },
    {
      "id": "18012",
      "cp": "",
      "ville": "Carmagnola",
      "adresse": "20 Del Colle Di Tenda E Di Valle roja, km. 16.329, Carignano Snc 10022",
      "brand": "Api-Ip",
      "lat": 44.87133877295011,
      "lng": 7.708958387374878,
      "fuels": {
        "sp95": 1.859,
        "gazole": 2.089,
        "e85": 1.529
      }
    },
    {
      "id": "45981",
      "cp": "",
      "ville": "Carmagnola",
      "adresse": "20 Del Colle Di Tenda E Di Valle roja, km. 18+520, Torino - 10022",
      "brand": "Agip Eni",
      "lat": 44.85630740802093,
      "lng": 7.723999588652305,
      "fuels": {
        "sp95": 1.949,
        "gazole": 2.079
      }
    },
    {
      "id": "58246",
      "cp": "",
      "ville": "Carmagnola",
      "adresse": "Autostrada a6 Torino-savona,  km. 10.826, dir. Sud 10022",
      "brand": "Esso",
      "lat": 44.87411712,
      "lng": 7.746331479,
      "fuels": {
        "sp95": 1.999,
        "gazole": 2.199,
        "gplc": 0.799
      }
    },
    {
      "id": "62714",
      "cp": "",
      "ville": "Carmagnola",
      "adresse": "Autostrada a6 Torino-savona,  km. 10.826, dir. Sud 10022",
      "brand": "Esso",
      "lat": 44.87411712,
      "lng": 7.746331479,
      "fuels": {
        "gazole": 1.998
      }
    },
    {
      "id": "7296",
      "cp": "",
      "ville": "Carmagnola",
      "adresse": "C/O Cc Bennet Sn 10022",
      "brand": "q8",
      "lat": 44.845411826489986,
      "lng": 7.7320696413517,
      "fuels": {
        "sp95": 1.968,
        "gazole": 2.099,
        "gplc": 0.729
      }
    },
    {
      "id": "10411",
      "cp": "",
      "ville": "Carmagnola",
      "adresse": "San Francesco Di Sales 14 10022",
      "brand": "Agip Eni",
      "lat": 44.850755593832346,
      "lng": 7.722544050787292,
      "fuels": {
        "sp95": 1.949,
        "gazole": 2.079
      }
    },
    {
      "id": "53645",
      "cp": "",
      "ville": "Carmagnola",
      "adresse": "Statale 129 Via Poirino 90/92 10022",
      "brand": "Tamoil",
      "lat": 44.849681935895156,
      "lng": 7.742102097360544,
      "fuels": {
        "sp95": 1.958,
        "gazole": 2.148,
        "gplc": 0.738
      }
    },
    {
      "id": "57343",
      "cp": "",
      "ville": "Carmagnola",
      "adresse": "Via Del Porto  10022",
      "brand": "Tamoil",
      "lat": 44.8432423,
      "lng": 7.70141467,
      "fuels": {
        "sp95": 1.899,
        "gazole": 2.069
      }
    },
    {
      "id": "10106",
      "cp": "",
      "ville": "Carmagnola",
      "adresse": "Via Racconigi   10022",
      "brand": "Api-Ip",
      "lat": 44.826950789945805,
      "lng": 7.710684388875961,
      "fuels": {
        "sp95": 1.959,
        "gazole": 2.119
      }
    },
    {
      "id": "50654",
      "cp": "",
      "ville": "Carmagnola",
      "adresse": "Via Sommariva 120 10022",
      "brand": "Api-Ip",
      "lat": 44.838993671259296,
      "lng": 7.730930250279089,
      "fuels": {
        "sp95": 1.979,
        "gazole": 2.139,
        "gplc": 0.779
      }
    },
    {
      "id": "57981",
      "cp": "",
      "ville": "Carmagnola",
      "adresse": "Via Torino 40  10022",
      "brand": "Esso",
      "lat": 44.85312178887691,
      "lng": 7.7249515325444795,
      "fuels": {
        "sp95": 1.919,
        "gazole": 2.099
      }
    },
    {
      "id": "48544",
      "cp": "",
      "ville": "Casalborgone",
      "adresse": "s.s. 458 Al Km 6+160 s.n. 10020",
      "brand": "Tamoil",
      "lat": 45.133633639103394,
      "lng": 7.940451125581989,
      "fuels": {
        "sp95": 1.959,
        "gazole": 2.099
      }
    },
    {
      "id": "55214",
      "cp": "",
      "ville": "Cascinette D'Ivrea",
      "adresse": "str. Provinciale 74 Snc 10010",
      "brand": "Api-Ip",
      "lat": 45.1108359,
      "lng": 7.6992106,
      "fuels": {
        "sp95": 1.889,
        "gazole": 1.989
      }
    },
    {
      "id": "44380",
      "cp": "",
      "ville": "Caselette",
      "adresse": "s.s. 24 km. 17+300 Snc 10040",
      "brand": "Tamoil",
      "lat": 45.107418540639756,
      "lng": 7.498976959940592,
      "fuels": {
        "sp95": 1.899,
        "gazole": 2.089
      }
    },
    {
      "id": "7301",
      "cp": "",
      "ville": "Caselle Torinese",
      "adresse": "C/O Cc Bennet Sn 10072",
      "brand": "q8",
      "lat": 45.16870594550772,
      "lng": 7.653812565641374,
      "fuels": {
        "sp95": 1.949,
        "gazole": 2.099,
        "e85": 1.439,
        "gplc": 0.718
      }
    },
    {
      "id": "62594",
      "cp": "",
      "ville": "Caselle Torinese",
      "adresse": "s.p.  Torino - Caselle Km 12 + 400  Sn 48",
      "brand": "Agip Eni",
      "lat": 45.16802,
      "lng": 7.6525564,
      "fuels": {
        "sp95": 1.919,
        "gazole": 2.059
      }
    },
    {
      "id": "59860",
      "cp": "",
      "ville": "Caselle Torinese",
      "adresse": "s.p. 267 Km 10+400 Fraz Mappano  Snc 10072",
      "brand": "Api-Ip",
      "lat": 45.156758049922594,
      "lng": 7.709183692932129,
      "fuels": {
        "sp95": 1.959,
        "gazole": 2.179,
        "e85": 1.459,
        "gplc": 0.799
      }
    },
    {
      "id": "50784",
      "cp": "",
      "ville": "Caselle Torinese",
      "adresse": "s.p.10   10072",
      "brand": "Tamoil",
      "lat": 45.18185232242998,
      "lng": 7.67755722990727,
      "fuels": {
        "sp95": 1.929,
        "gazole": 2.079,
        "gplc": 0.718
      }
    },
    {
      "id": "62932",
      "cp": "",
      "ville": "Caselle Torinese",
      "adresse": "str. s. Maurizio 12 10072",
      "brand": "Agip Eni",
      "lat": 45.1900287,
      "lng": 7.6426924,
      "fuels": {
        "sp95": 1.914,
        "gazole": 2.034
      }
    },
    {
      "id": "62248",
      "cp": "",
      "ville": "Caselle Torinese",
      "adresse": "Strada Cuorgnè 83  10072",
      "brand": "Esso",
      "lat": 45.150383,
      "lng": 7.708361999999999,
      "fuels": {
        "sp95": 1.929,
        "gazole": 2.099
      }
    },
    {
      "id": "61803",
      "cp": "",
      "ville": "Caselle Torinese",
      "adresse": "Torino - Caselle Km  11.5 10072",
      "brand": "Agip Eni",
      "lat": 45.16245,
      "lng": 7.65503,
      "fuels": {
        "sp95": 1.919,
        "gazole": 2.059,
        "gplc": 0.728
      }
    },
    {
      "id": "20694",
      "cp": "",
      "ville": "Castagnole Piemonte",
      "adresse": "Circonvallazione 2 10060",
      "brand": "Agip Eni",
      "lat": 44.90402935332706,
      "lng": 7.559255585074425,
      "fuels": {
        "sp95": 1.938,
        "gazole": 2.054,
        "gplc": 0.729
      }
    },
    {
      "id": "61952",
      "cp": "",
      "ville": "Castellamonte",
      "adresse": "Cuorgne 5 10081",
      "brand": "Costantin",
      "lat": 45.3820128,
      "lng": 7.70076334,
      "fuels": {
        "sp95": 1.919,
        "gazole": 2.079
      }
    },
    {
      "id": "52787",
      "cp": "",
      "ville": "Castellamonte",
      "adresse": "Provinciale 222 km18+951 10081",
      "brand": "Dis-Car",
      "lat": 45.35660734778953,
      "lng": 7.734096285009753,
      "fuels": {
        "sp95": 1.925,
        "gazole": 2.079,
        "gplc": 0.645
      }
    },
    {
      "id": "32042",
      "cp": "",
      "ville": "Castellamonte",
      "adresse": "s.p. 222 Castellamonte  10081",
      "brand": "Agip Eni",
      "lat": 45.36211519463175,
      "lng": 7.727548778057098,
      "fuels": {
        "sp95": 1.944,
        "gazole": 2.054,
        "e85": 1.554,
        "gplc": 0.649
      }
    },
    {
      "id": "61487",
      "cp": "",
      "ville": "Castellamonte",
      "adresse": "s.p.222  Km 14+100 - Via Torino  9",
      "brand": "Agip Eni",
      "lat": 45.37388,
      "lng": 7.7139463,
      "fuels": {
        "sp95": 1.949,
        "gazole": 2.079
      }
    },
    {
      "id": "56749",
      "cp": "",
      "ville": "Castellamonte",
      "adresse": "sp. 222  Dal km. 17+067 Al km. 1",
      "brand": "Tamoil",
      "lat": 45.3691182,
      "lng": 7.71903343,
      "fuels": {
        "sp95": 1.929,
        "gazole": 2.089
      }
    },
    {
      "id": "49699",
      "cp": "",
      "ville": "Castellamonte",
      "adresse": "Via Ivrea 15 10081",
      "brand": "Api-Ip",
      "lat": 45.38795650365201,
      "lng": 7.723513398858859,
      "fuels": {
        "sp95": 2.049,
        "gazole": 2.199
      }
    },
    {
      "id": "47412",
      "cp": "",
      "ville": "Castelnuovo Nigra",
      "adresse": "Piazza Martiri Della Liberta' Snc 10080",
      "brand": "Pompe Bianche",
      "lat": 45.437437000123,
      "lng": 7.692832000123,
      "fuels": {
        "sp95": 1.799,
        "gazole": 1.909
      }
    },
    {
      "id": "44452",
      "cp": "",
      "ville": "Castiglione Torinese",
      "adresse": "s.s. 590 km.11+790- Via Torino 133 10090",
      "brand": "Tamoil",
      "lat": 45.12009254631437,
      "lng": 7.810543700000039,
      "fuels": {
        "sp95": 1.979,
        "gazole": 2.099
      }
    },
    {
      "id": "11858",
      "cp": "",
      "ville": "Castiglione Torinese",
      "adresse": "ss.590 km.12+491 Via Torino 261 10090",
      "brand": "q8",
      "lat": 45.12350976599601,
      "lng": 7.817653236770639,
      "fuels": {
        "sp95": 1.919,
        "gazole": 2.059
      }
    },
    {
      "id": "60584",
      "cp": "",
      "ville": "Cavagnolo",
      "adresse": "Via c.colombo 227  10020",
      "brand": "Economysrl",
      "lat": 45.151604169562745,
      "lng": 8.052130087247965,
      "fuels": {
        "sp95": 1.929,
        "gazole": 1.999
      }
    },
    {
      "id": "48539",
      "cp": "",
      "ville": "Cavour",
      "adresse": "Cottolengo 7 10061",
      "brand": "Tamoil",
      "lat": 44.78631073668845,
      "lng": 7.36736297005943,
      "fuels": {
        "sp95": 1.929,
        "gazole": 2.099,
        "gplc": 0.699
      }
    },
    {
      "id": "61622",
      "cp": "",
      "ville": "Cavour",
      "adresse": "s.s. 589 Km  41 + 765  s.n.c",
      "brand": "Agip Eni",
      "lat": 44.8063,
      "lng": 7.3732533,
      "fuels": {
        "sp95": 1.92,
        "gazole": 2.069,
        "gplc": 0.712
      }
    },
    {
      "id": "55900",
      "cp": "",
      "ville": "Cavour",
      "adresse": "Saluzzo - Ex s.s. 589 80/A 10061",
      "brand": "Dis-Car",
      "lat": 44.77519007346862,
      "lng": 7.387682420317088,
      "fuels": {
        "sp95": 1.919,
        "gazole": 2.079,
        "gplc": 0.699
      }
    },
    {
      "id": "34187",
      "cp": "",
      "ville": "Ceresole Reale",
      "adresse": "Via Ex s.s. 460 km. 64+750-Borgata Barilo' Sn 10080, Ceresole Reale (to) Sn 10080",
      "brand": "Dis-Car",
      "lat": 45.432506592510556,
      "lng": 7.254401809939509,
      "fuels": {
        "sp95": 1.899,
        "gazole": 2.049
      }
    },
    {
      "id": "42780",
      "cp": "",
      "ville": "Cesana Torinese",
      "adresse": "24 Del monginevro, km. 24, Oulx - 10054",
      "brand": "Api-Ip",
      "lat": 44.97328297367626,
      "lng": 6.799269394751036,
      "fuels": {
        "sp95": 2.099,
        "gazole": 2.199
      }
    },
    {
      "id": "47026",
      "cp": "",
      "ville": "Chianocco",
      "adresse": "Statale 25 km42+188 10050",
      "brand": "Esso",
      "lat": 45.134291870332795,
      "lng": 7.183189049030489,
      "fuels": {
        "sp95": 1.969,
        "gazole": 2.099
      }
    },
    {
      "id": "37910",
      "cp": "",
      "ville": "Chieri",
      "adresse": "10 Padana inferiore, km. 19311, Chieri - 10023",
      "brand": "q8",
      "lat": 44.9958342985681,
      "lng": 7.857025131561386,
      "fuels": {
        "sp95": 1.879,
        "gazole": 2.129,
        "gplc": 0.729
      }
    },
    {
      "id": "47145",
      "cp": "",
      "ville": "Chieri",
      "adresse": "Andezeno 77 10023",
      "brand": "Tamoil",
      "lat": 45.02088857245964,
      "lng": 7.8365745378504315,
      "fuels": {
        "sp95": 1.919,
        "gazole": 2.039
      }
    },
    {
      "id": "11888",
      "cp": "",
      "ville": "Chieri",
      "adresse": "C/O Cc Iper Coop S/N 10023",
      "brand": "q8",
      "lat": 45.001238916073696,
      "lng": 7.836089920613745,
      "fuels": {
        "sp95": 1.869,
        "gazole": 2.059
      }
    },
    {
      "id": "52723",
      "cp": "",
      "ville": "Chieri",
      "adresse": "Cambiano 117 10023",
      "brand": "Pompe Bianche",
      "lat": 45.0046698,
      "lng": 7.803447,
      "fuels": {
        "sp95": 1.909,
        "gazole": 2.069
      }
    },
    {
      "id": "39869",
      "cp": "",
      "ville": "Chieri",
      "adresse": "Corso Torino 52 10023",
      "brand": "Agip Eni",
      "lat": 45.02146998708915,
      "lng": 7.809420518979664,
      "fuels": {
        "sp95": 1.949,
        "gazole": 2.059
      }
    },
    {
      "id": "58229",
      "cp": "",
      "ville": "Chieri",
      "adresse": "s.s. 10 Al Km 14+400 - Corso Torino  45",
      "brand": "Agip Eni",
      "lat": 45.021023,
      "lng": 7.810451,
      "fuels": {
        "sp95": 1.949,
        "gazole": 2.079
      }
    },
    {
      "id": "29453",
      "cp": "",
      "ville": "Chieri",
      "adresse": "Statale 10 Padana inferiore, km. 14+550, dir. Pino Torinese - 10023",
      "brand": "Api-Ip",
      "lat": 45.01997446487325,
      "lng": 7.8116810664785135,
      "fuels": {
        "sp95": 1.939,
        "gazole": 2.049
      }
    },
    {
      "id": "37603",
      "cp": "",
      "ville": "Chieri",
      "adresse": "Statale 10 Padana inferiore, km. 18 + 734, dir. Riva - 10023",
      "brand": "Centro Calor",
      "lat": 44.99864307358107,
      "lng": 7.850036546587944,
      "fuels": {
        "sp95": 1.879,
        "gazole": 2.129,
        "gplc": 0.729
      }
    },
    {
      "id": "37172",
      "cp": "",
      "ville": "Chieri",
      "adresse": "Statale 10 Padana inferiore, km. 18, dir. Chieri - 10023",
      "brand": "Agip Eni",
      "lat": 45.002217394518226,
      "lng": 7.842260152101517,
      "fuels": {
        "sp95": 1.949,
        "gazole": 2.059
      }
    },
    {
      "id": "51949",
      "cp": "",
      "ville": "Chieri",
      "adresse": "Strada Della Rezza-fraz. Airali 67 10023, Chieri (to) 67 10023",
      "brand": "Sacom",
      "lat": 45.0472086107322,
      "lng": 7.8470179633986845,
      "fuels": {
        "sp95": 1.919,
        "gazole": 2.069
      }
    },
    {
      "id": "60824",
      "cp": "",
      "ville": "Chieri",
      "adresse": "Strada Provinciale 128 7+700 Via Martini E Rossi",
      "brand": "Economysrl",
      "lat": 44.99413172742049,
      "lng": 7.837035611637322,
      "fuels": {
        "sp95": 1.858,
        "gazole": 1.998
      }
    },
    {
      "id": "19734",
      "cp": "",
      "ville": "Chieri",
      "adresse": "Via Bogino 1 10023",
      "brand": "Esso",
      "lat": 45.00784558964125,
      "lng": 7.831425941759335,
      "fuels": {
        "sp95": 1.899,
        "gazole": 2.079
      }
    },
    {
      "id": "18604",
      "cp": "",
      "ville": "Chiusa Di San Michele",
      "adresse": "Statale 25 Del moncenisio, km. 29+065, dir. Torino - 10050",
      "brand": "q8",
      "lat": 45.10496279997306,
      "lng": 7.33611524105072,
      "fuels": {
        "sp95": 1.959,
        "gazole": 2.099,
        "gplc": 0.775
      }
    },
    {
      "id": "45365",
      "cp": "",
      "ville": "Chivasso",
      "adresse": "Caluso - s.s. 26 km. 0,900 19 10034",
      "brand": "Tamoil",
      "lat": 45.1964194297148,
      "lng": 7.890122154418009,
      "fuels": {
        "sp95": 1.929,
        "gazole": 2.089
      }
    },
    {
      "id": "54833",
      "cp": "",
      "ville": "Chivasso",
      "adresse": "Corso g. Ferraris - ss. 11 km. 2",
      "brand": "Tamoil",
      "lat": 45.1943147,
      "lng": 7.91069134,
      "fuels": {
        "sp95": 1.929,
        "gazole": 2.089
      }
    },
    {
      "id": "19452",
      "cp": "",
      "ville": "Chivasso",
      "adresse": "g. Ferraris 68 10034",
      "brand": "Agip Eni",
      "lat": 45.192024623949585,
      "lng": 7.901164889335628,
      "fuels": {
        "sp95": 1.924,
        "gazole": 2.074
      }
    },
    {
      "id": "61437",
      "cp": "",
      "ville": "Chivasso",
      "adresse": "Nuova Snc 10034",
      "brand": "Pompe Bianche",
      "lat": 45.1952,
      "lng": 7.920807,
      "fuels": {
        "gplc": 0.699
      }
    },
    {
      "id": "49543",
      "cp": "",
      "ville": "Chivasso",
      "adresse": "s.s. 26 Km 1 + 548  10034",
      "brand": "Agip Eni",
      "lat": 45.20212,
      "lng": 7.889508,
      "fuels": {
        "sp95": 1.929,
        "gazole": 2.079
      }
    },
    {
      "id": "60965",
      "cp": "",
      "ville": "Chivasso",
      "adresse": "Sp Ex ss.11 Padana sup.km. 19+00",
      "brand": "Tamoil",
      "lat": 45.1906004,
      "lng": 7.86629945,
      "fuels": {
        "sp95": 1.929,
        "gazole": 2.089
      }
    },
    {
      "id": "35609",
      "cp": "",
      "ville": "Chivasso",
      "adresse": "Statale 11 Padana superiore, km. 25+300, dir. Milano - 10034",
      "brand": "Agip Eni",
      "lat": 45.195773972057474,
      "lng": 7.9182907193899155,
      "fuels": {
        "sp95": 1.924,
        "gazole": 2.074
      }
    },
    {
      "id": "62972",
      "cp": "",
      "ville": "Chivasso",
      "adresse": "Strada  Torino  24 24",
      "brand": "Agip Eni",
      "lat": 45.19007,
      "lng": 7.8812,
      "fuels": {
        "sp95": 1.919,
        "gazole": 2.079
      }
    },
    {
      "id": "37606",
      "cp": "",
      "ville": "Chivasso",
      "adresse": "Stradale Milano Snc 10034",
      "brand": "Centro Calor",
      "lat": 45.19667989773971,
      "lng": 7.9212599247694016,
      "fuels": {
        "sp95": 1.919,
        "gazole": 2.119,
        "gplc": 0.699
      }
    },
    {
      "id": "37909",
      "cp": "",
      "ville": "Chivasso",
      "adresse": "Stradale Torino km21+545 10034",
      "brand": "Esso",
      "lat": 45.18996027494881,
      "lng": 7.880959242579593,
      "fuels": {
        "sp95": 1.919,
        "gazole": 2.139,
        "e85": 1.559,
        "gplc": 0.739
      }
    },
    {
      "id": "27905",
      "cp": "",
      "ville": "Chivasso",
      "adresse": "Torino 24 10034",
      "brand": "Agip Eni",
      "lat": 45.18997066433703,
      "lng": 7.8809697429221615,
      "fuels": {
        "sp95": 1.859,
        "gazole": 1.989
      }
    },
    {
      "id": "52809",
      "cp": "",
      "ville": "Chivasso",
      "adresse": "Via Frazione Mosche - Via Statale Ex s.s.26-Km 5+943 135 10034, Chivasso (to) 135 10034",
      "brand": "Dis-Car",
      "lat": 45.241489539951054,
      "lng": 7.891059156561266,
      "fuels": {
        "sp95": 1.925,
        "gazole": 2.059,
        "gplc": 0.679
      }
    },
    {
      "id": "35489",
      "cp": "",
      "ville": "Ciriè",
      "adresse": "Corso General Carlo Alberto Da 42 10073",
      "brand": "Agip Eni",
      "lat": 45.22912248468684,
      "lng": 7.594959139823914,
      "fuels": {
        "sp95": 1.987,
        "gazole": 2.124
      }
    },
    {
      "id": "49017",
      "cp": "",
      "ville": "Ciriè",
      "adresse": "Corso Generale Carlo Alberto Dalla Chiesa  75 10073",
      "brand": "Pompe Bianche",
      "lat": 45.23344263213594,
      "lng": 7.588451546594169,
      "fuels": {
        "sp95": 1.899,
        "gazole": 1.999,
        "e85": 1.495,
        "gplc": 0.699
      }
    },
    {
      "id": "30830",
      "cp": "",
      "ville": "Ciriè",
      "adresse": "Strada Lanzo 116 10073",
      "brand": "q8",
      "lat": 45.23761878987669,
      "lng": 7.594946355819729,
      "fuels": {
        "sp95": 1.899,
        "gazole": 2.039
      }
    },
    {
      "id": "6338",
      "cp": "",
      "ville": "Ciriè",
      "adresse": "Strada Provinciale  To-Lanzo km18+770  10073",
      "brand": "Tamoil",
      "lat": 45.216669909432255,
      "lng": 7.6113393902778625,
      "fuels": {
        "sp95": 1.949,
        "gazole": 2.069,
        "gplc": 0.699
      }
    },
    {
      "id": "61676",
      "cp": "",
      "ville": "Ciriè",
      "adresse": "Via s. Maurizio 57  10073",
      "brand": "Api-Ip",
      "lat": 45.23289,
      "lng": 7.61368,
      "fuels": {
        "sp95": 1.899,
        "gazole": 1.999
      }
    },
    {
      "id": "31574",
      "cp": "",
      "ville": "Ciriè",
      "adresse": "Via San Maurizio  96 10073",
      "brand": "Pompe Bianche",
      "lat": 45.230698352846964,
      "lng": 7.614737534393271,
      "fuels": {
        "sp95": 1.949,
        "gazole": 2.129
      }
    },
    {
      "id": "11886",
      "cp": "",
      "ville": "Ciriè",
      "adresse": "Via Torino  Cirie' 18 10073",
      "brand": "q8",
      "lat": 45.22852857289003,
      "lng": 7.603536034393301,
      "fuels": {
        "sp95": 1.949,
        "gazole": 2.069
      }
    },
    {
      "id": "7307",
      "cp": "",
      "ville": "Ciriè",
      "adresse": "Via Torino Ex Str Prov To Lanzo s.n. 10073, Cirie' (to) 50 10073",
      "brand": "Agip Eni",
      "lat": 45.22696224283207,
      "lng": 7.6045392379593295,
      "fuels": {
        "sp95": 1.949,
        "gazole": 2.059
      }
    },
    {
      "id": "47636",
      "cp": "",
      "ville": "Coazze",
      "adresse": "Matteotti 127 10050",
      "brand": "Tamoil",
      "lat": 45.04994850128628,
      "lng": 7.304648989514537,
      "fuels": {
        "sp95": 1.899,
        "gazole": 2.089
      }
    },
    {
      "id": "59328",
      "cp": "",
      "ville": "Collegno",
      "adresse": "c.so Sacco E Vanzetti  (dir. sud)  9",
      "brand": "Agip Eni",
      "lat": 45.094612,
      "lng": 7.6184406,
      "fuels": {
        "sp95": 1.919,
        "gazole": 2.059,
        "e85": 1.424
      }
    },
    {
      "id": "53910",
      "cp": "",
      "ville": "Collegno",
      "adresse": "Corso Francia",
      "brand": "Agip Eni",
      "lat": 45.07436,
      "lng": 7.604703,
      "fuels": {
        "sp95": 1.919,
        "gazole": 2.059
      }
    },
    {
      "id": "39188",
      "cp": "",
      "ville": "Collegno",
      "adresse": "Corso Pastrengo  10093",
      "brand": "Api-Ip",
      "lat": 45.08086836392947,
      "lng": 7.581583145368995,
      "fuels": {
        "sp95": 1.869,
        "gazole": 2.119
      }
    },
    {
      "id": "40157",
      "cp": "",
      "ville": "Collegno",
      "adresse": "Corso Togliatti 12 10093",
      "brand": "Api-Ip",
      "lat": 45.073229163995215,
      "lng": 7.564465139881122,
      "fuels": {
        "sp95": 2.129,
        "gazole": 2.299
      }
    },
    {
      "id": "6393",
      "cp": "",
      "ville": "Collegno",
      "adresse": "Sp 24 loc. Stazionetta Snc 10093",
      "brand": "q8",
      "lat": 45.09582544231724,
      "lng": 7.577296793460846,
      "fuels": {
        "sp95": 1.899,
        "gazole": 2.059
      }
    },
    {
      "id": "31341",
      "cp": "",
      "ville": "Collegno",
      "adresse": "Via Terracini 43 10093",
      "brand": "Socogas",
      "lat": 45.07943711892751,
      "lng": 7.597465664148331,
      "fuels": {
        "gplc": 0.729
      }
    },
    {
      "id": "63095",
      "cp": "",
      "ville": "Collegno",
      "adresse": "Via Torino Pianezza 90  10093",
      "brand": "Esso",
      "lat": 45.096799,
      "lng": 7.592968899999999,
      "fuels": {
        "sp95": 1.919,
        "gazole": 2.099,
        "gplc": 0.759
      }
    },
    {
      "id": "61632",
      "cp": "",
      "ville": "Collegno",
      "adresse": "Via Torino-Pianezza 22 - Strada Provinciale n. 24 Del Monginevro km. 7 + 879",
      "brand": "Api-Ip",
      "lat": 45.09873395765035,
      "lng": 7.608903933471276,
      "fuels": {
        "sp95": 1.866,
        "gazole": 2.096,
        "gplc": 0.822
      }
    },
    {
      "id": "47153",
      "cp": "",
      "ville": "Collegno",
      "adresse": "Via Xxx Aprile 25 10093",
      "brand": "Economysrl",
      "lat": 45.082282000123,
      "lng": 7.574864000123,
      "fuels": {
        "sp95": 1.898,
        "gazole": 1.998
      }
    },
    {
      "id": "21509",
      "cp": "",
      "ville": "Colleretto Giacosa",
      "adresse": "Ssp 565 Km 2+993  10010",
      "brand": "Pompe Bianche",
      "lat": 45.436691344239414,
      "lng": 7.826479375362396,
      "fuels": {
        "sp95": 1.899,
        "gazole": 2.059,
        "gplc": 0.699
      }
    },
    {
      "id": "42063",
      "cp": "",
      "ville": "Cumiana",
      "adresse": "Torino 29 10040",
      "brand": "Pompe Bianche",
      "lat": 44.95994208260418,
      "lng": 7.413621693849564,
      "fuels": {
        "sp95": 1.899,
        "gazole": 2.119
      }
    },
    {
      "id": "62021",
      "cp": "",
      "ville": "Cumiana",
      "adresse": "Via Provinciale 97  10040",
      "brand": "Api-Ip",
      "lat": 44.97463884550934,
      "lng": 7.384353625712605,
      "fuels": {
        "sp95": 2.019,
        "gazole": 2.139,
        "gplc": 0.769
      }
    },
    {
      "id": "54720",
      "cp": "",
      "ville": "Cuorgnè",
      "adresse": "Provinciale Ex s.s. 460 Snc 10082",
      "brand": "Agip Eni",
      "lat": 45.39985118837777,
      "lng": 7.658865451812744,
      "fuels": {
        "sp95": 1.934,
        "gazole": 2.054,
        "gplc": 0.649
      }
    },
    {
      "id": "49708",
      "cp": "",
      "ville": "Cuorgnè",
      "adresse": "Strada Regionale Km 28 362 10082",
      "brand": "Agip Eni",
      "lat": 45.38160435252047,
      "lng": 7.6636822956313955,
      "fuels": {
        "sp95": 1.939,
        "gazole": 2.079
      }
    },
    {
      "id": "39655",
      "cp": "",
      "ville": "Cuorgnè",
      "adresse": "Via Torino  52 10082",
      "brand": "Agip Eni",
      "lat": 45.386723213926565,
      "lng": 7.657796430322151,
      "fuels": {
        "sp95": 1.934,
        "gazole": 2.074
      }
    },
    {
      "id": "47138",
      "cp": "",
      "ville": "Druento",
      "adresse": "Cassagna s.p. n.8 s.n. 10040",
      "brand": "Tamoil",
      "lat": 45.11816769770197,
      "lng": 7.590820481852423,
      "fuels": {
        "sp95": 1.919,
        "gazole": 2.059
      }
    },
    {
      "id": "21492",
      "cp": "",
      "ville": "Druento",
      "adresse": "Corso Fleming 35 10040",
      "brand": "Pompe Bianche",
      "lat": 45.13065020682192,
      "lng": 7.586854845285416,
      "fuels": {
        "sp95": 1.899,
        "gazole": 2.059,
        "gplc": 0.799
      }
    },
    {
      "id": "22253",
      "cp": "",
      "ville": "Druento",
      "adresse": "s.p. To/Druento Km 10+400  10040",
      "brand": "q8",
      "lat": 45.12217330018168,
      "lng": 7.598684669380987,
      "fuels": {
        "sp95": 1.899,
        "gazole": 2.059,
        "gplc": 0.799
      }
    },
    {
      "id": "52785",
      "cp": "",
      "ville": "Druento",
      "adresse": "Via Galileo Ferraris 2 10040, Druento (to) 2 10040",
      "brand": "Costantin",
      "lat": 45.12511187301817,
      "lng": 7.59068631218109,
      "fuels": {
        "sp95": 1.889,
        "gazole": 2.059,
        "e85": 1.699,
        "gplc": 0.799
      }
    },
    {
      "id": "42601",
      "cp": "",
      "ville": "Favria",
      "adresse": "Via s.p. 35 Km 5 + 232 ,5 s.n. 10083, Favria (to)  10083",
      "brand": "Sacom",
      "lat": 45.330411766258166,
      "lng": 7.68646538257599,
      "fuels": {
        "sp95": 1.919,
        "gazole": 2.069
      }
    },
    {
      "id": "23248",
      "cp": "",
      "ville": "Feletto",
      "adresse": "Via s.s. 460 km.26+250 s.n. 10080, Feletto (to)  10080",
      "brand": "Tamoil",
      "lat": 45.29417078191029,
      "lng": 7.7462114391970545,
      "fuels": {
        "sp95": 1.919,
        "gazole": 2.099,
        "e85": 1.549
      }
    },
    {
      "id": "26306",
      "cp": "",
      "ville": "Fiano",
      "adresse": "Via Lanzo 3 10070",
      "brand": "Esso",
      "lat": 45.21897004575188,
      "lng": 7.537669837474823,
      "fuels": {
        "sp95": 1.919,
        "gazole": 2.079,
        "gplc": 0.709
      }
    },
    {
      "id": "29882",
      "cp": "",
      "ville": "Fiano",
      "adresse": "Via s.p. Torino/Cafasse km.22+200 - Via Lanzo 92 10070, Fiano (to) 92 10070",
      "brand": "Tamoil",
      "lat": 45.22559052709633,
      "lng": 7.530746127647376,
      "fuels": {
        "sp95": 1.899,
        "gazole": 2.129
      }
    },
    {
      "id": "12019",
      "cp": "",
      "ville": "Foglizzo",
      "adresse": "Via Umberto I 160 10090",
      "brand": "Pompe Bianche",
      "lat": 45.26902536102089,
      "lng": 7.818280245926985,
      "fuels": {
        "sp95": 1.89,
        "gazole": 2.02
      }
    },
    {
      "id": "53530",
      "cp": "",
      "ville": "Front",
      "adresse": "Via Salvatore Mura 44  10070",
      "brand": "Europam",
      "lat": 45.27876,
      "lng": 7.66548,
      "fuels": {
        "sp95": 1.899,
        "gazole": 1.999
      }
    },
    {
      "id": "26784",
      "cp": "",
      "ville": "Front",
      "adresse": "Via Salvatore Mura 51 10070",
      "brand": "Api-Ip",
      "lat": 45.277969095432226,
      "lng": 7.666594368122901,
      "fuels": {
        "sp95": 1.999,
        "gazole": 2.169
      }
    },
    {
      "id": "63116",
      "cp": "",
      "ville": "Frossasco",
      "adresse": "ss589  10060",
      "brand": "Esso",
      "lat": 44.92941142002684,
      "lng": 7.369461535021086,
      "fuels": {
        "sp95": 1.914,
        "gazole": 2.099,
        "gplc": 0.719
      }
    },
    {
      "id": "35217",
      "cp": "",
      "ville": "Frossasco",
      "adresse": "Via Pinerolo 22 10060",
      "brand": "Pompe Bianche",
      "lat": 44.91860956825693,
      "lng": 7.363996803760529,
      "fuels": {
        "sp95": 1.869,
        "gazole": 2.089,
        "e85": 1.599
      }
    },
    {
      "id": "52024",
      "cp": "",
      "ville": "Gassino Torinese",
      "adresse": "s.p. To/Chivasso Km 13+700 24 10090",
      "brand": "Agip Eni",
      "lat": 45.13208130819773,
      "lng": 7.827588080288769,
      "fuels": {
        "sp95": 1.939,
        "gazole": 2.089
      }
    },
    {
      "id": "22977",
      "cp": "",
      "ville": "Gassino Torinese",
      "adresse": "Strada Circonvallazione 10 10090",
      "brand": "Esso",
      "lat": 45.12697439412557,
      "lng": 7.822052018223189,
      "fuels": {
        "sp95": 1.919,
        "gazole": 2.099
      }
    },
    {
      "id": "58612",
      "cp": "",
      "ville": "Giaveno",
      "adresse": "s.p.torino/Giaveno  s.n.",
      "brand": "Agip Eni",
      "lat": 45.04142,
      "lng": 7.362632,
      "fuels": {
        "sp95": 1.949,
        "gazole": 2.079
      }
    },
    {
      "id": "7280",
      "cp": "",
      "ville": "Giaveno",
      "adresse": "st.da prov.le 190-Via Avigliana Sn 10094",
      "brand": "q8",
      "lat": 45.0489628735002,
      "lng": 7.36367292702198,
      "fuels": {
        "sp95": 1.919,
        "gazole": 2.099,
        "gplc": 0.729
      }
    },
    {
      "id": "11871",
      "cp": "",
      "ville": "Giaveno",
      "adresse": "Via Torino 41 10094",
      "brand": "q8",
      "lat": 45.0409198497899,
      "lng": 7.358782390213037,
      "fuels": {
        "sp95": 1.919,
        "gazole": 2.079
      }
    },
    {
      "id": "51631",
      "cp": "",
      "ville": "Gravere",
      "adresse": "24 Del monginevro, km. 60, Nord - 10050",
      "brand": "Tamoil",
      "lat": 45.1271956771795,
      "lng": 7.011626588954929,
      "fuels": {
        "sp95": 1.929,
        "gazole": 2.048
      }
    },
    {
      "id": "38721",
      "cp": "",
      "ville": "Grugliasco",
      "adresse": "c.so Torino 170 10095",
      "brand": "Api-Ip",
      "lat": 45.06416035294209,
      "lng": 7.601460814476013,
      "fuels": {
        "sp95": 1.919,
        "gazole": 2.129,
        "gplc": 0.739
      }
    },
    {
      "id": "22775",
      "cp": "",
      "ville": "Grugliasco",
      "adresse": "Corso Allamano Km 1.33, 10095",
      "brand": "Esso",
      "lat": 45.05195181780366,
      "lng": 7.6038011996581645,
      "fuels": {
        "sp95": 1.899,
        "gazole": 2.079
      }
    },
    {
      "id": "54891",
      "cp": "",
      "ville": "Grugliasco",
      "adresse": "Corso c. g. Allamano 37  10095",
      "brand": "Socogas",
      "lat": 45.052406,
      "lng": 7.58848499,
      "fuels": {
        "sp95": 1.869,
        "gazole": 2.039
      }
    },
    {
      "id": "47654",
      "cp": "",
      "ville": "Grugliasco",
      "adresse": "Lamarmora 116 10095",
      "brand": "Tamoil",
      "lat": 45.06561292532808,
      "lng": 7.584867654536902,
      "fuels": {
        "sp95": 1.919,
        "gazole": 2.089
      }
    },
    {
      "id": "53815",
      "cp": "",
      "ville": "Grugliasco",
      "adresse": "str. Antica Di Grugliasco 70 10095",
      "brand": "Api-Ip",
      "lat": 45.06188582658657,
      "lng": 7.600243902509456,
      "fuels": {
        "sp95": 1.868,
        "gazole": 1.999
      }
    },
    {
      "id": "55571",
      "cp": "",
      "ville": "Grugliasco",
      "adresse": "str. Del Gerbido 115  10095",
      "brand": "Socogas",
      "lat": 45.0489927,
      "lng": 7.6036653,
      "fuels": {
        "sp95": 1.969,
        "gazole": 2.199,
        "gplc": 0.749
      }
    },
    {
      "id": "63454",
      "cp": "",
      "ville": "Grugliasco",
      "adresse": "str. Del Gerbido 25  10095",
      "brand": "Costantin",
      "lat": 45.0569443,
      "lng": 7.590918299999999,
      "fuels": {
        "sp95": 1.919,
        "gazole": 2.139,
        "e85": 1.999,
        "gplc": 0.739
      }
    },
    {
      "id": "58364",
      "cp": "",
      "ville": "Grugliasco",
      "adresse": "str. Del Portone 147  10095",
      "brand": "Tamoil",
      "lat": 45.042527498292806,
      "lng": 7.59256825347749,
      "fuels": {
        "sp95": 1.919,
        "gazole": 2.079
      }
    },
    {
      "id": "48735",
      "cp": "",
      "ville": "Grugliasco",
      "adresse": "Via Crea 10 10095",
      "brand": "q8",
      "lat": 45.05373888162474,
      "lng": 7.614067657997485,
      "fuels": {
        "sp95": 1.879,
        "gazole": 2.089
      }
    },
    {
      "id": "51901",
      "cp": "",
      "ville": "Grugliasco",
      "adresse": "Via Del Gerbido 64 10095",
      "brand": "Socogas",
      "lat": 45.053580269690045,
      "lng": 7.596683055387621,
      "fuels": {
        "gplc": 0.739
      }
    },
    {
      "id": "24658",
      "cp": "",
      "ville": "Grugliasco",
      "adresse": "Via Don Caustico 31 10095",
      "brand": "Api-Ip",
      "lat": 45.06390473622926,
      "lng": 7.570384489583944,
      "fuels": {
        "sp95": 1.919,
        "gazole": 2.129
      }
    },
    {
      "id": "22557",
      "cp": "",
      "ville": "Ivrea",
      "adresse": "26 Della Valle D'aosta, km. 34, Aosta - 10015",
      "brand": "Pompe Bianche",
      "lat": 45.476917753887456,
      "lng": 7.865856885910034,
      "fuels": {
        "sp95": 1.929,
        "gazole": 2.059,
        "gplc": 0.749
      }
    },
    {
      "id": "25209",
      "cp": "",
      "ville": "Ivrea",
      "adresse": "Corso Vercelli 131 10015",
      "brand": "Conad",
      "lat": 45.47017380312816,
      "lng": 7.912785451916989,
      "fuels": {
        "sp95": 1.838,
        "gazole": 1.998,
        "e85": 1.548
      }
    },
    {
      "id": "15418",
      "cp": "",
      "ville": "Ivrea",
      "adresse": "Corso Vercelli 17 10015",
      "brand": "Api-Ip",
      "lat": 45.468509020130114,
      "lng": 7.891446501016617,
      "fuels": {
        "sp95": 1.929,
        "gazole": 2.069
      }
    },
    {
      "id": "11853",
      "cp": "",
      "ville": "Ivrea",
      "adresse": "Corso Vercelli 25 10015",
      "brand": "q8",
      "lat": 45.46857900348342,
      "lng": 7.894059416007963,
      "fuels": {
        "sp95": 1.859,
        "gazole": 2.049
      }
    },
    {
      "id": "53886",
      "cp": "",
      "ville": "Ivrea",
      "adresse": "Jervis 84 10015",
      "brand": "Agip Eni",
      "lat": 45.45744,
      "lng": 7.8669112,
      "fuels": {
        "sp95": 1.919,
        "gazole": 2.039
      }
    },
    {
      "id": "7491",
      "cp": "",
      "ville": "Ivrea",
      "adresse": "Stradale Torino 200 10015",
      "brand": "q8",
      "lat": 45.44668155411896,
      "lng": 7.877922539286828,
      "fuels": {
        "sp95": 1.899,
        "gazole": 2.049
      }
    },
    {
      "id": "57293",
      "cp": "",
      "ville": "Ivrea",
      "adresse": "Torino 58 10015",
      "brand": "Costantin",
      "lat": 45.456997045930144,
      "lng": 7.878866158237465,
      "fuels": {
        "sp95": 1.889,
        "gazole": 2.049
      }
    },
    {
      "id": "54295",
      "cp": "",
      "ville": "Ivrea",
      "adresse": "Vercelli 220 10015",
      "brand": "Esso",
      "lat": 45.468358725152314,
      "lng": 7.8942252695560455,
      "fuels": {
        "sp95": 1.849,
        "gazole": 1.979
      }
    },
    {
      "id": "39635",
      "cp": "",
      "ville": "Ivrea",
      "adresse": "Via Circonvallazione  60 10015",
      "brand": "Agip Eni",
      "lat": 45.47027347173395,
      "lng": 7.876779246627052,
      "fuels": {
        "sp95": 1.934,
        "gazole": 2.074
      }
    },
    {
      "id": "63036",
      "cp": "",
      "ville": "Ivrea",
      "adresse": "Via Torino 155 10015",
      "brand": "Agip Eni",
      "lat": 45.4547011,
      "lng": 7.879238099999999,
      "fuels": {
        "sp95": 1.934,
        "gazole": 2.054
      }
    },
    {
      "id": "62512",
      "cp": "",
      "ville": "La Loggia",
      "adresse": "Carignano-s.s.20 km.6.035 44 10040",
      "brand": "Agip Eni",
      "lat": 44.9495811,
      "lng": 7.6690862,
      "fuels": {
        "sp95": 1.919,
        "gazole": 2.039
      }
    },
    {
      "id": "62622",
      "cp": "",
      "ville": "La Loggia",
      "adresse": "Via Ronchi 47b  10040",
      "brand": "Pompe Bianche",
      "lat": 44.9636064,
      "lng": 7.6730874,
      "fuels": {
        "sp95": 1.899,
        "gazole": 2.029
      }
    },
    {
      "id": "11885",
      "cp": "",
      "ville": "Lanzo Torinese",
      "adresse": "Via Delle Valli 5 10074",
      "brand": "q8",
      "lat": 45.2715735736444,
      "lng": 7.483644839286853,
      "fuels": {
        "sp95": 1.989,
        "gazole": 2.169
      }
    },
    {
      "id": "59240",
      "cp": "",
      "ville": "Leini",
      "adresse": "s.p. no12 Del Fornacino Km 6 + 150  s.n.",
      "brand": "Agip Eni",
      "lat": 45.15601,
      "lng": 7.7223,
      "fuels": {
        "sp95": 1.939,
        "gazole": 2.079
      }
    },
    {
      "id": "50124",
      "cp": "",
      "ville": "Leini",
      "adresse": "s.p. Volpiano - Leini' s.n. 10040",
      "brand": "Tamoil",
      "lat": 45.18450584264452,
      "lng": 7.72579862999998,
      "fuels": {
        "sp95": 1.959,
        "gazole": 2.099
      }
    },
    {
      "id": "10771",
      "cp": "",
      "ville": "Leini",
      "adresse": "Torino 131 10040",
      "brand": "Api-Ip",
      "lat": 45.16679526785409,
      "lng": 7.712236046791077,
      "fuels": {
        "sp95": 1.999,
        "gazole": 2.199
      }
    },
    {
      "id": "53749",
      "cp": "",
      "ville": "Leini",
      "adresse": "Via Lombardore 77/79 10040",
      "brand": "Api-Ip",
      "lat": 45.1899185181,
      "lng": 7.7199287415,
      "fuels": {
        "sp95": 1.959,
        "gazole": 2.179
      }
    },
    {
      "id": "15196",
      "cp": "",
      "ville": "Locana",
      "adresse": "Bivio Quarde 1 10080",
      "brand": "Sacom",
      "lat": 45.41647619372733,
      "lng": 7.463997909921773,
      "fuels": {
        "sp95": 1.929,
        "gazole": 2.109
      }
    },
    {
      "id": "23247",
      "cp": "",
      "ville": "Lombardore",
      "adresse": "Via s.s. 460  km.21+315 s.n. 10040, Lombardore (to) 32 10040",
      "brand": "Tamoil",
      "lat": 45.249660230268965,
      "lng": 7.741776555776596,
      "fuels": {
        "sp95": 1.919,
        "gazole": 2.099,
        "gplc": 0.699
      }
    },
    {
      "id": "29701",
      "cp": "",
      "ville": "Lombriasco",
      "adresse": "s.s. 663 km. 8,075  10040",
      "brand": "Api-Ip",
      "lat": 44.83398143778674,
      "lng": 7.627714961628499,
      "fuels": {
        "sp95": 1.899,
        "gazole": 2.069,
        "gplc": 0.749
      }
    },
    {
      "id": "53578",
      "cp": "",
      "ville": "Luserna San Giovanni",
      "adresse": "I   Maggio 256 10062",
      "brand": "Api-Ip",
      "lat": 44.81175270516316,
      "lng": 7.267588843961651,
      "fuels": {
        "sp95": 2.109,
        "gazole": 2.139,
        "gplc": 0.769
      }
    },
    {
      "id": "45454",
      "cp": "",
      "ville": "Luserna San Giovanni",
      "adresse": "Via c.so De Amicis 110 10062, Luserna San Giovanni (to) 110 10062",
      "brand": "Gnp",
      "lat": 44.820286559668645,
      "lng": 7.2312860708435664,
      "fuels": {
        "sp95": 1.897,
        "gazole": 2.057
      }
    },
    {
      "id": "56618",
      "cp": "",
      "ville": "Mathi",
      "adresse": "sp. 2  km. 26+230 Al km. 26+260  10075",
      "brand": "Tamoil",
      "lat": 45.255561,
      "lng": 7.54832381,
      "fuels": {
        "sp95": 1.929,
        "gazole": 2.089
      }
    },
    {
      "id": "61974",
      "cp": "",
      "ville": "Mathi",
      "adresse": "Via Piave 19 10075",
      "brand": "Socogas",
      "lat": 45.2599053,
      "lng": 7.54373431,
      "fuels": {
        "sp95": 1.939,
        "gazole": 2.099
      }
    },
    {
      "id": "49833",
      "cp": "",
      "ville": "Mazzè",
      "adresse": "s.p. 81 km. 12+682 s.n. 10035",
      "brand": "Tamoil",
      "lat": 45.29430718684107,
      "lng": 7.937207662209027,
      "fuels": {
        "sp95": 1.939,
        "gazole": 2.119
      }
    },
    {
      "id": "7508",
      "cp": "",
      "ville": "Mombello Di Torino",
      "adresse": "sp119",
      "brand": "Pompe Bianche",
      "lat": 45.04761329999999,
      "lng": 7.920198900000001,
      "fuels": {
        "sp95": 1.869,
        "gazole": 2.019,
        "gplc": 0.719
      }
    },
    {
      "id": "52018",
      "cp": "",
      "ville": "Moncalieri",
      "adresse": "a55 tang.le Di torino, km. 4,500, Savona - 10024",
      "brand": "Api-Ip",
      "lat": 44.97811835116419,
      "lng": 7.700136359991387,
      "fuels": {
        "sp95": 2.039,
        "gazole": 2.129
      }
    },
    {
      "id": "17176",
      "cp": "",
      "ville": "Moncalieri",
      "adresse": "c.so Savona 22 10024 - -",
      "brand": "Tamoil",
      "lat": 44.99578411890521,
      "lng": 7.6874270926743975,
      "fuels": {
        "sp95": 1.929,
        "gazole": 2.069
      }
    },
    {
      "id": "57322",
      "cp": "",
      "ville": "Moncalieri",
      "adresse": "Carignano 7 10024",
      "brand": "Costantin",
      "lat": 45.00062480844756,
      "lng": 7.671892136339178,
      "fuels": {
        "sp95": 1.899,
        "gazole": 2.019
      }
    },
    {
      "id": "55461",
      "cp": "",
      "ville": "Moncalieri",
      "adresse": "Cavour 37 10024",
      "brand": "Esso",
      "lat": 45.00047023903011,
      "lng": 7.688546044144981,
      "fuels": {
        "sp95": 1.859,
        "gazole": 1.989
      }
    },
    {
      "id": "22909",
      "cp": "",
      "ville": "Moncalieri",
      "adresse": "Corso Roma 43 10024",
      "brand": "q8",
      "lat": 45.01082087560908,
      "lng": 7.665984653442365,
      "fuels": {
        "sp95": 1.899,
        "gazole": 2.059
      }
    },
    {
      "id": "45234",
      "cp": "",
      "ville": "Moncalieri",
      "adresse": "Corso Savona 24 10024, Moncalieri (to) 24 10024",
      "brand": "Sacom",
      "lat": 44.996022977084486,
      "lng": 7.686325907707215,
      "fuels": {
        "sp95": 1.919,
        "gazole": 2.069
      }
    },
    {
      "id": "45766",
      "cp": "",
      "ville": "Moncalieri",
      "adresse": "Corso Savona 46 10024",
      "brand": "Esso",
      "lat": 44.99485708338513,
      "lng": 7.692165780872642,
      "fuels": {
        "sp95": 1.929,
        "gazole": 2.069
      }
    },
    {
      "id": "49558",
      "cp": "",
      "ville": "Moncalieri",
      "adresse": "Corso Trieste 91 10024",
      "brand": "Esso",
      "lat": 45.014045188589705,
      "lng": 7.669022134033781,
      "fuels": {
        "sp95": 1.909,
        "gazole": 2.089
      }
    },
    {
      "id": "25138",
      "cp": "",
      "ville": "Moncalieri",
      "adresse": "Corso Trieste 93 10024",
      "brand": "q8",
      "lat": 45.01515344822422,
      "lng": 7.668413766270419,
      "fuels": {
        "sp95": 1.919,
        "gazole": 2.059,
        "gplc": 0.719
      }
    },
    {
      "id": "29855",
      "cp": "",
      "ville": "Moncalieri",
      "adresse": "Corso Trieste Angolo Corso Roma  10024",
      "brand": "Agip Eni",
      "lat": 45.00576987334705,
      "lng": 7.672491073608398,
      "fuels": {
        "sp95": 1.929,
        "gazole": 2.079
      }
    },
    {
      "id": "14816",
      "cp": "",
      "ville": "Moncalieri",
      "adresse": "Genova s.s.29 Km 13+345 269 10024",
      "brand": "Tamoil",
      "lat": 44.990963010533044,
      "lng": 7.718883231282234,
      "fuels": {
        "sp95": 2.019,
        "gazole": 2.149
      }
    },
    {
      "id": "7266",
      "cp": "",
      "ville": "Moncalieri",
      "adresse": "Ss 393 Km 3+300 300 10024",
      "brand": "q8",
      "lat": 44.979142541855346,
      "lng": 7.703556418418884,
      "fuels": {
        "sp95": 1.909,
        "gazole": 2.059,
        "gplc": 0.739
      }
    },
    {
      "id": "33827",
      "cp": "",
      "ville": "Moncalieri",
      "adresse": "Statale 20 Del Colle Di Tenda E Di Valle roja, km. 2.200, dir. Torino - 10024",
      "brand": "q8",
      "lat": 44.98285524503359,
      "lng": 7.671100348234177,
      "fuels": {
        "sp95": 1.939,
        "gazole": 2.155,
        "gplc": 0.749
      }
    },
    {
      "id": "22891",
      "cp": "",
      "ville": "Moncalieri",
      "adresse": "Statale 20 Del Colle Di Tenda E Di Valle roja, km. Km 2,229, dir. Torino - 10024",
      "brand": "Api-Ip",
      "lat": 44.98222295703064,
      "lng": 7.670443207025528,
      "fuels": {
        "sp95": 1.899,
        "gazole": 2.019
      }
    },
    {
      "id": "58683",
      "cp": "",
      "ville": "Moncalieri",
      "adresse": "Statale 393 7 + 377 10024",
      "brand": "Dis-Car",
      "lat": 44.945543666666666,
      "lng": 7.720391666666666,
      "fuels": {
        "sp95": 1.939,
        "gazole": 2.179,
        "gplc": 0.739
      }
    },
    {
      "id": "54771",
      "cp": "",
      "ville": "Moncalieri",
      "adresse": "str. Genova 126 10024",
      "brand": "Retitalia",
      "lat": 44.99405,
      "lng": 7.71106,
      "fuels": {
        "sp95": 1.979,
        "gazole": 2.099
      }
    },
    {
      "id": "53083",
      "cp": "",
      "ville": "Moncalieri",
      "adresse": "str. Vallere 202 10024",
      "brand": "Pompe Bianche",
      "lat": 45.005548651891374,
      "lng": 7.67557158757743,
      "fuels": {
        "gplc": 0.719
      }
    },
    {
      "id": "47500",
      "cp": "",
      "ville": "Moncalieri",
      "adresse": "Strada Carignano 74 10024",
      "brand": "Esso",
      "lat": 44.976985802882695,
      "lng": 7.670100487102527,
      "fuels": {
        "sp95": 1.899,
        "gazole": 2.099,
        "gplc": 0.749
      }
    },
    {
      "id": "23664",
      "cp": "",
      "ville": "Moncalieri",
      "adresse": "Strada Genova 58/3 10024",
      "brand": "Api-Ip",
      "lat": 44.99838345317529,
      "lng": 7.700616763229391,
      "fuels": {
        "sp95": 2.099,
        "gazole": 2.249
      }
    },
    {
      "id": "29488",
      "cp": "",
      "ville": "Moncalieri",
      "adresse": "Trieste 1/A 10024",
      "brand": "Mc Petroli",
      "lat": 45.00225835960855,
      "lng": 7.676525115966797,
      "fuels": {
        "sp95": 1.939,
        "gazole": 2.129
      }
    },
    {
      "id": "63136",
      "cp": "",
      "ville": "Moncalieri",
      "adresse": "v. Cavour 37  10024",
      "brand": "Esso",
      "lat": 45.0001511,
      "lng": 7.688603899999999,
      "fuels": {
        "sp95": 1.889,
        "gazole": 2.059
      }
    },
    {
      "id": "63050",
      "cp": "",
      "ville": "Moncalieri",
      "adresse": "Via Francesco Postiglione 27 10024",
      "brand": "Api-Ip",
      "lat": 44.9757786,
      "lng": 7.7130699,
      "fuels": {
        "sp95": 1.899,
        "gazole": 2.019
      }
    },
    {
      "id": "6399",
      "cp": "",
      "ville": "Moncalieri",
      "adresse": "Via Pastrengo 25 10024",
      "brand": "q8",
      "lat": 45.00307345576897,
      "lng": 7.666485359524586,
      "fuels": {
        "sp95": 1.919,
        "gazole": 2.049
      }
    },
    {
      "id": "41402",
      "cp": "",
      "ville": "Moncalieri",
      "adresse": "Via Santa Maria 46 10024",
      "brand": "Api-Ip",
      "lat": 44.99062629303088,
      "lng": 7.662206173610684,
      "fuels": {
        "sp95": 1.999,
        "gazole": 2.199
      }
    },
    {
      "id": "33811",
      "cp": "",
      "ville": "Moncalieri",
      "adresse": "Via Sestriere 72 10024",
      "brand": "Api-Ip",
      "lat": 45.01576799656511,
      "lng": 7.661106936245687,
      "fuels": {
        "sp95": 1.888,
        "gazole": 1.978
      }
    },
    {
      "id": "36055",
      "cp": "",
      "ville": "Moncalieri",
      "adresse": "Via Via Madre Teresa Di Calcutta Sn 10024, Moncalieri (to) Snc 10024",
      "brand": "Dis-Car",
      "lat": 44.982600448192905,
      "lng": 7.707066974804661,
      "fuels": {
        "sp95": 1.905,
        "gazole": 2.099,
        "gplc": 0.735
      }
    },
    {
      "id": "11877",
      "cp": "",
      "ville": "Montalenghe",
      "adresse": "s.p. 82 Km 17+ 235 S/N 10090",
      "brand": "q8",
      "lat": 45.33777452096672,
      "lng": 7.835840284824371,
      "fuels": {
        "sp95": 1.959,
        "gazole": 2.069
      }
    },
    {
      "id": "6032",
      "cp": "",
      "ville": "Montalto Dora",
      "adresse": "Strada Ivrea 67 10016",
      "brand": "Agip Eni",
      "lat": 45.48590314364823,
      "lng": 7.863144937434413,
      "fuels": {
        "sp95": 1.934,
        "gazole": 2.074,
        "e85": 1.547
      }
    },
    {
      "id": "4993",
      "cp": "",
      "ville": "Montanaro",
      "adresse": "Via Via Torino 28 10017, Montanaro (to) 28 10017",
      "brand": "Tamoil",
      "lat": 45.22757980675655,
      "lng": 7.858952074868739,
      "fuels": {
        "sp95": 1.919,
        "gazole": 2.119
      }
    },
    {
      "id": "40491",
      "cp": "",
      "ville": "Monteu Da Po",
      "adresse": "590 Km 32+865 Snc 10020",
      "brand": "Keropetrol",
      "lat": 45.15855561959544,
      "lng": 8.030732274055481,
      "fuels": {
        "sp95": 1.927,
        "gazole": 2.097
      }
    },
    {
      "id": "41091",
      "cp": "",
      "ville": "Monteu Da Po",
      "adresse": "s.s. 590 km. 32+500 s.n. 10020",
      "brand": "Tamoil",
      "lat": 45.159847628273994,
      "lng": 8.022052883372908,
      "fuels": {
        "sp95": 1.929,
        "gazole": 2.069
      }
    },
    {
      "id": "56965",
      "cp": "",
      "ville": "Nichelino",
      "adresse": "Autostrada a55 tang.le Di torino, dir. Nord",
      "brand": "Agip Eni",
      "lat": 44.975857,
      "lng": 7.6576424,
      "fuels": {
        "sp95": 2.019,
        "gazole": 2.119,
        "e85": 1.582
      }
    },
    {
      "id": "3626",
      "cp": "",
      "ville": "Nichelino",
      "adresse": "Autostrada a55 tang.le Di torino, km. 11.3, dir. Sud - -",
      "brand": "Agip Eni",
      "lat": 44.9812651762777,
      "lng": 7.645269334316254,
      "fuels": {
        "sp95": 2.029,
        "gazole": 2.129,
        "e85": 1.617
      }
    },
    {
      "id": "57439",
      "cp": "",
      "ville": "Nichelino",
      "adresse": "Debouche' 50 10042",
      "brand": "Itala Petroli",
      "lat": 44.99809038619962,
      "lng": 7.630820274353027,
      "fuels": {
        "sp95": 1.926,
        "gazole": 2.096,
        "gplc": 0.699
      }
    },
    {
      "id": "24618",
      "cp": "",
      "ville": "Nichelino",
      "adresse": "Nichelino - Strada Del Debouche'  10042",
      "brand": "Api-Ip",
      "lat": 44.986756911423434,
      "lng": 7.6210590085983085,
      "fuels": {
        "sp95": 1.919,
        "gazole": 2.089
      }
    },
    {
      "id": "46795",
      "cp": "",
      "ville": "Nichelino",
      "adresse": "Torino 275 10042",
      "brand": "Agip Eni",
      "lat": 44.985835624575486,
      "lng": 7.635887743014109,
      "fuels": {
        "sp95": 1.958,
        "gazole": 2.064,
        "e85": 1.599,
        "gplc": 0.695
      }
    },
    {
      "id": "48739",
      "cp": "",
      "ville": "Nichelino",
      "adresse": "Via Cesana Snc 10042",
      "brand": "Carrefour",
      "lat": 45.00463252481773,
      "lng": 7.625866548933362,
      "fuels": {
        "sp95": 1.909,
        "gazole": 2.069
      }
    },
    {
      "id": "49005",
      "cp": "",
      "ville": "Nichelino",
      "adresse": "Via Debouche' Sn 10042",
      "brand": "Kerotris",
      "lat": 44.985437827977414,
      "lng": 7.620159115793044,
      "fuels": {
        "sp95": 1.918,
        "gazole": 2.118,
        "gplc": 0.698
      }
    },
    {
      "id": "7370",
      "cp": "",
      "ville": "Nichelino",
      "adresse": "Via Torino 372 10042",
      "brand": "Agip Eni",
      "lat": 44.981242535796724,
      "lng": 7.629635041525262,
      "fuels": {
        "sp95": 1.924,
        "gazole": 2.074
      }
    },
    {
      "id": "30113",
      "cp": "",
      "ville": "Nichelino",
      "adresse": "Via Torino 76 10042",
      "brand": "q8",
      "lat": 45.00030794557587,
      "lng": 7.653248619049009,
      "fuels": {
        "sp95": 1.929,
        "gazole": 2.059
      }
    },
    {
      "id": "34189",
      "cp": "",
      "ville": "Nichelino",
      "adresse": "Via Via Torino Angolo Via Vernea Sn 10042, Nichelino (to) Sn 10042",
      "brand": "Dis-Car",
      "lat": 44.98279587303752,
      "lng": 7.632060755775456,
      "fuels": {
        "sp95": 1.915,
        "gazole": 2.099,
        "gplc": 0.695
      }
    },
    {
      "id": "26452",
      "cp": "",
      "ville": "Nichelino",
      "adresse": "Via Xxv Aprile 126 10042",
      "brand": "Esso",
      "lat": 45.00191241341997,
      "lng": 7.6414455264587104,
      "fuels": {
        "sp95": 1.899,
        "gazole": 2.099
      }
    },
    {
      "id": "47505",
      "cp": "",
      "ville": "Nichelino",
      "adresse": "Via Xxv Aprile 74 10042",
      "brand": "q8",
      "lat": 45.0020484924,
      "lng": 7.6489186287,
      "fuels": {
        "sp95": 1.959,
        "gazole": 2.079
      }
    },
    {
      "id": "58394",
      "cp": "",
      "ville": "None",
      "adresse": "s.s. 23 Al   km.20+500",
      "brand": "Agip Eni",
      "lat": 44.930004,
      "lng": 7.528499,
      "fuels": {
        "sp95": 1.93,
        "gazole": 2.079
      }
    },
    {
      "id": "44453",
      "cp": "",
      "ville": "Orbassano",
      "adresse": ". Nuova Circonvallazione 15+790 Snc 10043",
      "brand": "Esso",
      "lat": 44.99564742136827,
      "lng": 7.536272406578064,
      "fuels": {
        "sp95": 1.899,
        "gazole": 2.099,
        "gplc": 0.749
      }
    },
    {
      "id": "19403",
      "cp": "",
      "ville": "Orbassano",
      "adresse": "Rivalta Beinasco Km 6+100 Snc 10043",
      "brand": "Agip Eni",
      "lat": 45.007436643886976,
      "lng": 7.594098809192701,
      "fuels": {
        "sp95": 1.945,
        "gazole": 2.054
      }
    },
    {
      "id": "48202",
      "cp": "",
      "ville": "Orbassano",
      "adresse": "s.p. 6 Torino - piossasco,  km. 14+835 10043",
      "brand": "Socogas",
      "lat": 44.996852615809956,
      "lng": 7.548620700836177,
      "fuels": {
        "sp95": 1.899,
        "gazole": 2.029,
        "gplc": 0.605
      }
    },
    {
      "id": "61836",
      "cp": "",
      "ville": "Orbassano",
      "adresse": "s.p. Di Orbassano",
      "brand": "Agip Eni",
      "lat": 45.003067,
      "lng": 7.552347,
      "fuels": {
        "sp95": 1.919,
        "gazole": 2.039
      }
    },
    {
      "id": "23620",
      "cp": "",
      "ville": "Orbassano",
      "adresse": "Sp 143 Circonvallazione Esterna  10040",
      "brand": "q8",
      "lat": 45.01403500090106,
      "lng": 7.522818446159363,
      "fuels": {
        "sp95": 1.899,
        "gazole": 2.049
      }
    },
    {
      "id": "7265",
      "cp": "",
      "ville": "Orbassano",
      "adresse": "sp. Torino Pinerolo km. 16+391 391 10043",
      "brand": "q8",
      "lat": 44.996175979190056,
      "lng": 7.5290480158691935,
      "fuels": {
        "sp95": 1.919,
        "gazole": 2.059,
        "gplc": 0.729
      }
    },
    {
      "id": "63398",
      "cp": "",
      "ville": "Orbassano",
      "adresse": "sp143  10043",
      "brand": "Api-Ip",
      "lat": 44.9970279,
      "lng": 7.5764483,
      "fuels": {
        "sp95": 1.909,
        "gazole": 2.069,
        "gplc": 0.689
      }
    },
    {
      "id": "62581",
      "cp": "",
      "ville": "Orbassano",
      "adresse": "str. Stupinigi 115  10043",
      "brand": "Tamoil",
      "lat": 44.9968642,
      "lng": 7.5733395,
      "fuels": {
        "sp95": 1.879,
        "gazole": 1.999,
        "gplc": 0.698
      }
    },
    {
      "id": "6397",
      "cp": "",
      "ville": "Orbassano",
      "adresse": "Strada Piossasco 72 10043",
      "brand": "q8",
      "lat": 45.00182581023199,
      "lng": 7.523825676721231,
      "fuels": {
        "sp95": 1.899,
        "gazole": 2.059
      }
    },
    {
      "id": "8331",
      "cp": "",
      "ville": "Orbassano",
      "adresse": "Strada Torino 9/A 10043",
      "brand": "Tamoil",
      "lat": 45.0082885740774,
      "lng": 7.5458276289646165,
      "fuels": {
        "sp95": 1.929,
        "gazole": 2.089
      }
    },
    {
      "id": "10334",
      "cp": "",
      "ville": "Orbassano",
      "adresse": "Via Alfieri   10043",
      "brand": "Api-Ip",
      "lat": 45.007302916410644,
      "lng": 7.5426024198532104,
      "fuels": {
        "sp95": 1.909,
        "gazole": 2.089
      }
    },
    {
      "id": "50538",
      "cp": "",
      "ville": "Orbassano",
      "adresse": "Via Frejus 43 10043",
      "brand": "Pompe Bianche",
      "lat": 45.00707004997132,
      "lng": 7.530745882124776,
      "fuels": {
        "sp95": 1.859,
        "gazole": 1.989
      }
    },
    {
      "id": "19968",
      "cp": "",
      "ville": "Orbassano",
      "adresse": "Via Torino  10043",
      "brand": "Api-Ip",
      "lat": 45.01660800984956,
      "lng": 7.57133424282074,
      "fuels": {
        "sp95": 1.909,
        "gazole": 2.089
      }
    },
    {
      "id": "22892",
      "cp": "",
      "ville": "Orbassano",
      "adresse": "Via Torino 31 10040",
      "brand": "Api-Ip",
      "lat": 45.00867731776258,
      "lng": 7.548517953372993,
      "fuels": {
        "sp95": 1.909,
        "gazole": 2.089
      }
    },
    {
      "id": "61387",
      "cp": "",
      "ville": "Osasco",
      "adresse": "s.r. 589 Km 0+245 var.osasco Sn 10060",
      "brand": "q8",
      "lat": 44.84978,
      "lng": 7.33737,
      "fuels": {
        "sp95": 1.889,
        "gazole": 2.129,
        "gplc": 0.719
      }
    },
    {
      "id": "49689",
      "cp": "",
      "ville": "Osasco",
      "adresse": "Via Pinerolo  21 10060",
      "brand": "Pompe Bianche",
      "lat": 44.85447149269771,
      "lng": 7.336262573016348,
      "fuels": {
        "sp95": 1.869,
        "gazole": 2.089,
        "e85": 1.599,
        "gplc": 0.749
      }
    },
    {
      "id": "10545",
      "cp": "",
      "ville": "Osasio",
      "adresse": "str. prov.138 X Virle km. 4,54  10040",
      "brand": "Centro Calor",
      "lat": 44.878496131859194,
      "lng": 7.608293090429925,
      "fuels": {
        "sp95": 1.899,
        "gazole": 2.099
      }
    },
    {
      "id": "45940",
      "cp": "",
      "ville": "Oulx",
      "adresse": "Corso Torino  18 10056",
      "brand": "Esso",
      "lat": 45.03399668329657,
      "lng": 6.834845627252093,
      "fuels": {
        "sp95": 1.956,
        "gazole": 2.126
      }
    },
    {
      "id": "56037",
      "cp": "",
      "ville": "Oulx",
      "adresse": "Via s.s.24 Km 79+628 Via monginevro, 80 80 10056, Oulx (to) 80 10056",
      "brand": "Socogas",
      "lat": 45.03127139554028,
      "lng": 6.831698417663574,
      "fuels": {
        "sp95": 1.939,
        "gazole": 2.099
      }
    },
    {
      "id": "45515",
      "cp": "",
      "ville": "Ozegna",
      "adresse": "s.p. Feletto Aglie' Km 5+668  10080",
      "brand": "Energas",
      "lat": 45.34331777529063,
      "lng": 7.7648393902129555,
      "fuels": {
        "sp95": 1.925,
        "gazole": 2.059,
        "gplc": 0.645
      }
    },
    {
      "id": "35308",
      "cp": "",
      "ville": "Ozegna",
      "adresse": "Strada Provinciale Chivasso Ozegna Km 22 10080",
      "brand": "Agip Eni",
      "lat": 45.34802448167371,
      "lng": 7.7533697336912155,
      "fuels": {
        "sp95": 1.914,
        "gazole": 2.054,
        "e85": 1.554
      }
    },
    {
      "id": "11889",
      "cp": "",
      "ville": "Ozegna",
      "adresse": "Strada Provle Ozegna-Rivarolo S/N 10080",
      "brand": "q8",
      "lat": 45.3438301630899,
      "lng": 7.74109999999996,
      "fuels": {
        "sp95": 1.939,
        "gazole": 2.069
      }
    },
    {
      "id": "53814",
      "cp": "",
      "ville": "Pancalieri",
      "adresse": "Via Carmagnola 26  10060",
      "brand": "Api-Ip",
      "lat": 44.83183486693711,
      "lng": 7.59289408918355,
      "fuels": {
        "sp95": 1.898,
        "gazole": 2.098
      }
    },
    {
      "id": "5549",
      "cp": "",
      "ville": "Pavone Canavese",
      "adresse": "s.p. Ivrea Scarmagno Via Circonvallazione 123 10018",
      "brand": "Api-Ip",
      "lat": 45.44667964529431,
      "lng": 7.857340411045016,
      "fuels": {
        "sp95": 1.929,
        "gazole": 2.119
      }
    },
    {
      "id": "41881",
      "cp": "",
      "ville": "Pecetto Torinese",
      "adresse": "Via s.p. 124 Di pecettot.se Km 3+298/3+332 s.n. 10020, Pecetto Torinese (to) 2 10020",
      "brand": "Sacom",
      "lat": 45.01692502995029,
      "lng": 7.753826379776002,
      "fuels": {
        "sp95": 1.919,
        "gazole": 2.069
      }
    },
    {
      "id": "11855",
      "cp": "",
      "ville": "Perosa Argentina",
      "adresse": "ss. 23 km.53+400 S/N 10063",
      "brand": "q8",
      "lat": 44.95522467517217,
      "lng": 7.200274343585988,
      "fuels": {
        "sp95": 1.979,
        "gazole": 2.129
      }
    },
    {
      "id": "43409",
      "cp": "",
      "ville": "Pessinetto",
      "adresse": "Via Roma 13 10070",
      "brand": "Pompe Bianche",
      "lat": 45.288003846541145,
      "lng": 7.405515711114504,
      "fuels": {
        "sp95": 1.999,
        "gazole": 2.199
      }
    },
    {
      "id": "56454",
      "cp": "",
      "ville": "Pianezza",
      "adresse": "Piave 40 10044",
      "brand": "Esso",
      "lat": 45.101290144606615,
      "lng": 7.553729292046769,
      "fuels": {
        "sp95": 1.889,
        "gazole": 2.039
      }
    },
    {
      "id": "38966",
      "cp": "",
      "ville": "Pianezza",
      "adresse": "Sp 24 Km 2+265  10044",
      "brand": "Api-Ip",
      "lat": 45.11204418338163,
      "lng": 7.56183385848999,
      "fuels": {
        "sp95": 1.919,
        "gazole": 2.099,
        "gplc": 0.719
      }
    },
    {
      "id": "59237",
      "cp": "",
      "ville": "Pianezza",
      "adresse": "Strada Comunale Torino/Susa (ex s.s. 24 km.12+251",
      "brand": "Agip Eni",
      "lat": 45.09817,
      "lng": 7.556,
      "fuels": {
        "sp95": 1.929,
        "gazole": 2.079
      }
    },
    {
      "id": "63154",
      "cp": "",
      "ville": "Pianezza",
      "adresse": "Via Piave 40  10044",
      "brand": "Esso",
      "lat": 45.100504066879026,
      "lng": 7.55347508930732,
      "fuels": {
        "sp95": 1.919,
        "gazole": 2.099
      }
    },
    {
      "id": "62132",
      "cp": "",
      "ville": "Pianezza",
      "adresse": "Via s. Pancrazio 16 10044",
      "brand": "Api-Ip",
      "lat": 45.10374,
      "lng": 7.54735,
      "fuels": {
        "sp95": 1.899,
        "gazole": 1.999
      }
    },
    {
      "id": "21859",
      "cp": "",
      "ville": "Pianezza",
      "adresse": "Via Torino  10044",
      "brand": "Api-Ip",
      "lat": 45.104513747653854,
      "lng": 7.574412077665329,
      "fuels": {
        "sp95": 1.919,
        "gazole": 2.099
      }
    },
    {
      "id": "21862",
      "cp": "",
      "ville": "Pianezza",
      "adresse": "Via Torino -  Ovest  10044",
      "brand": "Api-Ip",
      "lat": 45.10443063852144,
      "lng": 7.573900446295738,
      "fuels": {
        "sp95": 1.919,
        "gazole": 2.099
      }
    },
    {
      "id": "47047",
      "cp": "",
      "ville": "Pinasca",
      "adresse": "Str reg. Del Sestriere km52014 10060",
      "brand": "Api-Ip",
      "lat": 44.950985000123,
      "lng": 7.214282000123,
      "fuels": {
        "sp95": 1.979,
        "gazole": 2.119
      }
    },
    {
      "id": "28398",
      "cp": "",
      "ville": "Pinerolo",
      "adresse": "Corso Costituzione 9 10064",
      "brand": "Enercoop",
      "lat": 44.88528754864372,
      "lng": 7.353286459771766,
      "fuels": {
        "sp95": 1.865,
        "gazole": 2.079,
        "e85": 1.599,
        "gplc": 0.698
      }
    },
    {
      "id": "52577",
      "cp": "",
      "ville": "Pinerolo",
      "adresse": "Corso Torino 155/B 10064",
      "brand": "Agip Eni",
      "lat": 44.88892826890691,
      "lng": 7.356851591229912,
      "fuels": {
        "sp95": 1.944,
        "gazole": 2.079,
        "e85": 1.291
      }
    },
    {
      "id": "60470",
      "cp": "",
      "ville": "Pinerolo",
      "adresse": "Corso Torino 420 10064",
      "brand": "Costantin",
      "lat": 44.89079,
      "lng": 7.37415,
      "fuels": {
        "sp95": 1.889,
        "gplc": 0.729
      }
    },
    {
      "id": "62074",
      "cp": "",
      "ville": "Pinerolo",
      "adresse": "s.s. 23 Circonvallazione  10064",
      "brand": "q8",
      "lat": 44.8895657,
      "lng": 7.385948,
      "fuels": {
        "sp95": 1.929,
        "gazole": 2.069,
        "gplc": 0.699
      }
    },
    {
      "id": "41678",
      "cp": "",
      "ville": "Pinerolo",
      "adresse": "s.s.23 Km 35+207 - Lato Destro s.n. 10064",
      "brand": "Tamoil",
      "lat": 44.877219294657074,
      "lng": 7.353211632209007,
      "fuels": {
        "sp95": 1.899,
        "gazole": 2.089,
        "e85": 1.299
      }
    },
    {
      "id": "50530",
      "cp": "",
      "ville": "Pinerolo",
      "adresse": "s.s.23 km.35+278-Lato Sinistro s.n. 10064",
      "brand": "Tamoil",
      "lat": 44.87636009860714,
      "lng": 7.3533477467459285,
      "fuels": {
        "sp95": 1.899,
        "gazole": 2.089
      }
    },
    {
      "id": "18131",
      "cp": "",
      "ville": "Pinerolo",
      "adresse": "Saluzzo Km 0.821 116 A 10064",
      "brand": "Europam",
      "lat": 44.87331829148025,
      "lng": 7.333766319049055,
      "fuels": {
        "sp95": 1.847,
        "gazole": 1.957
      }
    },
    {
      "id": "63353",
      "cp": "",
      "ville": "Pinerolo",
      "adresse": "Via Carmagnola  10064",
      "brand": "Agip Eni",
      "lat": 44.8860669,
      "lng": 7.3430393,
      "fuels": {
        "sp95": 1.944,
        "gazole": 2.059
      }
    },
    {
      "id": "20389",
      "cp": "",
      "ville": "Pinerolo",
      "adresse": "Via Martiri Del Xxi Sn 10064",
      "brand": "Agip Eni",
      "lat": 44.89169770276345,
      "lng": 7.345210611820221,
      "fuels": {
        "sp95": 1.939,
        "gazole": 2.054
      }
    },
    {
      "id": "27194",
      "cp": "",
      "ville": "Pinerolo",
      "adresse": "Via Nazionale 78 10064",
      "brand": "Tamoil",
      "lat": 44.88597328211927,
      "lng": 7.310169940789933,
      "fuels": {
        "sp95": 1.999,
        "gazole": 2.099
      }
    },
    {
      "id": "55162",
      "cp": "",
      "ville": "Pinerolo",
      "adresse": "Via Saluzzo 110 10064",
      "brand": "Agip Eni",
      "lat": 44.875,
      "lng": 7.335,
      "fuels": {
        "sp95": 1.929,
        "gazole": 2.059
      }
    },
    {
      "id": "12757",
      "cp": "",
      "ville": "Pinerolo",
      "adresse": "Via Saluzzo 92 10064",
      "brand": "Esso",
      "lat": 44.877218980436155,
      "lng": 7.3328255116939545,
      "fuels": {
        "sp95": 1.919,
        "gazole": 2.069
      }
    },
    {
      "id": "33814",
      "cp": "",
      "ville": "Pino Torinese",
      "adresse": "10 Padana inferiore, km. 11+540, Chieri - 10025",
      "brand": "Api-Ip",
      "lat": 45.038792144188875,
      "lng": 7.784751579165459,
      "fuels": {
        "sp95": 1.898,
        "gazole": 1.998
      }
    },
    {
      "id": "61566",
      "cp": "",
      "ville": "Pino Torinese",
      "adresse": "Al Traforo 2 10025",
      "brand": "Esso",
      "lat": 45.0409521,
      "lng": 7.7737595,
      "fuels": {
        "sp95": 1.899,
        "gazole": 2.079
      }
    },
    {
      "id": "6392",
      "cp": "",
      "ville": "Pino Torinese",
      "adresse": "s.s. 10 km. 12+400 Snc 10025",
      "brand": "q8",
      "lat": 45.03229033944487,
      "lng": 7.790945952778657,
      "fuels": {
        "sp95": 1.919,
        "gazole": 2.059
      }
    },
    {
      "id": "11878",
      "cp": "",
      "ville": "Piobesi Torinese",
      "adresse": "Via Del Mare 10 10040",
      "brand": "q8",
      "lat": 44.928475921469825,
      "lng": 7.623410672283171,
      "fuels": {
        "sp95": 1.939,
        "gazole": 2.059
      }
    },
    {
      "id": "44321",
      "cp": "",
      "ville": "Piobesi Torinese",
      "adresse": "Via Xxv Aprile  25 10040",
      "brand": "Pompe Bianche",
      "lat": 44.93354448535791,
      "lng": 7.616615295410156,
      "fuels": {
        "sp95": 1.929,
        "gazole": 2.099,
        "gplc": 0.724
      }
    },
    {
      "id": "33813",
      "cp": "",
      "ville": "Piossasco",
      "adresse": "589 Dei Laghi Di avigliana, km. 18+500, Cumiana - 10046",
      "brand": "Api-Ip",
      "lat": 44.968925248533985,
      "lng": 7.432086020708084,
      "fuels": {
        "sp95": 1.898,
        "gazole": 2.079
      }
    },
    {
      "id": "60285",
      "cp": "",
      "ville": "Piossasco",
      "adresse": "s.da Piossasco 21 10043",
      "brand": "Esso",
      "lat": 44.9796113,
      "lng": 7.4768923,
      "fuels": {
        "sp95": 1.887,
        "gazole": 2.037,
        "gplc": 0.697
      }
    },
    {
      "id": "45516",
      "cp": "",
      "ville": "Piossasco",
      "adresse": "s.p. 6 Pinerolo Km 20+381  10045",
      "brand": "Energas",
      "lat": 44.98084527610012,
      "lng": 7.485426635581916,
      "fuels": {
        "sp95": 1.629,
        "gazole": 1.589,
        "gplc": 0.689
      }
    },
    {
      "id": "39590",
      "cp": "",
      "ville": "Piossasco",
      "adresse": "s.p.torino/Piossasco Km 19+420 s.n. 10045",
      "brand": "Tamoil",
      "lat": 44.99163608617342,
      "lng": 7.487941011786461,
      "fuels": {
        "sp95": 1.919,
        "gazole": 2.089
      }
    },
    {
      "id": "62657",
      "cp": "",
      "ville": "Piossasco",
      "adresse": "str.prov.le n.141 Per Volvera km.0.860 1  10045",
      "brand": "Tamoil",
      "lat": 44.9754038,
      "lng": 7.4780648,
      "fuels": {
        "sp95": 1.899,
        "gazole": 2.119,
        "gplc": 0.699
      }
    },
    {
      "id": "32058",
      "cp": "",
      "ville": "Piossasco",
      "adresse": "Strada Orbassano - Piossasco km. 18  10045",
      "brand": "Api-Ip",
      "lat": 44.993579134975924,
      "lng": 7.494556326389329,
      "fuels": {
        "sp95": 1.919,
        "gazole": 2.099
      }
    },
    {
      "id": "11879",
      "cp": "",
      "ville": "Piossasco",
      "adresse": "Via n. Costa 2 10045",
      "brand": "q8",
      "lat": 44.98969810305086,
      "lng": 7.481375860118874,
      "fuels": {
        "sp95": 1.939,
        "gazole": 2.089
      }
    },
    {
      "id": "44537",
      "cp": "",
      "ville": "Piossasco",
      "adresse": "Via Pinerolo 11 10145",
      "brand": "Esso",
      "lat": 44.98966482439987,
      "lng": 7.466839720237772,
      "fuels": {
        "sp95": 1.899,
        "gazole": 2.099
      }
    },
    {
      "id": "55362",
      "cp": "",
      "ville": "Piscina",
      "adresse": "Autostrada a55 tang.le Di Torino-dir. pinerolo,  km. 21,684, dir. Torino 10060",
      "brand": "Api-Ip",
      "lat": 44.90725,
      "lng": 7.43116,
      "fuels": {
        "sp95": 1.999,
        "gazole": 2.159,
        "gplc": 0.925
      }
    },
    {
      "id": "3844",
      "cp": "",
      "ville": "Piscina",
      "adresse": "Autostrada a55 tang.le Di Torino-dir. pinerolo,  km. 21.5, dir. Sud 10060",
      "brand": "Agip Eni",
      "lat": 44.907402,
      "lng": 7.429397,
      "fuels": {
        "sp95": 2.019,
        "gazole": 2.139,
        "gplc": 0.846
      }
    },
    {
      "id": "34735",
      "cp": "",
      "ville": "Poirino",
      "adresse": "Ex s.s. 29 Ora s.r. Km 2+331,5 Snc 10046",
      "brand": "Api-Ip",
      "lat": 44.92211879859993,
      "lng": 7.864062488079071,
      "fuels": {
        "sp95": 1.889,
        "gazole": 1.999,
        "gplc": 0.758
      }
    },
    {
      "id": "42191",
      "cp": "",
      "ville": "Poirino",
      "adresse": "Ex Ss 29 km.24+570  10046",
      "brand": "Api-Ip",
      "lat": 44.93201706487351,
      "lng": 7.832031548023224,
      "fuels": {
        "sp95": 1.899,
        "gazole": 2.099,
        "e85": 1.599
      }
    },
    {
      "id": "50977",
      "cp": "",
      "ville": "Poirino",
      "adresse": "s.p.29  10046",
      "brand": "Tamoil",
      "lat": 44.905236248739044,
      "lng": 7.855048151267874,
      "fuels": {
        "sp95": 1.899,
        "gazole": 2.029,
        "gplc": 0.759
      }
    },
    {
      "id": "58232",
      "cp": "",
      "ville": "Poirino",
      "adresse": "s.s.29  Bivio Di Pessione  Snc",
      "brand": "Agip Eni",
      "lat": 44.9269,
      "lng": 7.836056,
      "fuels": {
        "sp95": 1.929,
        "gazole": 2.079
      }
    },
    {
      "id": "41400",
      "cp": "",
      "ville": "Pont-Canavese",
      "adresse": "Piazza Craveri 2 10085",
      "brand": "Api-Ip",
      "lat": 45.420168673973535,
      "lng": 7.5952415342715085,
      "fuels": {
        "sp95": 1.999,
        "gazole": 2.099
      }
    },
    {
      "id": "53449",
      "cp": "",
      "ville": "Porte",
      "adresse": "Via Nazionale 42  10060",
      "brand": "Api-Ip",
      "lat": 44.88656,
      "lng": 7.27774091,
      "fuels": {
        "sp95": 1.989,
        "gazole": 2.099,
        "gplc": 0.739
      }
    },
    {
      "id": "56426",
      "cp": "",
      "ville": "Pragelato",
      "adresse": "s.s. 23 km.81+235-fraz. Rua' s.n. 10060",
      "brand": "Tamoil",
      "lat": 45.01897864817,
      "lng": 6.9465252337402,
      "fuels": {
        "sp95": 1.999,
        "gazole": 2.169
      }
    },
    {
      "id": "31140",
      "cp": "",
      "ville": "Pralormo",
      "adresse": "Piazza Risorgimento 1 10100",
      "brand": "Api-Ip",
      "lat": 44.86310950567139,
      "lng": 7.896548279762328,
      "fuels": {
        "sp95": 1.949,
        "gazole": 2.169
      }
    },
    {
      "id": "19328",
      "cp": "",
      "ville": "Quincinetto",
      "adresse": "Largo Europa 5 10010",
      "brand": "Tamoil",
      "lat": 45.56313284860322,
      "lng": 7.809237027890276,
      "fuels": {
        "sp95": 1.899,
        "gazole": 2.099
      }
    },
    {
      "id": "63302",
      "cp": "",
      "ville": "Reano",
      "adresse": "Via Roma 6  10090",
      "brand": "Kerotris",
      "lat": 45.0511997,
      "lng": 7.4270527,
      "fuels": {
        "sp95": 1.979,
        "gazole": 2.119
      }
    },
    {
      "id": "50119",
      "cp": "",
      "ville": "Riva Presso Chieri",
      "adresse": "10 Padana inferiore, km. Km 21+673, Chieri - 10020",
      "brand": "Esso",
      "lat": 44.982287429750784,
      "lng": 7.878804726347965,
      "fuels": {
        "sp95": 1.929,
        "gazole": 2.099
      }
    },