{
  "code": "TV",
  "name": "Treviso",
  "regionCode": "VEN",
  "regionName": "Veneto",
  "asOf": "2026-07-18T07:06:06.925Z",
  "source": "https://www.mimit.gov.it/it/open-data/elenco-dataset/2032336-dataset-prezzi-carburanti",
  "stationCount": 324,
  "fuels": {
    "gazole": {
      "count": 317,
      "mean": 2.0634,
      "median": 2.068,
      "min": 1.199,
      "max": 2.249
    },
    "sp95": {
      "count": 316,
      "mean": 1.914,
      "median": 1.9185,
      "min": 1.644,
      "max": 2.049
    },
    "e85": {
      "count": 20,
      "mean": 1.478,
      "median": 1.547,
      "min": 1.258,
      "max": 1.799
    },
    "gplc": {
      "count": 91,
      "mean": 0.754,
      "median": 0.739,
      "min": 0.669,
      "max": 0.899
    }
  },
  "stations": [
    {
      "id": "58283",
      "cp": "",
      "ville": "Altivole",
      "adresse": "Spv",
      "brand": "Tamoil",
      "lat": 45.752135,
      "lng": 11.896192,
      "fuels": {
        "sp95": 1.999,
        "gazole": 2.169,
        "gplc": 0.859
      }
    },
    {
      "id": "58284",
      "cp": "",
      "ville": "Altivole",
      "adresse": "Spv",
      "brand": "Tamoil",
      "lat": 45.753132,
      "lng": 11.895945,
      "fuels": {
        "sp95": 1.999,
        "gazole": 2.169,
        "gplc": 0.859
      }
    },
    {
      "id": "24762",
      "cp": "",
      "ville": "Altivole",
      "adresse": "Via Asolana - San Vito Di Altivole 39 31030",
      "brand": "Pompe Bianche",
      "lat": 45.75906841166543,
      "lng": 11.910349492209207,
      "fuels": {
        "sp95": 1.889,
        "gazole": 2.059
      }
    },
    {
      "id": "13290",
      "cp": "",
      "ville": "Altivole",
      "adresse": "Via Frà g. Veronese 1 31030",
      "brand": "Pompe Bianche",
      "lat": 45.754988,
      "lng": 11.961444,
      "fuels": {
        "sp95": 1.927,
        "gazole": 2.047
      }
    },
    {
      "id": "62410",
      "cp": "",
      "ville": "Altivole",
      "adresse": "Via Piave 21  31030",
      "brand": "Vega",
      "lat": 45.7463756,
      "lng": 11.9749568,
      "fuels": {
        "sp95": 1.929,
        "gazole": 2.059
      }
    },
    {
      "id": "60766",
      "cp": "",
      "ville": "Altivole",
      "adresse": "Via Vallà 23  31030",
      "brand": "Api-Ip",
      "lat": 45.7370872,
      "lng": 11.9640416,
      "fuels": {
        "sp95": 1.949,
        "gazole": 2.059,
        "gplc": 0.789
      }
    },
    {
      "id": "11221",
      "cp": "",
      "ville": "Arcade",
      "adresse": "Via Trieste 259/E 31030",
      "brand": "Pompe Bianche",
      "lat": 45.783097878517,
      "lng": 12.236712276935577,
      "fuels": {
        "sp95": 1.939,
        "gazole": 2.069
      }
    },
    {
      "id": "58128",
      "cp": "",
      "ville": "Asolo",
      "adresse": "Tiziano 28 31011",
      "brand": "Gnp",
      "lat": 45.78944868,
      "lng": 11.91820176,
      "fuels": {
        "sp95": 1.897,
        "gazole": 2.037
      }
    },
    {
      "id": "14075",
      "cp": "",
      "ville": "Asolo",
      "adresse": "Via Bassane 2  31011",
      "brand": "San Marco Petroli",
      "lat": 45.8110431,
      "lng": 11.9095742,
      "fuels": {
        "sp95": 1.869,
        "gazole": 1.998
      }
    },
    {
      "id": "38709",
      "cp": "",
      "ville": "Asolo",
      "adresse": "Via Montello 25 31011",
      "brand": "Agip Eni",
      "lat": 45.790563339312484,
      "lng": 11.929132690460165,
      "fuels": {
        "sp95": 1.929,
        "gazole": 2.049
      }
    },
    {
      "id": "61755",
      "cp": "",
      "ville": "Asolo",
      "adresse": "Via Schiavonesca Marosticana 46  31011",
      "brand": "San Marco Petroli",
      "lat": 45.789299,
      "lng": 11.9076,
      "fuels": {
        "sp95": 2.029,
        "gazole": 2.249
      }
    },
    {
      "id": "58680",
      "cp": "",
      "ville": "Asolo",
      "adresse": "Via Vallorgana 1 31011",
      "brand": "Oil Italia",
      "lat": 45.80404851244011,
      "lng": 11.892378330230713,
      "fuels": {
        "sp95": 1.858,
        "gazole": 2.068
      }
    },
    {
      "id": "58102",
      "cp": "",
      "ville": "Borso Del Grappa",
      "adresse": "Molini 45/C 31030",
      "brand": "Pompe Bianche",
      "lat": 45.80724203156228,
      "lng": 11.790378962225125,
      "fuels": {
        "sp95": 1.874,
        "gazole": 2.074
      }
    },
    {
      "id": "18073",
      "cp": "",
      "ville": "Breda Di Piave",
      "adresse": "Molinetto 52/A 31030",
      "brand": "Agip Eni",
      "lat": 45.72999744582221,
      "lng": 12.391555948410087,
      "fuels": {
        "sp95": 1.909,
        "gazole": 2.149
      }
    },
    {
      "id": "53207",
      "cp": "",
      "ville": "Caerano Di San Marco",
      "adresse": "Padova 72 31031",
      "brand": "Tamoil",
      "lat": 45.760873,
      "lng": 11.992985,
      "fuels": {
        "sp95": 1.919,
        "gazole": 2.049
      }
    },
    {
      "id": "11030",
      "cp": "",
      "ville": "Caerano Di San Marco",
      "adresse": "Via Cadore 13 31031",
      "brand": "Esso",
      "lat": 45.787996022073244,
      "lng": 11.993808400000034,
      "fuels": {
        "sp95": 2.039,
        "gazole": 2.169,
        "gplc": 0.739
      }
    },
    {
      "id": "55726",
      "cp": "",
      "ville": "Caerano Di San Marco",
      "adresse": "Via Cadore 25 31031",
      "brand": "Pompe Bianche",
      "lat": 45.793493525851076,
      "lng": 11.994124383135333,
      "fuels": {
        "e85": 1.559
      }
    },
    {
      "id": "21088",
      "cp": "",
      "ville": "Caerano Di San Marco",
      "adresse": "Via Montello 50 31031",
      "brand": "Galoil Carburanti",
      "lat": 45.78506532821752,
      "lng": 12.006409666864784,
      "fuels": {
        "sp95": 1.858,
        "gazole": 2.068
      }
    },
    {
      "id": "56599",
      "cp": "",
      "ville": "Cappella Maggiore",
      "adresse": "Via Anzano 192 A 31012",
      "brand": "Energyca",
      "lat": 45.9837973,
      "lng": 12.334504,
      "fuels": {
        "sp95": 1.918,
        "gazole": 2.088,
        "gplc": 0.738
      }
    },
    {
      "id": "61759",
      "cp": "",
      "ville": "Carbonera",
      "adresse": "Via Iv Novembre 111 31030",
      "brand": "San Marco Petroli",
      "lat": 45.690788,
      "lng": 12.292548,
      "fuels": {
        "sp95": 1.899,
        "gazole": 2.179
      }
    },
    {
      "id": "28539",
      "cp": "",
      "ville": "Carbonera",
      "adresse": "Via Postioma   31030",
      "brand": "Costantin",
      "lat": 45.74003222527309,
      "lng": 12.292904555797577,
      "fuels": {
        "sp95": 1.889,
        "gazole": 2.059
      }
    },
    {
      "id": "61518",
      "cp": "",
      "ville": "Carbonera",
      "adresse": "Via Postioma 27 31030",
      "brand": "q8",
      "lat": 45.740233729910976,
      "lng": 12.291215028863668,
      "fuels": {
        "sp95": 1.909,
        "gazole": 2.139,
        "gplc": 0.785
      }
    },
    {
      "id": "46140",
      "cp": "",
      "ville": "Carbonera",
      "adresse": "Via Salvo D'Acquisto 22/1 31030",
      "brand": "Bioil",
      "lat": 45.67989583519664,
      "lng": 12.296049567394595,
      "fuels": {
        "sp95": 1.889,
        "gazole": 2.029,
        "gplc": 0.749
      }
    },
    {
      "id": "48847",
      "cp": "",
      "ville": "Casale Sul Sile",
      "adresse": "a27 Mestre-belluno, km. 8+894, Sud - 31032",
      "brand": "Tamoil",
      "lat": 45.59907744426375,
      "lng": 12.296323776245112,
      "fuels": {
        "sp95": 1.989,
        "gazole": 2.179,
        "gplc": 0.891
      }
    },
    {
      "id": "49281",
      "cp": "",
      "ville": "Casale Sul Sile",
      "adresse": "a27 Mestre-belluno, km. 8+900, Belluno - 31032",
      "brand": "q8",
      "lat": 45.60781498444197,
      "lng": 12.299148565239788,
      "fuels": {
        "sp95": 1.934,
        "gazole": 2.109,
        "gplc": 0.821
      }
    },
    {
      "id": "39951",
      "cp": "",
      "ville": "Casale Sul Sile",
      "adresse": "Belvedere 17 31032",
      "brand": "Pompe Bianche",
      "lat": 45.60229763489399,
      "lng": 12.330111747126807,
      "fuels": {
        "sp95": 1.919,
        "gazole": 1.999
      }
    },
    {
      "id": "39711",
      "cp": "",
      "ville": "Casale Sul Sile",
      "adresse": "s.p. 107 Snc 31032",
      "brand": "Api-Ip",
      "lat": 45.59586109727592,
      "lng": 12.266635000705719,
      "fuels": {
        "sp95": 1.929,
        "gazole": 2.049
      }
    },
    {
      "id": "53234",
      "cp": "",
      "ville": "Casale Sul Sile",
      "adresse": "San Michele 62 31032",
      "brand": "Api-Ip",
      "lat": 45.589026885178676,
      "lng": 12.338556299255353,
      "fuels": {
        "sp95": 1.939,
        "gazole": 2.059,
        "gplc": 0.769
      }
    },
    {
      "id": "15168",
      "cp": "",
      "ville": "Casale Sul Sile",
      "adresse": "Via Nuova Trevigiana 45 31032",
      "brand": "Esso",
      "lat": 45.60176111424057,
      "lng": 12.326436618385287,
      "fuels": {
        "sp95": 1.949,
        "gazole": 2.089
      }
    },
    {
      "id": "61720",
      "cp": "",
      "ville": "Casale Sul Sile",
      "adresse": "Via Nuova Trevigiana Casale 125  31032",
      "brand": "San Marco Petroli",
      "lat": 45.611657622022605,
      "lng": 12.328164875507355,
      "fuels": {
        "sp95": 1.909,
        "gazole": 2.169
      }
    },
    {
      "id": "26155",
      "cp": "",
      "ville": "Casale Sul Sile",
      "adresse": "Via Schiavonia 24 31032",
      "brand": "Sia Fuel",
      "lat": 45.60117889394231,
      "lng": 12.27622389793396,
      "fuels": {
        "sp95": 1.899,
        "gazole": 2.019,
        "gplc": 0.725
      }
    },
    {
      "id": "17032",
      "cp": "",
      "ville": "Casier",
      "adresse": "Viale Delle industrie, Dosson Di Casier 137 31030",
      "brand": "Pompe Bianche",
      "lat": 45.612514838120156,
      "lng": 12.264320254325867,
      "fuels": {
        "sp95": 1.889,
        "gazole": 2.059,
        "gplc": 0.729
      }
    },
    {
      "id": "56645",
      "cp": "",
      "ville": "Castelcucco",
      "adresse": "San Gaetano 32 31030",
      "brand": "Noaloil",
      "lat": 45.82614,
      "lng": 11.85,
      "fuels": {
        "sp95": 1.879,
        "gazole": 2.069
      }
    },
    {
      "id": "24599",
      "cp": "",
      "ville": "Castelcucco",
      "adresse": "Viale Trento Trieste 40 31030",
      "brand": "Esso",
      "lat": 45.83032892348926,
      "lng": 11.884894233135242,
      "fuels": {
        "sp95": 1.908,
        "gazole": 2.069
      }
    },
    {
      "id": "33546",
      "cp": "",
      "ville": "Castelfranco Veneto",
      "adresse": "Borgo Treviso  150 31033",
      "brand": "Agip Eni",
      "lat": 45.672258816882476,
      "lng": 11.939426792659788,
      "fuels": {
        "sp95": 1.864,
        "gazole": 1.959
      }
    },
    {
      "id": "49746",
      "cp": "",
      "ville": "Castelfranco Veneto",
      "adresse": "Borgo Treviso 126 31033",
      "brand": "Api-Ip",
      "lat": 45.67211228609701,
      "lng": 11.93561547783247,
      "fuels": {
        "sp95": 2.029,
        "gazole": 2.139
      }
    },
    {
      "id": "58110",
      "cp": "",
      "ville": "Castelfranco Veneto",
      "adresse": "Borgo Treviso 204  31033",
      "brand": "q8",
      "lat": 45.6728335,
      "lng": 11.9485396,
      "fuels": {
        "sp95": 1.859,
        "gazole": 2.019
      }
    },
    {
      "id": "55233",
      "cp": "",
      "ville": "Castelfranco Veneto",
      "adresse": "Brenta 132 31033",
      "brand": "Trivengas",
      "lat": 45.66593,
      "lng": 11.88792,
      "fuels": {
        "sp95": 1.879,
        "gazole": 2.079,
        "gplc": 0.739
      }
    },
    {
      "id": "55939",
      "cp": "",
      "ville": "Castelfranco Veneto",
      "adresse": "Brenta 2 31033",
      "brand": "Esso",
      "lat": 45.66929473052875,
      "lng": 11.916975080978089,
      "fuels": {
        "sp95": 1.869,
        "gazole": 1.919
      }
    },
    {
      "id": "23423",
      "cp": "",
      "ville": "Castelfranco Veneto",
      "adresse": "Circonvallazione Ovest 23 31033",
      "brand": "q8",
      "lat": 45.679786660274274,
      "lng": 11.918138496958932,
      "fuels": {
        "sp95": 1.869,
        "gazole": 2.049
      }
    },
    {
      "id": "47940",
      "cp": "",
      "ville": "Castelfranco Veneto",
      "adresse": "loc. Villarazzo - Via Valsugana  52 31033",
      "brand": "Oil Italia",
      "lat": 45.67785382047328,
      "lng": 11.910337060689926,
      "fuels": {
        "sp95": 1.859,
        "gazole": 2.039
      }
    },
    {
      "id": "57393",
      "cp": "",
      "ville": "Castelfranco Veneto",
      "adresse": "Via Borgo Padova",
      "brand": "Agip Eni",
      "lat": 45.658993,
      "lng": 11.937538,
      "fuels": {
        "sp95": 1.914,
        "gazole": 2.029
      }
    },
    {
      "id": "60489",
      "cp": "",
      "ville": "Castelfranco Veneto",
      "adresse": "Via Borgo Padova 50  31033",
      "brand": "Europam",
      "lat": 45.662502982796056,
      "lng": 11.934953456448758,
      "fuels": {
        "sp95": 1.647,
        "gazole": 1.597
      }
    },
    {
      "id": "63093",
      "cp": "",
      "ville": "Castelfranco Veneto",
      "adresse": "Via Brenta 2  31033",
      "brand": "Esso",
      "lat": 45.66926141259574,
      "lng": 11.916883952408789,
      "fuels": {
        "sp95": 1.899,
        "gazole": 2.059
      }
    },
    {
      "id": "50528",
      "cp": "",
      "ville": "Castelfranco Veneto",
      "adresse": "Via Castellana 115 31033",
      "brand": "Bc",
      "lat": 45.6608320287229,
      "lng": 11.912427641128488,
      "fuels": {
        "sp95": 1.841,
        "gazole": 2.024
      }
    },
    {
      "id": "61853",
      "cp": "",
      "ville": "Castelfranco Veneto",
      "adresse": "Via Circonvallazione Est 31 31033",
      "brand": "Esso",
      "lat": 45.685683938744745,
      "lng": 11.948736906051636,
      "fuels": {
        "sp95": 1.839,
        "gazole": 1.909
      }
    },
    {
      "id": "28408",
      "cp": "",
      "ville": "Castelfranco Veneto",
      "adresse": "Via Circonvallazione Est 85 31033",
      "brand": "Agip Eni",
      "lat": 45.68509182259654,
      "lng": 11.987427771091461,
      "fuels": {
        "sp95": 1.909,
        "gazole": 2.024,
        "gplc": 0.736
      }
    },
    {
      "id": "47939",
      "cp": "",
      "ville": "Castelfranco Veneto",
      "adresse": "Via Circonvallazione Ovest 18 31033",
      "brand": "Azzalini Energie",
      "lat": 45.68002485093764,
      "lng": 11.917591094970703,
      "fuels": {
        "sp95": 1.859,
        "gazole": 2.039,
        "e85": 1.547
      }
    },
    {
      "id": "15034",
      "cp": "",
      "ville": "Castelfranco Veneto",
      "adresse": "Viale Europa 4 31033",
      "brand": "Iper Station",
      "lat": 45.68131337432542,
      "lng": 11.939668357372284,
      "fuels": {
        "sp95": 1.863,
        "gazole": 2.085
      }
    },
    {
      "id": "52267",
      "cp": "",
      "ville": "Castello Di Godego",
      "adresse": "Caprera 45/D 31030",
      "brand": "Gnp",
      "lat": 45.684958413699704,
      "lng": 11.893147994819255,
      "fuels": {
        "sp95": 1.877,
        "gazole": 2.037
      }
    },
    {
      "id": "19062",
      "cp": "",
      "ville": "Castello Di Godego",
      "adresse": "Via Caprera 20/A 31030",
      "brand": "q8",
      "lat": 45.68815368954309,
      "lng": 11.884719669311494,
      "fuels": {
        "sp95": 1.889,
        "gazole": 2.079
      }
    },
    {
      "id": "61509",
      "cp": "",
      "ville": "Castello Di Godego",
      "adresse": "Via Caprera 8/A  31030",
      "brand": "Api-Ip",
      "lat": 45.6887115178583,
      "lng": 11.883081247225018,
      "fuels": {
        "sp95": 1.939,
        "gazole": 2.069
      }
    },
    {
      "id": "43818",
      "cp": "",
      "ville": "Castello Di Godego",
      "adresse": "Via Chioggia 45/A 31030",
      "brand": "Noaloil",
      "lat": 45.693927942784285,
      "lng": 11.857777833938599,
      "fuels": {
        "sp95": 1.879,
        "gazole": 2.079,
        "gplc": 0.739
      }
    },
    {
      "id": "4409",
      "cp": "",
      "ville": "Cavaso Del Tomba",
      "adresse": "Via Valcavasia 76 31034, Cavaso Del Tomba (tv) 76 31034",
      "brand": "Gnp",
      "lat": 45.85742915373334,
      "lng": 11.92984933591265,
      "fuels": {
        "sp95": 1.917,
        "gazole": 2.047,
        "gplc": 0.757
      }
    },
    {
      "id": "41093",
      "cp": "",
      "ville": "Cessalto",
      "adresse": "a4 Venezia-trieste, km. 431,5, Ovest - 31040",
      "brand": "Tamoil",
      "lat": 45.70424060487568,
      "lng": 12.603309899568558,
      "fuels": {
        "sp95": 2.049,
        "gazole": 2.179
      }
    },
    {
      "id": "3867",
      "cp": "",
      "ville": "Cessalto",
      "adresse": "Autostrada a4 Venezia-trieste,  km. 34.845, dir. Est",
      "brand": "q8",
      "lat": 45.70346099296441,
      "lng": 12.604268789291382,
      "fuels": {
        "sp95": 2.019,
        "gazole": 2.169,
        "gplc": 0.879
      }
    },
    {
      "id": "60853",
      "cp": "",
      "ville": "Cessalto",
      "adresse": "Via Dante 22  31040",
      "brand": "Pompe Bianche",
      "lat": 45.7125964,
      "lng": 12.6123141,
      "fuels": {
        "sp95": 1.878,
        "gazole": 2.018,
        "gplc": 0.715
      }
    },
    {
      "id": "51739",
      "cp": "",
      "ville": "Cessalto",
      "adresse": "Via Dante Alighieri 7 31040",
      "brand": "q8",
      "lat": 45.70141394449599,
      "lng": 12.611532211303711,
      "fuels": {
        "sp95": 1.959,
        "gazole": 2.069
      }
    },
    {
      "id": "61742",
      "cp": "",
      "ville": "Cessalto",
      "adresse": "Via Vittoria 72/B  31040",
      "brand": "San Marco Petroli",
      "lat": 45.705599962367025,
      "lng": 12.620424767799076,
      "fuels": {
        "sp95": 1.929,
        "gazole": 2.149
      }
    },
    {
      "id": "4488",
      "cp": "",
      "ville": "Chiarano",
      "adresse": "Via Roma 92 31040",
      "brand": "Noaloil",
      "lat": 45.731355991301946,
      "lng": 12.574258949737555,
      "fuels": {
        "sp95": 1.879,
        "gazole": 2.089,
        "gplc": 0.739
      }
    },
    {
      "id": "12698",
      "cp": "",
      "ville": "Cimadolmo",
      "adresse": "Via Stabiuzzo 14 31010",
      "brand": "Pompe Bianche",
      "lat": 45.77451789903546,
      "lng": 12.370645961515038,
      "fuels": {
        "sp95": 1.899,
        "gazole": 2.099
      }
    },
    {
      "id": "21403",
      "cp": "",
      "ville": "Cison Di Valmarino",
      "adresse": "Via Indipendenza 27 31030",
      "brand": "Api-Ip",
      "lat": 45.97447570773822,
      "lng": 12.18016192317009,
      "fuels": {
        "sp95": 1.899,
        "gazole": 2.059,
        "gplc": 0.789
      }
    },
    {
      "id": "58636",
      "cp": "",
      "ville": "Codognè",
      "adresse": "Roma 165 31013",
      "brand": "Loro",
      "lat": 45.86612472022949,
      "lng": 12.443333805663483,
      "fuels": {
        "sp95": 1.858,
        "gazole": 1.968
      }
    },
    {
      "id": "40299",
      "cp": "",
      "ville": "Codognè",
      "adresse": "Via Cadore Mare 10 31013,  Codogne' (tv) 10 31013",
      "brand": "Carburanti Piave",
      "lat": 45.85615903072787,
      "lng": 12.418533205557196,
      "fuels": {
        "sp95": 1.855,
        "gazole": 2.019,
        "gplc": 0.757
      }
    },
    {
      "id": "53443",
      "cp": "",
      "ville": "Colle Umberto",
      "adresse": "Boschetta 20 31014",
      "brand": "q8",
      "lat": 45.957618894967666,
      "lng": 12.350210906745929,
      "fuels": {
        "sp95": 1.939,
        "gazole": 2.139,
        "gplc": 0.769
      }
    },
    {
      "id": "62630",
      "cp": "",
      "ville": "Colle Umberto",
      "adresse": "Via Menarè",
      "brand": "Azzalini Energie",
      "lat": 45.943523076245505,
      "lng": 12.323322962426756,
      "fuels": {
        "sp95": 1.879,
        "gazole": 1.999
      }
    },
    {
      "id": "39656",
      "cp": "",
      "ville": "Colle Umberto",
      "adresse": "Via o. Bottecchia  23 31014",
      "brand": "Pompe Bianche",
      "lat": 45.95680664221191,
      "lng": 12.36065635176351,
      "fuels": {
        "sp95": 1.889,
        "gazole": 1.979
      }
    },
    {
      "id": "36253",
      "cp": "",
      "ville": "Conegliano",
      "adresse": "Autostrada a27 Mestre-belluno, km. 49+700, dir. Nord - 31015",
      "brand": "Sarni Oil",
      "lat": 45.94243636060397,
      "lng": 12.304507791996002,
      "fuels": {
        "sp95": 1.998,
        "gazole": 2.198,
        "gplc": 0.899
      }
    },
    {
      "id": "62772",
      "cp": "",
      "ville": "Conegliano",
      "adresse": "Autostrada a27 Mestre-belluno, km. 49+700, dir. Nord - 31015",
      "brand": "Sarni Oil",
      "lat": 45.94243636060397,
      "lng": 12.304507791996002,
      "fuels": {
        "gazole": 2.079
      }
    },
    {
      "id": "62817",
      "cp": "",
      "ville": "Conegliano",
      "adresse": "Autostrada a27 Mestre-belluno, km. 49+700, dir. Nord - 31015",
      "brand": "Sarni Oil",
      "lat": 45.94243636060397,
      "lng": 12.304507791996002,
      "fuels": {
        "gazole": 2.199
      }
    },
    {
      "id": "60981",
      "cp": "",
      "ville": "Conegliano",
      "adresse": "ss51 Via Menare' 181",
      "brand": "Agip Eni",
      "lat": 45.93972866883529,
      "lng": 12.322037516374115,
      "fuels": {
        "sp95": 1.959,
        "gazole": 2.099
      }
    },
    {
      "id": "31280",
      "cp": "",
      "ville": "Conegliano",
      "adresse": "Statale 13 pontebbana, km. 46, dir. Treviso - 31015",
      "brand": "Agip Eni",
      "lat": 45.86782846266703,
      "lng": 12.273286879062653,
      "fuels": {
        "sp95": 1.944,
        "gazole": 2.059
      }
    },
    {
      "id": "7345",
      "cp": "",
      "ville": "Conegliano",
      "adresse": "Via Adolfo Vital 94 32015",
      "brand": "Agip Eni",
      "lat": 45.87818291854349,
      "lng": 12.303054007934634,
      "fuels": {
        "sp95": 1.944,
        "gazole": 2.059
      }
    },
    {
      "id": "6487",
      "cp": "",
      "ville": "Conegliano",
      "adresse": "Via Lourdes 44 31015",
      "brand": "q8",
      "lat": 45.89505128380132,
      "lng": 12.296328074409075,
      "fuels": {
        "sp95": 1.909,
        "gazole": 2.039
      }
    },
    {
      "id": "13967",
      "cp": "",
      "ville": "Conegliano",
      "adresse": "Via Ortigara 106 31015",
      "brand": "Pompe Bianche",
      "lat": 45.86973665483285,
      "lng": 12.26592385522531,
      "fuels": {
        "sp95": 1.916,
        "gazole": 2.076
      }
    },
    {
      "id": "48343",
      "cp": "",
      "ville": "Conegliano",
      "adresse": "Via San Giuseppe Snc 31015",
      "brand": "Enercoop",
      "lat": 45.87631761284242,
      "lng": 12.313256822090164,
      "fuels": {
        "sp95": 1.889,
        "gazole": 2.059,
        "e85": 1.799,
        "gplc": 0.759
      }
    },
    {
      "id": "23082",
      "cp": "",
      "ville": "Conegliano",
      "adresse": "Via Xxiv Maggio 192 31015",
      "brand": "q8",
      "lat": 45.895411192679596,
      "lng": 12.321404112966889,
      "fuels": {
        "sp95": 1.909,
        "gazole": 2.039
      }
    },
    {
      "id": "11897",
      "cp": "",
      "ville": "Conegliano",
      "adresse": "Via Xxiv Maggio 42 31015",
      "brand": "q8",
      "lat": 45.89208215955959,
      "lng": 12.311555074247508,
      "fuels": {
        "sp95": 1.929,
        "gazole": 2.049
      }
    },
    {
      "id": "11901",
      "cp": "",
      "ville": "Conegliano",
      "adresse": "Viale Italia 277 31015",
      "brand": "q8",
      "lat": 45.88250456171079,
      "lng": 12.315374694442767,
      "fuels": {
        "sp95": 1.929,
        "gazole": 2.049
      }
    },
    {
      "id": "12464",
      "cp": "",
      "ville": "Conegliano",
      "adresse": "Viale Italia 327 31015, Conegliano (tv) 327 31015",
      "brand": "Esso",
      "lat": 45.88683025519158,
      "lng": 12.320259402446709,
      "fuels": {
        "sp95": 1.959,
        "gazole": 2.099
      }
    },
    {
      "id": "61704",
      "cp": "",
      "ville": "Conegliano",
      "adresse": "Viale Venezia 105  31015",
      "brand": "San Marco Petroli",
      "lat": 45.870940113218836,
      "lng": 12.278124212303169,
      "fuels": {
        "sp95": 1.959,
        "gazole": 2.199,
        "gplc": 0.739
      }
    },
    {
      "id": "10848",
      "cp": "",
      "ville": "Conegliano",
      "adresse": "Viale Venezia 28 31015",
      "brand": "Energyca",
      "lat": 45.87410167454349,
      "lng": 12.28154606745909,
      "fuels": {
        "sp95": 1.918,
        "gazole": 2.088
      }
    },
    {
      "id": "7726",
      "cp": "",
      "ville": "Conegliano",
      "adresse": "Viale Venezia 36 31015",
      "brand": "Esso",
      "lat": 45.87249539068971,
      "lng": 12.279490559524561,
      "fuels": {
        "sp95": 1.959,
        "gazole": 2.099
      }
    },
    {
      "id": "47012",
      "cp": "",
      "ville": "Cordignano",
      "adresse": "13 pontebbana, km. 62 + 915, Venezia - 31016",
      "brand": "Esso",
      "lat": 45.94340548737562,
      "lng": 12.451948821544647,
      "fuels": {
        "sp95": 1.959,
        "gazole": 2.099
      }
    },
    {
      "id": "5010",
      "cp": "",
      "ville": "Cordignano",
      "adresse": "Statale 13 pontebbana, km. 62+500, dir. Lato Sx - 31016",
      "brand": "Termoveneta Srl",
      "lat": 45.9431754449282,
      "lng": 12.446270639217346,
      "fuels": {
        "sp95": 1.899,
        "gazole": 2.049
      }
    },
    {
      "id": "6491",
      "cp": "",
      "ville": "Cordignano",
      "adresse": "Via Trieste imp.q8 Snc 31016",
      "brand": "q8",
      "lat": 45.945545769696636,
      "lng": 12.417671931305449,
      "fuels": {
        "sp95": 1.929,
        "gazole": 2.059
      }
    },
    {
      "id": "59553",
      "cp": "",
      "ville": "Cornuda",
      "adresse": "San Vettore 37 31041",
      "brand": "Api-Ip",
      "lat": 45.843757,
      "lng": 11.989103,
      "fuels": {
        "sp95": 1.929,
        "gazole": 2.089
      }
    },
    {
      "id": "40815",
      "cp": "",
      "ville": "Crespano Del Grappa",
      "adresse": "Asolana 23 31017",
      "brand": "Tamoil",
      "lat": 45.817703887492975,
      "lng": 11.846122965216637,
      "fuels": {
        "sp95": 1.919,
        "gazole": 2.049
      }
    },
    {
      "id": "8938",
      "cp": "",
      "ville": "Crespano Del Grappa",
      "adresse": "Via Molinetto  31017",
      "brand": "q8",
      "lat": 45.82651963381458,
      "lng": 11.835806629430408,
      "fuels": {
        "sp95": 1.899,
        "gazole": 2.049
      }
    },
    {
      "id": "7721",
      "cp": "",
      "ville": "Crocetta Del Montello",
      "adresse": "Via Erizzo 96 31035",
      "brand": "Agip Eni",
      "lat": 45.824494834334615,
      "lng": 12.036292254924774,
      "fuels": {
        "sp95": 1.934,
        "gazole": 2.059
      }
    },
    {
      "id": "48918",
      "cp": "",
      "ville": "Crocetta Del Montello",
      "adresse": "Via Feltrina 26 31035",
      "brand": "Esso",
      "lat": 45.826305670898364,
      "lng": 12.01042028570558,
      "fuels": {
        "sp95": 1.949,
        "gazole": 2.079
      }
    },
    {
      "id": "11172",
      "cp": "",
      "ville": "Crocetta Del Montello",
      "adresse": "Via Feltrina 6/A 31035",
      "brand": "Agip Eni",
      "lat": 45.821093305241774,
      "lng": 12.011768817901611,
      "fuels": {
        "sp95": 1.914,
        "gazole": 2.029
      }
    },
    {
      "id": "4115",
      "cp": "",
      "ville": "Farra Di Soligo",
      "adresse": "Via Rui Stort 8 31010",
      "brand": "Trivengas",
      "lat": 45.90052386656599,
      "lng": 12.111063029430397,
      "fuels": {
        "sp95": 1.899,
        "gazole": 2.099
      }
    },
    {
      "id": "28958",
      "cp": "",
      "ville": "Farra Di Soligo",
      "adresse": "Via Treviset 62 31010",
      "brand": "Esso",
      "lat": 45.89486339546323,
      "lng": 12.08736599055078,
      "fuels": {
        "sp95": 1.969,
        "gazole": 2.099
      }
    },
    {
      "id": "60925",
      "cp": "",
      "ville": "Follina",
      "adresse": "Via Castelletto 2  31051",
      "brand": "Agip Eni",
      "lat": 45.9247387,
      "lng": 12.1547004,
      "fuels": {
        "sp95": 1.949,
        "gazole": 2.059,
        "gplc": 0.779
      }
    },
    {
      "id": "45634",
      "cp": "",
      "ville": "Follina",
      "adresse": "Via Paoletti 34 31051",
      "brand": "Api-Ip",
      "lat": 45.94781727295502,
      "lng": 12.122621600454977,
      "fuels": {
        "sp95": 1.959,
        "gazole": 2.119
      }
    },
    {
      "id": "21616",
      "cp": "",
      "ville": "Fontanelle",
      "adresse": "Via Roma 513 E 31043, Fontanelle (tv) 513/E 31043",
      "brand": "Mz Petroli",
      "lat": 45.812457893990306,
      "lng": 12.478356510400772,
      "fuels": {
        "sp95": 1.869,
        "gazole": 2.019,
        "gplc": 0.735
      }
    },
    {
      "id": "32619",
      "cp": "",
      "ville": "Fontanelle",
      "adresse": "Via Roma 86 31043",
      "brand": "Energyca",
      "lat": 45.8404676796748,
      "lng": 12.448554169311592,
      "fuels": {
        "sp95": 1.928,
        "gazole": 2.098
      }
    },
    {
      "id": "50178",
      "cp": "",
      "ville": "Fontanelle",
      "adresse": "Via Vallonto 52 31043",
      "brand": "Oil Italia",
      "lat": 45.85660266376166,
      "lng": 12.474331855773926,
      "fuels": {
        "sp95": 1.869,
        "gazole": 2.019,
        "gplc": 0.758
      }
    },
    {
      "id": "22817",
      "cp": "",
      "ville": "Fonte",
      "adresse": "Don ceccato, 20 31010",
      "brand": "Noaloil",
      "lat": 45.80333169287907,
      "lng": 11.86616382733905,
      "fuels": {
        "sp95": 1.879,
        "gazole": 2.079
      }
    },
    {
      "id": "4304",
      "cp": "",
      "ville": "Fonte",
      "adresse": "Extra Urbano Via Asolana 119 31010, Fonte (tv)  31010",
      "brand": "Agip Eni",
      "lat": 45.78529418775948,
      "lng": 11.88981682062149,
      "fuels": {
        "sp95": 1.934,
        "gazole": 2.059,
        "gplc": 0.751
      }
    },
    {
      "id": "10186",
      "cp": "",
      "ville": "Fonte",
      "adresse": "Via Asolana 57 31010",
      "brand": "q8",
      "lat": 45.78517198075522,
      "lng": 11.872872403704832,
      "fuels": {
        "sp95": 1.909,
        "gazole": 2.049
      }
    },
    {
      "id": "43620",
      "cp": "",
      "ville": "Fregona",
      "adresse": "Via Guglielmo Marconi 4 31010",
      "brand": "Pompe Bianche",
      "lat": 46.00799594483036,
      "lng": 12.339736323619377,
      "fuels": {
        "sp95": 1.899,
        "gazole": 2.099
      }
    },
    {
      "id": "10982",
      "cp": "",
      "ville": "Fregona",
      "adresse": "Via Indipendenza 31 31010",
      "brand": "Api-Ip",
      "lat": 45.998515233663696,
      "lng": 12.340060472488403,
      "fuels": {
        "sp95": 1.999,
        "gazole": 2.089
      }
    },
    {
      "id": "56060",
      "cp": "",
      "ville": "Gaiarine",
      "adresse": "Per Brugnera 10/A 31018",
      "brand": "Energyca",
      "lat": 45.9014144,
      "lng": 12.4944384,
      "fuels": {
        "sp95": 1.918,
        "gazole": 2.088,
        "gplc": 0.738
      }
    },
    {
      "id": "60864",
      "cp": "",
      "ville": "Gaiarine",
      "adresse": "Via Vizza 3/A 31018",
      "brand": "Retitalia",
      "lat": 45.882575160189376,
      "lng": 12.487321425109878,
      "fuels": {
        "sp95": 1.949,
        "gazole": 2.089
      }
    },
    {
      "id": "48562",
      "cp": "",
      "ville": "Giavera Del Montello",
      "adresse": "248 Schiavonesca-marosticana, km. 70+200, Lato Sinistro - 31040",
      "brand": "q8",
      "lat": 45.79154926023191,
      "lng": 12.158491416166205,
      "fuels": {
        "sp95": 1.889,
        "gazole": 2.074,
        "gplc": 0.759
      }
    },
    {
      "id": "15214",
      "cp": "",
      "ville": "Giavera Del Montello",
      "adresse": "Via San Rocco 40 31040",
      "brand": "Pompe Bianche",
      "lat": 45.785625486024024,
      "lng": 12.17870725223679,
      "fuels": {
        "sp95": 1.885,
        "gazole": 2.07
      }
    },
    {
      "id": "62492",
      "cp": "",
      "ville": "Godega Di Sant'Urbano",
      "adresse": "Cristoforo Colombo 14 31010",
      "brand": "Tamoil",
      "lat": 45.93012117190643,
      "lng": 12.376191012725299,
      "fuels": {
        "sp95": 1.919,
        "gazole": 2.069
      }
    },
    {
      "id": "48451",
      "cp": "",
      "ville": "Godega Di Sant'Urbano",
      "adresse": "Nazionale 42 31010",
      "brand": "Agip Eni",
      "lat": 45.927092865672584,
      "lng": 12.381444093254105,
      "fuels": {
        "sp95": 1.954,
        "gazole": 2.054,
        "gplc": 0.736
      }
    },
    {
      "id": "55728",
      "cp": "",
      "ville": "Godega Di Sant'Urbano",
      "adresse": "Via Levada  1 31010",
      "brand": "Costantin",
      "lat": 45.896996,
      "lng": 12.400138,
      "fuels": {
        "sp95": 1.888,
        "gazole": 2.058,
        "gplc": 0.758
      }
    },
    {
      "id": "62493",
      "cp": "",
      "ville": "Godega Di Sant'Urbano",
      "adresse": "Via Roma 106  31010",
      "brand": "Api-Ip",
      "lat": 45.93077359999999,
      "lng": 12.4007518,
      "fuels": {
        "sp95": 1.949,
        "gazole": 2.089
      }
    },
    {
      "id": "31530",
      "cp": "",
      "ville": "Gorgo Al Monticano",
      "adresse": "Via Postumia Di Sala 36/37 31040",
      "brand": "Vega",
      "lat": 45.7834955474712,
      "lng": 12.57197231054306,
      "fuels": {
        "sp95": 1.919,
        "gazole": 2.099
      }
    },
    {
      "id": "56001",
      "cp": "",
      "ville": "Istrana",
      "adresse": "Via f. Filzi 1  31036",
      "brand": "Costantin",
      "lat": 45.67805602875537,
      "lng": 12.09939993917942,
      "fuels": {
        "sp95": 1.899,
        "gazole": 2.099
      }
    },
    {
      "id": "56006",
      "cp": "",
      "ville": "Istrana",
      "adresse": "Via n. Sauro 1 31036",
      "brand": "Costantin",
      "lat": 45.67843116543201,
      "lng": 12.098785620866806,
      "fuels": {
        "sp95": 1.899,
        "gazole": 2.099
      }
    },
    {
      "id": "24227",
      "cp": "",
      "ville": "Istrana",
      "adresse": "Via Postioma 19/A 31036, Istrana (tv) 19/A 31036",
      "brand": "Sevenoil",
      "lat": 45.71083477503914,
      "lng": 12.083804900030486,
      "fuels": {
        "sp95": 1.857,
        "gazole": 2.039,
        "gplc": 0.718
      }
    },
    {
      "id": "55408",
      "cp": "",
      "ville": "Loria",
      "adresse": "Via Castellana 36 31037",
      "brand": "Loro",
      "lat": 45.711626,
      "lng": 11.8683638,
      "fuels": {
        "sp95": 1.879,
        "gazole": 2.069
      }
    },
    {
      "id": "30572",
      "cp": "",
      "ville": "Loria",
      "adresse": "Via Manzolino 16 31037",
      "brand": "Pompe Bianche",
      "lat": 45.741068039858355,
      "lng": 11.8665779239426,
      "fuels": {
        "sp95": 1.879,
        "gazole": 2.039,
        "gplc": 0.778
      }
    },
    {
      "id": "7281",
      "cp": "",
      "ville": "Mansuè",
      "adresse": "s.da Provinciale Per Oderzo Sn 31040",
      "brand": "q8",
      "lat": 45.813192912003345,
      "lng": 12.52606604662708,
      "fuels": {
        "sp95": 1.899,
        "gazole": 2.089,
        "gplc": 0.739
      }
    },
    {
      "id": "12052",
      "cp": "",
      "ville": "Mansuè",
      "adresse": "Via Portobuffole' 16/C 31040",
      "brand": "Energyca",
      "lat": 45.82839973159547,
      "lng": 12.537657715760815,
      "fuels": {
        "sp95": 1.928,
        "gazole": 2.088,
        "e85": 1.498
      }
    },
    {
      "id": "30038",
      "cp": "",
      "ville": "Mareno Di Piave",
      "adresse": "Conti Agosti 56 31010",
      "brand": "San Marco Petroli",
      "lat": 45.844096263076004,
      "lng": 12.347737186508198,
      "fuels": {
        "sp95": 1.919,
        "gazole": 2.139
      }
    },
    {
      "id": "52517",
      "cp": "",
      "ville": "Mareno Di Piave",
      "adresse": "Via Conti Agosti 104/B 31010",
      "brand": "Pompe Bianche",
      "lat": 45.84447917491715,
      "lng": 12.335754445100266,
      "fuels": {
        "sp95": 1.889,
        "gazole": 2.099,
        "gplc": 0.759
      }
    },
    {
      "id": "15714",
      "cp": "",
      "ville": "Maser",
      "adresse": "Statale 248 Schiavonesca-marosticana, km. 54, dir. Bassano - 31010",
      "brand": "Esso",
      "lat": 45.793051094284216,
      "lng": 11.97240874171257,
      "fuels": {
        "sp95": 1.969,
        "gazole": 2.109,
        "gplc": 0.779
      }
    },
    {
      "id": "38020",
      "cp": "",
      "ville": "Maser",
      "adresse": "Via Bassanese 13 31010",
      "brand": "Pompe Bianche",
      "lat": 45.808859270419276,
      "lng": 11.974526032718131,
      "fuels": {
        "sp95": 1.878,
        "gazole": 2.068
      }
    },
    {
      "id": "61728",
      "cp": "",
      "ville": "Maserada Sul Piave",
      "adresse": "Via Papadopoli Sud 2  31052",
      "brand": "San Marco Petroli",
      "lat": 45.74258944315922,
      "lng": 12.32569120824337,
      "fuels": {
        "sp95": 1.949,
        "gazole": 2.199
      }
    },
    {
      "id": "43619",
      "cp": "",
      "ville": "Maserada Sul Piave",
      "adresse": "Viale Caccianiga 109 31052",
      "brand": "Pompe Bianche",
      "lat": 45.74751664148511,
      "lng": 12.32189841104514,
      "fuels": {
        "sp95": 1.899,
        "gazole": 2.099
      }
    },
    {
      "id": "48378",
      "cp": "",
      "ville": "Meduna Di Livenza",
      "adresse": "Via Roma 75 31040",
      "brand": "Agip Eni",
      "lat": 45.81915899846474,
      "lng": 12.601154148578638,
      "fuels": {
        "sp95": 1.969,
        "gazole": 2.099
      }
    },
    {
      "id": "45166",
      "cp": "",
      "ville": "Miane",
      "adresse": "Via Alcide De Gasperi 21 31050",
      "brand": "Retitalia",
      "lat": 45.943862604230596,
      "lng": 12.092991367479044,
      "fuels": {
        "sp95": 1.939,
        "gazole": 2.069
      }
    },
    {
      "id": "60729",
      "cp": "",
      "ville": "Mogliano Veneto",
      "adresse": "Via Casale Sul Sile 14 sp64",
      "brand": "Agip Eni",
      "lat": 45.58865,
      "lng": 12.30757,
      "fuels": {
        "sp95": 1.929,
        "gazole": 2.029,
        "gplc": 0.721
      }
    },
    {
      "id": "16488",
      "cp": "",
      "ville": "Mogliano Veneto",
      "adresse": "Via Don Gottardi Gianni 19 31021",
      "brand": "Trivengas",
      "lat": 45.56190810783569,
      "lng": 12.211925983428955,
      "fuels": {
        "sp95": 1.899,
        "gazole": 2.079,
        "e85": 1.549,
        "gplc": 0.759
      }
    },
    {
      "id": "47767",
      "cp": "",
      "ville": "Mogliano Veneto",
      "adresse": "Via g. Marconi 59",
      "brand": "Agip Eni",
      "lat": 45.56466558405175,
      "lng": 12.235043346881861,
      "fuels": {
        "sp95": 1.969,
        "gazole": 2.099
      }
    },
    {
      "id": "11900",
      "cp": "",
      "ville": "Mogliano Veneto",
      "adresse": "Via Marconi 48 31021",
      "brand": "q8",
      "lat": 45.569255363885624,
      "lng": 12.235511136245691,
      "fuels": {
        "sp95": 1.929,
        "gazole": 2.069
      }
    },
    {
      "id": "56666",
      "cp": "",
      "ville": "Mogliano Veneto",
      "adresse": "Via Terraglio 41 31021",
      "brand": "Esso",
      "lat": 45.55494574961471,
      "lng": 12.234750320148663,
      "fuels": {
        "sp95": 1.939,
        "gazole": 2.069
      }
    },
    {
      "id": "61723",
      "cp": "",
      "ville": "Mogliano Veneto",
      "adresse": "Via Zermanesa 83  31021",
      "brand": "San Marco Petroli",
      "lat": 45.57148729663653,
      "lng": 12.264465093612671,
      "fuels": {
        "sp95": 1.929,
        "gazole": 2.159
      }
    },
    {
      "id": "6489",
      "cp": "",
      "ville": "Mogliano Veneto",
      "adresse": "Via Zermanesa Sp 64 116 31021",
      "brand": "q8",
      "lat": 45.56738985547974,
      "lng": 12.259905338287354,
      "fuels": {
        "sp95": 1.929,
        "gazole": 2.079,
        "gplc": 0.719
      }
    },
    {
      "id": "50731",
      "cp": "",
      "ville": "Monastier Di Treviso",
      "adresse": "Lombardia 1 31050",
      "brand": "Tamoil",
      "lat": 45.65125106139745,
      "lng": 12.424584792625062,
      "fuels": {
        "sp95": 1.929,
        "gazole": 2.049,
        "e85": 1.369,
        "gplc": 0.739
      }
    },
    {
      "id": "43427",
      "cp": "",
      "ville": "Montebelluna",
      "adresse": "Castellana 132 31044",
      "brand": "Pompe Bianche",
      "lat": 45.76778292897655,
      "lng": 12.027615128836032,
      "fuels": {
        "sp95": 1.999,
        "gazole": 2.149
      }
    },
    {
      "id": "53774",
      "cp": "",
      "ville": "Montebelluna",
      "adresse": "s. Gaetano 221 31044",
      "brand": "Gnp",
      "lat": 45.753617686353124,
      "lng": 12.050112080360558,
      "fuels": {
        "sp95": 1.877,
        "gazole": 2.067
      }
    },
    {
      "id": "30180",
      "cp": "",
      "ville": "Montebelluna",
      "adresse": "Via Bassanese 58 31044",
      "brand": "Agip Eni",
      "lat": 45.78013692596637,
      "lng": 12.019581281753517,
      "fuels": {
        "sp95": 1.909,
        "gazole": 2.029
      }
    },
    {
      "id": "21083",
      "cp": "",
      "ville": "Montebelluna",
      "adresse": "Via Feltrina Nord 129 31044",
      "brand": "Galoil Carburanti",
      "lat": 45.80701569759343,
      "lng": 12.022940423651107,
      "fuels": {
        "sp95": 1.858,
        "gazole": 2.068,
        "e85": 1.548,
        "gplc": 0.718
      }
    },
    {
      "id": "34797",
      "cp": "",
      "ville": "Montebelluna",
      "adresse": "Via Feltrina Nord 26 31044",
      "brand": "Sia Fuel",
      "lat": 45.79443856036979,
      "lng": 12.042285650968552,
      "fuels": {
        "sp95": 1.929,
        "gazole": 2.099
      }
    },
    {
      "id": "5550",
      "cp": "",
      "ville": "Montebelluna",
      "adresse": "Via Feltrina Sud 2 31044",
      "brand": "Api-Ip",
      "lat": 45.78478274090648,
      "lng": 12.05410436441798,
      "fuels": {
        "sp95": 1.929,
        "gazole": 2.029
      }
    },
    {
      "id": "11388",
      "cp": "",
      "ville": "Montebelluna",
      "adresse": "Via Feltrina Sud 64 31044",
      "brand": "Esso",
      "lat": 45.77942368222749,
      "lng": 12.063417251898159,
      "fuels": {
        "sp95": 2.029,
        "gazole": 2.169
      }
    },
    {
      "id": "45504",
      "cp": "",
      "ville": "Montebelluna",
      "adresse": "Via Montegrappa 81 31044",
      "brand": "Esso",
      "lat": 45.77560897709667,
      "lng": 12.034208178520203,
      "fuels": {
        "sp95": 1.999,
        "gazole": 2.149
      }
    },
    {
      "id": "51894",
      "cp": "",
      "ville": "Montebelluna",
      "adresse": "Via Schiavonesca Priula 40 31044",
      "brand": "q8",
      "lat": 45.78009488139105,
      "lng": 12.066518068313599,
      "fuels": {
        "sp95": 1.849,
        "gazole": 1.989
      }
    },
    {
      "id": "57907",
      "cp": "",
      "ville": "Montebelluna",
      "adresse": "Via Villette  31044",
      "brand": "Delta Energy",
      "lat": 45.766103517150576,
      "lng": 12.067553006536677,
      "fuels": {
        "sp95": 1.859,
        "gazole": 2.039,
        "gplc": 0.719
      }
    },
    {
      "id": "16597",
      "cp": "",
      "ville": "Morgano",
      "adresse": "Settimo 45 31050",
      "brand": "Pighi",
      "lat": 45.642990176683604,
      "lng": 12.118420153856277,
      "fuels": {
        "sp95": 1.899,
        "gazole": 2.059,
        "gplc": 0.729
      }
    },
    {
      "id": "33135",
      "cp": "",
      "ville": "Morgano",
      "adresse": "Via s. Ambrogio 11 31050",
      "brand": "Pighi",
      "lat": 45.63168675313918,
      "lng": 12.084141303318802,
      "fuels": {
        "sp95": 1.899,
        "gazole": 2.059
      }
    },
    {
      "id": "11904",
      "cp": "",
      "ville": "Moriago Della Battaglia",
      "adresse": "Via Montegrappa Sp 34 S/N 31010",
      "brand": "q8",
      "lat": 45.860343962539766,
      "lng": 12.07373755092624,
      "fuels": {
        "sp95": 1.889,
        "gazole": 2.049
      }
    },
    {
      "id": "52255",
      "cp": "",
      "ville": "Motta Di Livenza",
      "adresse": "Magnadola 20/B 31045",
      "brand": "Pompe Bianche",
      "lat": 45.75813604597007,
      "lng": 12.61542409658432,
      "fuels": {
        "sp95": 1.899,
        "gazole": 2.098,
        "gplc": 0.758
      }
    },
    {
      "id": "6485",
      "cp": "",
      "ville": "Motta Di Livenza",
      "adresse": "s.s. 53 Postumia Km 94+707 Snc 31050",
      "brand": "q8",
      "lat": 45.782366176795676,
      "lng": 12.583916228697262,
      "fuels": {
        "sp95": 1.919,
        "gazole": 2.099
      }
    },
    {
      "id": "31526",
      "cp": "",
      "ville": "Motta Di Livenza",
      "adresse": "Via Aldo Moro 30 31045",
      "brand": "Vega",
      "lat": 45.76648265858281,
      "lng": 12.61091262102127,
      "fuels": {
        "sp95": 1.919,
        "gazole": 2.099,
        "gplc": 0.759
      }
    },
    {
      "id": "21307",
      "cp": "",
      "ville": "Nervesa Della Battaglia",
      "adresse": "i. Lollini 11 31040",
      "brand": "Tamoil",
      "lat": 45.81909454345932,
      "lng": 12.201704674868779,
      "fuels": {
        "sp95": 1.929,
        "gazole": 2.069
      }
    },
    {
      "id": "53011",
      "cp": "",
      "ville": "Nervesa Della Battaglia",
      "adresse": "Lungo Piave 9 31040",
      "brand": "Api-Ip",
      "lat": 45.82376,
      "lng": 12.21722,
      "fuels": {
        "sp95": 1.929,
        "gazole": 2.049
      }
    },
    {
      "id": "31525",
      "cp": "",
      "ville": "Nervesa Della Battaglia",
      "adresse": "s.s. 13 Via Della Vittoria 5/A 31040",
      "brand": "Vega",
      "lat": 45.80927063759703,
      "lng": 12.249688804149628,
      "fuels": {
        "sp95": 1.899,
        "gazole": 2.099,
        "gplc": 0.759
      }
    },
    {
      "id": "32454",
      "cp": "",
      "ville": "Nervesa Della Battaglia",
      "adresse": "Statale 13 pontebbana, km. 5, dir. N - 31040",
      "brand": "Tamoil",
      "lat": 45.8041453683447,
      "lng": 12.251363843679428,
      "fuels": {
        "sp95": 1.929,
        "gazole": 2.069
      }
    },
    {
      "id": "34304",
      "cp": "",
      "ville": "Oderzo",
      "adresse": "Dei Camaldolesi 10 31046",
      "brand": "Energyca",
      "lat": 45.79086404806854,
      "lng": 12.488016511500518,
      "fuels": {
        "sp95": 1.938,
        "gazole": 2.088
      }
    },
    {
      "id": "17802",
      "cp": "",
      "ville": "Oderzo",
      "adresse": "Postumia Di Fratta 83/A 31046",
      "brand": "Agip Eni",
      "lat": 45.7912881475483,
      "lng": 12.528346369866995,
      "fuels": {
        "sp95": 1.987,
        "gazole": 2.064,
        "gplc": 0.795
      }
    },
    {
      "id": "54207",
      "cp": "",
      "ville": "Oderzo",
      "adresse": "Via Concordia 24  31046",
      "brand": "Vega",
      "lat": 45.79490364482314,
      "lng": 12.51586061349304,
      "fuels": {
        "sp95": 1.899,
        "gazole": 2.089,
        "gplc": 0.739
      }
    },
    {
      "id": "24269",
      "cp": "",
      "ville": "Oderzo",
      "adresse": "Via Della Serenissima 5 31046",
      "brand": "Energyca",
      "lat": 45.76728349366198,
      "lng": 12.511829595245331,
      "fuels": {
        "sp95": 1.928,
        "gazole": 2.088,
        "gplc": 0.738
      }
    },
    {
      "id": "22484",
      "cp": "",
      "ville": "Oderzo",
      "adresse": "Via Per Piavon 50 31046",
      "brand": "Costantin",
      "lat": 45.76225401552997,
      "lng": 12.526470609786884,
      "fuels": {
        "sp95": 1.897,
        "gazole": 2.087
      }
    },
    {
      "id": "62421",
      "cp": "",
      "ville": "Oderzo",
      "adresse": "Via Postumia Da Camino 12/A 31046",
      "brand": "Termoveneta Srl",
      "lat": 45.7845206,
      "lng": 12.4967199,
      "fuels": {
        "sp95": 1.879,
        "gazole": 2.029
      }
    },
    {
      "id": "55024",
      "cp": "",
      "ville": "Oderzo",
      "adresse": "Via Postumia Ii Tronco 28  31046",
      "brand": "Esso",
      "lat": 45.762861666666666,
      "lng": 12.485524166666666,
      "fuels": {
        "sp95": 1.979,
        "gazole": 2.099,
        "gplc": 0.759
      }
    },
    {
      "id": "60002",
      "cp": "",
      "ville": "Oderzo",
      "adresse": "Via Postumia Ii Tronco 28  31046",
      "brand": "Pompe Bianche",
      "lat": 45.76267448587695,
      "lng": 12.484397792297152,
      "fuels": {
        "e85": 1.599
      }
    },
    {
      "id": "62322",
      "cp": "",
      "ville": "Oderzo",
      "adresse": "Via Postumia Ii Tronco 28  31046",
      "brand": "Esso",
      "lat": 45.7626651,
      "lng": 12.4847196,
      "fuels": {
        "sp95": 1.919,
        "gazole": 2.019,
        "gplc": 0.759
      }
    },
    {
      "id": "6492",
      "cp": "",
      "ville": "Oderzo",
      "adresse": "Via Verdi 33 31046",
      "brand": "q8",
      "lat": 45.78858410573367,
      "lng": 12.501064373016334,
      "fuels": {
        "sp95": 1.889,
        "gazole": 2.049
      }
    },
    {
      "id": "15091",
      "cp": "",
      "ville": "Oderzo",
      "adresse": "Viale s. Brandolini 17 31046",
      "brand": "Agip Eni",
      "lat": 45.770883234736594,
      "lng": 12.488507330417633,
      "fuels": {
        "sp95": 1.909,
        "gazole": 2.029
      }
    },
    {
      "id": "16401",
      "cp": "",
      "ville": "Ormelle",
      "adresse": "Via Negrisia 24 31024",
      "brand": "Pompe Bianche",
      "lat": 45.75156826066235,
      "lng": 12.414942383766174,
      "fuels": {
        "sp95": 1.867,
        "gazole": 2.087,
        "gplc": 0.785
      }
    },
    {
      "id": "7486",
      "cp": "",
      "ville": "Ormelle",
      "adresse": "Via Roma  31010",
      "brand": "Azzalini Energie",
      "lat": 45.78324789321552,
      "lng": 12.438148856163025,
      "fuels": {
        "sp95": 1.869,
        "gazole": 2.019
      }
    },
    {
      "id": "51277",
      "cp": "",
      "ville": "Ormelle",
      "adresse": "Via Roma 25 31024",
      "brand": "Api-Ip",
      "lat": 45.78011104988187,
      "lng": 12.41726181816648,
      "fuels": {
        "sp95": 1.919,
        "gazole": 2.019
      }
    },
    {
      "id": "29332",
      "cp": "",
      "ville": "Orsago",
      "adresse": "Via Pontebbana 29 31010",
      "brand": "Agip Eni",
      "lat": 45.935145383981755,
      "lng": 12.416145568122829,
      "fuels": {
        "sp95": 1.909,
        "gazole": 1.994
      }
    },
    {
      "id": "48018",
      "cp": "",
      "ville": "Paese",
      "adresse": "loc.castagnole Ss 348 Km 5+278  31038",
      "brand": "q8",
      "lat": 45.70246580003531,
      "lng": 12.178756142327876,
      "fuels": {
        "sp95": 1.919,
        "gazole": 2.079
      }
    },
    {
      "id": "41110",
      "cp": "",
      "ville": "Paese",
      "adresse": "Via Castellana s.r. 53 16/C 31038",
      "brand": "Vega",
      "lat": 45.678723179760034,
      "lng": 12.133977636694908,
      "fuels": {
        "sp95": 1.899,
        "gazole": 2.069,
        "gplc": 0.739
      }
    },
    {
      "id": "49944",
      "cp": "",
      "ville": "Paese",
      "adresse": "Via Enrico Fermi 66 31038",
      "brand": "Vega",
      "lat": 45.72716810754992,
      "lng": 12.142000149073802,
      "fuels": {
        "sp95": 1.899,
        "gazole": 2.089,
        "e85": 1.599,
        "gplc": 0.739
      }
    },
    {
      "id": "41978",
      "cp": "",
      "ville": "Paese",
      "adresse": "Via Ortigara 67 31038",
      "brand": "Pompe Bianche",
      "lat": 45.689436294276234,
      "lng": 12.124563819608738,
      "fuels": {
        "sp95": 1.9,
        "gazole": 2.029
      }
    },
    {
      "id": "6488",
      "cp": "",
      "ville": "Paese",
      "adresse": "Via Postumia 137 31038",
      "brand": "q8",
      "lat": 45.67193347170996,
      "lng": 12.169029958860847,
      "fuels": {
        "sp95": 1.899,
        "gazole": 2.039
      }
    },
    {
      "id": "63096",
      "cp": "",
      "ville": "Paese",
      "adresse": "Via Postumia 168  31038",
      "brand": "Esso",
      "lat": 45.6713287,
      "lng": 12.1715298,
      "fuels": {
        "sp95": 1.949,
        "gazole": 2.089
      }
    },
    {
      "id": "26551",
      "cp": "",
      "ville": "Paese",
      "adresse": "Via postumia, 168 31038",
      "brand": "Esso",
      "lat": 45.6713815680875,
      "lng": 12.171550927619478,
      "fuels": {
        "sp95": 1.959,
        "gazole": 2.019
      }
    },
    {
      "id": "55572",
      "cp": "",
      "ville": "Pederobba",
      "adresse": "s.s. 348 Via Feltrina  31040",
      "brand": "q8",
      "lat": 45.8595741,
      "lng": 11.9970411,
      "fuels": {
        "sp95": 1.889,
        "gazole": 2.059
      }
    },
    {
      "id": "58681",
      "cp": "",
      "ville": "Pieve Del Grappa",
      "adresse": "Via Vittorio Veneto 1/A 31017",
      "brand": "Oil Italia",
      "lat": 45.82755076211519,
      "lng": 11.85850739479065,
      "fuels": {
        "sp95": 1.858,
        "gazole": 2.068
      }
    },
    {
      "id": "30464",
      "cp": "",
      "ville": "Pieve Di Soligo",
      "adresse": "Via Chisini 123 31053",
      "brand": "Esso",
      "lat": 45.895386542107374,
      "lng": 12.177711982803316,
      "fuels": {
        "sp95": 1.959,
        "gazole": 2.099
      }
    },
    {
      "id": "8942",
      "cp": "",
      "ville": "Pieve Di Soligo",
      "adresse": "Via Verizzo 116  31053",
      "brand": "Gdpi",
      "lat": 45.8878141,
      "lng": 12.1575616,
      "fuels": {
        "sp95": 1.885,
        "gplc": 0.765,
        "gazole": 2.045
      }
    },
    {
      "id": "56350",
      "cp": "",
      "ville": "Pieve Di Soligo",
      "adresse": "Vittorio Veneto 20 31053",
      "brand": "Energyca",
      "lat": 45.897991,
      "lng": 12.165394,
      "fuels": {
        "sp95": 1.938,
        "gazole": 2.098
      }
    },
    {
      "id": "36186",
      "cp": "",
      "ville": "Ponte Di Piave",
      "adresse": "Via Jesolo 20 31047, Ponte Di Piave (tv) 20 31047",
      "brand": "Gnp",
      "lat": 45.71273438325514,
      "lng": 12.464432142206192,
      "fuels": {
        "sp95": 1.877,
        "gazole": 2.037
      }
    },
    {
      "id": "12084",
      "cp": "",
      "ville": "Ponte Di Piave",
      "adresse": "Via Postumia  31047",
      "brand": "Api-Ip",
      "lat": 45.71547053161837,
      "lng": 12.462795674800873,
      "fuels": {
        "sp95": 1.929,
        "gazole": 2.029
      }
    },
    {
      "id": "34460",
      "cp": "",
      "ville": "Ponte Di Piave",
      "adresse": "Via Postumia 50/C 31047",
      "brand": "Agip Eni",
      "lat": 45.72742150597593,
      "lng": 12.473470866680145,
      "fuels": {
        "sp95": 1.939,
        "gazole": 2.039
      }
    },
    {
      "id": "42368",
      "cp": "",
      "ville": "Ponte Di Piave",
      "adresse": "Via San Romano 64 31047",
      "brand": "Noaloil",
      "lat": 45.733575669625964,
      "lng": 12.432668432593346,
      "fuels": {
        "sp95": 1.899,
        "gazole": 2.099
      }
    },
    {
      "id": "53529",
      "cp": "",
      "ville": "Ponzano Veneto",
      "adresse": "Roma s.p. n. 56 1/A 31050",
      "brand": "Tamoil",
      "lat": 45.7248206,
      "lng": 12.1998092,
      "fuels": {
        "sp95": 1.929,
        "gazole": 2.069
      }
    },
    {
      "id": "34582",
      "cp": "",
      "ville": "Ponzano Veneto",
      "adresse": "Via Roma 62 31050",
      "brand": "Pompe Bianche",
      "lat": 45.71603910400759,
      "lng": 12.208990976214409,
      "fuels": {
        "sp95": 1.859,
        "gazole": 1.959
      }
    },
    {
      "id": "54315",
      "cp": "",
      "ville": "Portobuffolè",
      "adresse": "Via Provinciale 18 31040",
      "brand": "Noaloil",
      "lat": 45.85361932071238,
      "lng": 12.535985112190206,
      "fuels": {
        "sp95": 1.899,
        "gazole": 2.099
      }
    },
    {
      "id": "30691",
      "cp": "",
      "ville": "Possagno",
      "adresse": "Olivi 89 31054",
      "brand": "Ag Energy",
      "lat": 45.84902774382003,
      "lng": 11.883921633337877,
      "fuels": {
        "sp95": 1.937,
        "gazole": 2.077
      }
    },
    {
      "id": "54680",
      "cp": "",
      "ville": "Preganziol",
      "adresse": "Del Terraglio 179 31022",
      "brand": "Api-Ip",
      "lat": 45.604691,
      "lng": 12,
      "fuels": {
        "sp95": 1.819,
        "gazole": 1.919,
        "gplc": 0.799
      }
    },
    {
      "id": "7493",
      "cp": "",
      "ville": "Preganziol",
      "adresse": "s.s. 13,via Del Terraglio  31022",
      "brand": "q8",
      "lat": 45.62117729884335,
      "lng": 12.238436937332153,
      "fuels": {
        "sp95": 1.919,
        "gazole": 2.069
      }
    },
    {
      "id": "21185",
      "cp": "",
      "ville": "Preganziol",
      "adresse": "str. Terraglio 297  31022",
      "brand": "Api-Ip",
      "lat": 45.606553,
      "lng": 12.2362281,
      "fuels": {
        "sp95": 1.919,
        "gazole": 2.059
      }
    },
    {
      "id": "27898",
      "cp": "",
      "ville": "Preganziol",
      "adresse": "Via Franchetti 232 31022",
      "brand": "Noaloil",
      "lat": 45.62617285014066,
      "lng": 12.226258925231718,
      "fuels": {
        "sp95": 1.899,
        "gazole": 2.029
      }
    },
    {
      "id": "11898",
      "cp": "",
      "ville": "Preganziol",
      "adresse": "Via Terraglio S/N 31022",
      "brand": "q8",
      "lat": 45.60761948062739,
      "lng": 12.236385423278762,
      "fuels": {
        "sp95": 1.929,
        "gazole": 2.069
      }
    },
    {
      "id": "33444",
      "cp": "",
      "ville": "Quinto Di Treviso",
      "adresse": "Noalese 20 31055",
      "brand": "Tamoil",
      "lat": 45.64677228102149,
      "lng": 12.17204187065363,
      "fuels": {
        "sp95": 1.929,
        "gazole": 2.079
      }
    },
    {
      "id": "35887",
      "cp": "",
      "ville": "Quinto Di Treviso",
      "adresse": "Via g.marconi 51/A 31055",
      "brand": "Vega",
      "lat": 45.62590633121185,
      "lng": 12.164472341537476,
      "fuels": {
        "sp95": 1.899,
        "gazole": 2.089,
        "gplc": 0.739
      }
    },
    {
      "id": "12051",
      "cp": "",
      "ville": "Refrontolo",
      "adresse": "Via Crevada 32/C 31020",
      "brand": "Energyca",
      "lat": 45.89262160086622,
      "lng": 12.223682994204978,
      "fuels": {
        "sp95": 1.918,
        "gazole": 2.088,
        "e85": 1.258,
        "gplc": 0.738
      }
    },
    {
      "id": "38017",
      "cp": "",
      "ville": "Resana",
      "adresse": "Santa Brigida 51 31023",
      "brand": "Loro",
      "lat": 45.6357850322787,
      "lng": 11.996858955819675,
      "fuels": {
        "sp95": 1.859,
        "gazole": 2.059
      }
    },
    {
      "id": "60758",
      "cp": "",
      "ville": "Resana",
      "adresse": "Strada Regionale 308 Km 23+828 31023",
      "brand": "Pompe Bianche",
      "lat": 45.619857,
      "lng": 11.941917,
      "fuels": {
        "sp95": 1.889,
        "gazole": 2.039,
        "e85": 1.547,
        "gplc": 0.669
      }
    },
    {
      "id": "57889",
      "cp": "",
      "ville": "Resana",
      "adresse": "Venezia 2 31023",
      "brand": "Pompe Bianche",
      "lat": 45.62931113758819,
      "lng": 11.957067847251892,
      "fuels": {
        "sp95": 1.889,
        "gazole": 2.039
      }
    },
    {
      "id": "13284",
      "cp": "",
      "ville": "Resana",
      "adresse": "Via Via Trieste 99/C 31023, Resana (tv) 99/C 31023",
      "brand": "Pompe Bianche",
      "lat": 45.63562778038879,
      "lng": 11.97447131318404,
      "fuels": {
        "sp95": 1.898,
        "gazole": 2.089,
        "gplc": 0.699
      }
    },
    {
      "id": "49674",
      "cp": "",
      "ville": "Riese Pio X",
      "adresse": "Via Kennedy 107 31039",
      "brand": "Vallicarburanti",
      "lat": 45.69117713768036,
      "lng": 11.927684950891484,
      "fuels": {
        "sp95": 1.889,
        "gazole": 2.049,
        "gplc": 0.789
      }
    },
    {
      "id": "15183",
      "cp": "",
      "ville": "Riese Pio X",
      "adresse": "Via Monte Grappa 48, 31039 - -",
      "brand": "Agip Eni",
      "lat": 45.73349528524414,
      "lng": 11.912504385644525,
      "fuels": {
        "sp95": 1.934,
        "gazole": 2.059
      }
    },
    {
      "id": "31531",
      "cp": "",
      "ville": "Roncade",
      "adresse": "s.r. 89 Km 9+223 Via Treviso Mare 40 31056",
      "brand": "Vega",
      "lat": 45.63798165553188,
      "lng": 12.396373450756073,
      "fuels": {
        "sp95": 1.899,
        "gazole": 2.099
      }
    },
    {
      "id": "11902",
      "cp": "",
      "ville": "Roncade",
      "adresse": "Via e. Hemingway 1/A 31056",
      "brand": "q8",
      "lat": 45.6354725422649,
      "lng": 12.42563988227846,
      "fuels": {
        "sp95": 1.929,
        "gazole": 2.099
      }
    },
    {
      "id": "9968",
      "cp": "",
      "ville": "Roncade",
      "adresse": "Via Garibaldi 17 31056",
      "brand": "q8",
      "lat": 45.62345304570195,
      "lng": 12.37603209762267,
      "fuels": {
        "sp95": 1.929,
        "gazole": 2.099
      }
    },
    {
      "id": "56928",
      "cp": "",
      "ville": "Roncade",
      "adresse": "Via Giovanni Xxiii 22",
      "brand": "Tamoil",
      "lat": 45.6267695,
      "lng": 12.3724819,
      "fuels": {
        "sp95": 1.929,
        "gazole": 2.079
      }
    },
    {
      "id": "34808",
      "cp": "",
      "ville": "Salgareda",
      "adresse": "Via g.marconi 2 31040",
      "brand": "Sia Fuel",
      "lat": 45.703154914441996,
      "lng": 12.53588855266571,
      "fuels": {
        "sp95": 1.929,
        "gazole": 2.099
      }
    },
    {
      "id": "56567",
      "cp": "",
      "ville": "San Biagio Di Callalta",
      "adresse": "Postumia Est 5 31048",
      "brand": "Shell",
      "lat": 45.689238,
      "lng": 12.392237,
      "fuels": {
        "sp95": 1.929,
        "gazole": 2.059
      }
    },
    {
      "id": "63465",
      "cp": "",
      "ville": "San Biagio Di Callalta",
      "adresse": "s.p. 62  Snc",
      "brand": "Api-Ip",
      "lat": 45.6459905,
      "lng": 12.3240821,
      "fuels": {
        "sp95": 1.899,
        "gazole": 1.999
      }
    },
    {
      "id": "34265",
      "cp": "",
      "ville": "San Biagio Di Callalta",
      "adresse": "s.s. N 53 Km 72+255 Snc 31048",
      "brand": "Tamoil",
      "lat": 45.68648073682865,
      "lng": 12.385526597499847,
      "fuels": {
        "sp95": 1.919,
        "gazole": 2.029
      }
    },
    {
      "id": "15470",
      "cp": "",
      "ville": "San Biagio Di Callalta",
      "adresse": "Via Agozzo 43/C (s.p. 167)  31048",
      "brand": "Xoil",
      "lat": 45.66046196980168,
      "lng": 12.331281153442433,
      "fuels": {
        "sp95": 1.889,
        "gazole": 2.029,
        "gplc": 0.749
      }
    },
    {
      "id": "32470",
      "cp": "",
      "ville": "San Biagio Di Callalta",
      "adresse": "Via Postumia est, 159 31048",
      "brand": "Oil Italia",
      "lat": 45.70618938869083,
      "lng": 12.443084418385297,
      "fuels": {
        "sp95": 1.877,
        "gazole": 1.999
      }
    },
    {
      "id": "10752",
      "cp": "",
      "ville": "San Biagio Di Callalta",
      "adresse": "Via Postumia Ovest 37 31048",
      "brand": "Agip Eni",
      "lat": 45.6819917680725,
      "lng": 12.359233000802647,
      "fuels": {
        "sp95": 1.889,
        "gazole": 1.974
      }
    },
    {
      "id": "35741",
      "cp": "",
      "ville": "San Biagio Di Callalta",
      "adresse": "Via Postumia Ovest 65 31048",
      "brand": "Agip Eni",
      "lat": 45.680745947993124,
      "lng": 12.349931001663208,
      "fuels": {
        "sp95": 1.949,
        "gazole": 2.054,
        "gplc": 0.749
      }
    },
    {
      "id": "38333",
      "cp": "",
      "ville": "San Biagio Di Callalta",
      "adresse": "Via Postumia Ovest 82 31048",
      "brand": "Agip Eni",
      "lat": 45.67558833673567,
      "lng": 12.335780900000032,
      "fuels": {
        "sp95": 1.914,
        "gazole": 2.029
      }
    },
    {
      "id": "54862",
      "cp": "",
      "ville": "San Biagio Di Callalta",
      "adresse": "Via Treviso Mare 12  31048",
      "brand": "Api-Ip",
      "lat": 45.6462097,
      "lng": 12.3240312,
      "fuels": {
        "sp95": 1.899,
        "gazole": 1.999
      }
    },
    {
      "id": "54758",
      "cp": "",
      "ville": "San Fior",
      "adresse": "Nazionale 86 31020",
      "brand": "Api-Ip",
      "lat": 45.90600862017344,
      "lng": 12.336499840021133,
      "fuels": {
        "sp95": 1.949,
        "gazole": 2.099
      }
    },
    {
      "id": "4604",
      "cp": "",
      "ville": "San Fior",
      "adresse": "Via Nazionale  1 31020",
      "brand": "Agip Eni",
      "lat": 45.9161141491944,
      "lng": 12.350289169311509,
      "fuels": {
        "sp95": 1.944,
        "gazole": 2.059,
        "gplc": 0.736
      }
    },
    {
      "id": "45514",
      "cp": "",
      "ville": "San Fior",
      "adresse": "Via Palladio 20 31020",
      "brand": "Energas",
      "lat": 45.90371751922511,
      "lng": 12.331616590457543,
      "fuels": {
        "gplc": 0.729
      }
    },
    {
      "id": "37407",
      "cp": "",
      "ville": "San Fior",
      "adresse": "Viale Europa 118 31020",
      "brand": "Esso",
      "lat": 45.92251872394989,
      "lng": 12.363619973016398,
      "fuels": {
        "sp95": 1.919,
        "gazole": 2.049
      }
    },
    {
      "id": "16587",
      "cp": "",
      "ville": "San Pietro Di Feletto",
      "adresse": "Via Castella 9 31020",
      "brand": "Energyca",
      "lat": 45.91490629234349,
      "lng": 12.252872612074043,
      "fuels": {
        "sp95": 1.928,
        "gazole": 2.098
      }
    },
    {
      "id": "49064",
      "cp": "",
      "ville": "San Pietro Di Feletto",
      "adresse": "Via Cervano 59 31053",
      "brand": "Energyca",
      "lat": 45.90969578698114,
      "lng": 12.276129120172572,
      "fuels": {
        "sp95": 1.928,
        "gazole": 2.098
      }
    },
    {
      "id": "52516",
      "cp": "",
      "ville": "San Polo Di Piave",
      "adresse": "Via Campagna 47 31020",
      "brand": "Pompe Bianche",
      "lat": 45.80057381125238,
      "lng": 12.37931330059487,
      "fuels": {
        "sp95": 1.889,
        "gazole": 1.199
      }
    },
    {
      "id": "31529",
      "cp": "",
      "ville": "San Polo Di Piave",
      "adresse": "Via Ormelle 44 31020",
      "brand": "Vega",
      "lat": 45.7823096401709,
      "lng": 12.411576211452484,
      "fuels": {
        "sp95": 1.899,
        "gazole": 2.099,
        "gplc": 0.759
      }
    },
    {
      "id": "39517",
      "cp": "",
      "ville": "San Vendemiano",
      "adresse": "Cadore 23 31020",
      "brand": "Tamoil",
      "lat": 45.90049369256368,
      "lng": 12.330624327096302,
      "fuels": {
        "sp95": 1.919,
        "gazole": 2.069
      }
    },
    {
      "id": "60311",
      "cp": "",
      "ville": "San Vendemiano",
      "adresse": "Via Liberazione 153  31020",
      "brand": "Retitalia",
      "lat": 45.87670327241261,
      "lng": 12.33891734963211,
      "fuels": {
        "sp95": 1.949,
        "gazole": 2.089
      }
    },
    {
      "id": "56993",
      "cp": "",
      "ville": "San Vendemiano",
      "adresse": "Via Mare 12 31020",
      "brand": "Api-Ip",
      "lat": 45.96881984652467,
      "lng": 12.314953096987825,
      "fuels": {
        "sp95": 1.949,
        "gazole": 2.079
      }
    },
    {
      "id": "21123",
      "cp": "",
      "ville": "San Vendemiano",
      "adresse": "Via Mare 52 31020",
      "brand": "Pompe Bianche",
      "lat": 45.88472253370165,
      "lng": 12.333328915801417,
      "fuels": {
        "sp95": 1.929,
        "gazole": 2.069,
        "e85": 1.319,
        "gplc": 0.739
      }
    },
    {
      "id": "36213",
      "cp": "",
      "ville": "San Vendemiano",
      "adresse": "Via Risorgimento 4 31020",
      "brand": "Sia Fuel",
      "lat": 45.90351791098212,
      "lng": 12.32872625001528,
      "fuels": {
        "sp95": 1.929,
        "gazole": 2.099
      }
    },
    {
      "id": "58721",
      "cp": "",
      "ville": "San Vendemiano",
      "adresse": "Vicolo Resistenza 17 31015",
      "brand": "Tamoil",
      "lat": 45.881926,
      "lng": 12.32082,
      "fuels": {
        "sp95": 1.889,
        "gazole": 1.989
      }
    },
    {
      "id": "31852",
      "cp": "",
      "ville": "San Zenone Degli Ezzelini",
      "adresse": "Via Beltramini  3 31020",
      "brand": "q8",
      "lat": 45.77983943046171,
      "lng": 11.849008349668111,
      "fuels": {
        "sp95": 1.929,
        "gazole": 2.069,
        "gplc": 0.749
      }
    },
    {
      "id": "38503",
      "cp": "",
      "ville": "San Zenone Degli Ezzelini",
      "adresse": "Via Montegrappa 16 31020",
      "brand": "San Marco Petroli",
      "lat": 45.75571512533561,
      "lng": 11.849467009305954,
      "fuels": {
        "sp95": 1.879,
        "gazole": 2.039
      }
    },
    {
      "id": "60426",
      "cp": "",
      "ville": "Santa Lucia Di Piave",
      "adresse": "Distrettuale 41/B 31025",
      "brand": "Tamoil",
      "lat": 45.8573136,
      "lng": 12.3056273,
      "fuels": {
        "sp95": 1.929,
        "gazole": 2.089
      }
    },
    {
      "id": "6486",
      "cp": "",
      "ville": "Santa Lucia Di Piave",
      "adresse": "Via Distrettuale 92 31025",
      "brand": "q8",
      "lat": 45.8539080245532,
      "lng": 12.307193030619032,
      "fuels": {
        "sp95": 1.929,
        "gazole": 2.049
      }
    },
    {
      "id": "13190",
      "cp": "",
      "ville": "Sarmede",
      "adresse": "Via Cesare Battisti 9 31026",
      "brand": "Energyca",
      "lat": 45.97822061268422,
      "lng": 12.385236284414987,
      "fuels": {
        "sp95": 1.938,
        "gazole": 2.108
      }
    },
    {
      "id": "60009",
      "cp": "",
      "ville": "Segusino",
      "adresse": "Viale Italia  Snc 31040",
      "brand": "Pompe Bianche",
      "lat": 45.9171411,
      "lng": 11.9538288,
      "fuels": {
        "sp95": 1.644,
        "gazole": 1.574
      }
    },
    {
      "id": "8853",
      "cp": "",
      "ville": "Sernaglia Della Battaglia",
      "adresse": "Piana Della Sernaglia 9 31020",
      "brand": "Bioil",
      "lat": 45.87022352698072,
      "lng": 12.159339294903589,
      "fuels": {
        "sp95": 1.859,
        "gazole": 2.019,
        "gplc": 0.765
      }
    },
    {
      "id": "40131",
      "cp": "",
      "ville": "Sernaglia Della Battaglia",
      "adresse": "Pieve Di Soligo 19 31020",
      "brand": "Retitalia",
      "lat": 45.86729991100938,
      "lng": 12.18082845211029,
      "fuels": {
        "sp95": 1.909,
        "gazole": 2.039
      }
    },
    {
      "id": "13993",
      "cp": "",
      "ville": "Sernaglia Della Battaglia",
      "adresse": "Via Castello 89 31020",
      "brand": "Tamoil",
      "lat": 45.87764811203762,
      "lng": 12.141770296295135,
      "fuels": {
        "sp95": 1.929
      }
    },
    {
      "id": "20215",
      "cp": "",
      "ville": "Sernaglia Della Battaglia",
      "adresse": "Via g. Marconi 18 31020",
      "brand": "Energyca",
      "lat": 45.868764185045585,
      "lng": 12.12782158220898,
      "fuels": {
        "sp95": 1.938,
        "gazole": 2.098
      }
    },
    {
      "id": "13667",
      "cp": "",
      "ville": "Silea",
      "adresse": "Via s. Elena 60 31057",
      "brand": "Energyca",
      "lat": 45.627024282942344,
      "lng": 12.335528880357742,
      "fuels": {
        "sp95": 1.938,
        "gazole": 2.108
      }
    },
    {
      "id": "54022",
      "cp": "",
      "ville": "Silea",
      "adresse": "Via Trevisomare  31057",
      "brand": "Pompe Bianche",
      "lat": 45.66,
      "lng": 12.2101,
      "fuels": {
        "sp95": 1.899,
        "gazole": 2.099,
        "gplc": 0.763
      }
    },
    {
      "id": "8893",
      "cp": "",
      "ville": "Spresiano",
      "adresse": "Via Dante Alighieri 95 31027, Spresiano (tv)  31027",
      "brand": "Esso",
      "lat": 45.77402788537925,
      "lng": 12.25606052513126,
      "fuels": {
        "sp95": 1.949,
        "gazole": 2.089
      }
    },
    {
      "id": "21119",
      "cp": "",
      "ville": "Susegana",
      "adresse": "Barriera 26 31058",
      "brand": "Pompe Bianche",
      "lat": 45.86955472293424,
      "lng": 12.248807722615084,
      "fuels": {
        "e85": 1.259,
        "gplc": 0.739
      }
    },
    {
      "id": "6484",
      "cp": "",
      "ville": "Susegana",
      "adresse": "Iv Novembre 32 31058",
      "brand": "q8",
      "lat": 45.82383437002293,
      "lng": 12.254606195770293,
      "fuels": {
        "sp95": 1.919,
        "gazole": 2.039
      }
    },
    {
      "id": "9880",
      "cp": "",
      "ville": "Susegana",
      "adresse": "Via Conegliano 13 31025",
      "brand": "q8",
      "lat": 45.85352396370935,
      "lng": 12.254239825725563,
      "fuels": {
        "sp95": 1.919,
        "gazole": 2.039
      }
    },
    {
      "id": "12269",
      "cp": "",
      "ville": "Susegana",
      "adresse": "Xviii Giugno 1918 2 31058",
      "brand": "Pompe Bianche",
      "lat": 45.83205924577309,
      "lng": 12.226496078538958,
      "fuels": {
        "sp95": 1.909,
        "gazole": 2.098
      }
    },
    {
      "id": "21052",
      "cp": "",
      "ville": "Tarzo",
      "adresse": "Madonna Di Loreto 59 Y 31020",
      "brand": "Agip Eni",
      "lat": 45.94016007696524,
      "lng": 12.243305146694183,
      "fuels": {
        "sp95": 1.889,
        "gazole": 1.974
      }
    },
    {
      "id": "35140",
      "cp": "",
      "ville": "Tarzo",
      "adresse": "Via Xxv Aprile  31020",
      "brand": "Api-Ip",
      "lat": 45.96999260445759,
      "lng": 12.23324753344059,
      "fuels": {
        "sp95": 1.929,
        "gazole": 2.049
      }
    },
    {
      "id": "41942",
      "cp": "",
      "ville": "Trevignano",
      "adresse": "Feltrina 12 31040",
      "brand": "Agip Eni",
      "lat": 45.74979323798933,
      "lng": 12.107089161872864,
      "fuels": {
        "sp95": 1.959,
        "gazole": 2.089
      }
    },
    {
      "id": "29721",
      "cp": "",
      "ville": "Trevignano",
      "adresse": "s.s.348 Km 10+775  31040",
      "brand": "q8",
      "lat": 45.735998205709556,
      "lng": 12.127395495772362,
      "fuels": {
        "sp95": 1.869,
        "gazole": 2.049
      }
    },
    {
      "id": "9663",
      "cp": "",
      "ville": "Trevignano",
      "adresse": "Via Montebelluna 38 31040",
      "brand": "Costa Carburanti",
      "lat": 45.742051523561486,
      "lng": 12.064913987033151,
      "fuels": {
        "sp95": 1.857,
        "gazole": 2.059,
        "gplc": 0.718
      }
    },
    {
      "id": "7666",
      "cp": "",
      "ville": "Trevignano",
      "adresse": "Via Postioma 14 31040",
      "brand": "Agip Eni",
      "lat": 45.71622937588399,
      "lng": 12.121892273426056,
      "fuels": {
        "sp95": 1.949,
        "gazole": 2.059
      }
    },
    {
      "id": "21084",
      "cp": "",
      "ville": "Trevignano",
      "adresse": "Via Roma 70 31040",
      "brand": "Galoil Carburanti",
      "lat": 45.72882766602296,
      "lng": 12.070610823278798,
      "fuels": {
        "sp95": 1.858,
        "gazole": 2.068,
        "gplc": 0.718
      }
    },
    {
      "id": "7566",
      "cp": "",
      "ville": "Trevignano",
      "adresse": "Via Treviso 105 31036",
      "brand": "Retitalia",
      "lat": 45.73341410104087,
      "lng": 12.132854461669922,
      "fuels": {
        "sp95": 1.895,
        "gazole": 2.085
      }
    },
    {
      "id": "9662",
      "cp": "",
      "ville": "Trevignano",
      "adresse": "Via Treviso 19 31040",
      "brand": "Costa Carburanti",
      "lat": 45.74850224710768,
      "lng": 12.10930125396726,
      "fuels": {
        "sp95": 1.859,
        "gazole": 2.039
      }
    },
    {
      "id": "21113",
      "cp": "",
      "ville": "Treviso",
      "adresse": "bibano, 17 31100",
      "brand": "Pompe Bianche",
      "lat": 45.678778842619984,
      "lng": 12.26578615650078,
      "fuels": {
        "e85": 1.299
      }
    },
    {
      "id": "61923",
      "cp": "",
      "ville": "Treviso",
      "adresse": "Carlo Cattaneo 40 31100",
      "brand": "Pompe Bianche",
      "lat": 45.665626397121045,
      "lng": 12.222942822237135,
      "fuels": {
        "sp95": 1.898,
        "gazole": 2.028,
        "gplc": 0.739
      }
    },
    {
      "id": "52452",
      "cp": "",
      "ville": "Treviso",
      "adresse": "Cattaneo 40 31100",
      "brand": "Tamoil",
      "lat": 45.66543825109333,
      "lng": 12.222650364418012,
      "fuels": {
        "sp95": 1.929,
        "gazole": 2.079
      }
    },
    {
      "id": "55300",
      "cp": "",
      "ville": "Treviso",
      "adresse": "Europa 22 31100",
      "brand": "Tamoil",
      "lat": 45.6766187,
      "lng": 12.2221716,
      "fuels": {
        "sp95": 1.949,
        "gazole": 2.099,
        "gplc": 0.749
      }
    },
    {
      "id": "55658",
      "cp": "",
      "ville": "Treviso",
      "adresse": "Livenza 1 31100",
      "brand": "Api-Ip",
      "lat": 45.655565,
      "lng": 12.273435,
      "fuels": {
        "sp95": 1.929,
        "gazole": 2.009,
        "gplc": 0.739
      }
    },
    {
      "id": "57798",
      "cp": "",
      "ville": "Treviso",
      "adresse": "Noalese 90/C 31100",
      "brand": "Beyfin",
      "lat": 45.65300069825069,
      "lng": 12.193726617344595,
      "fuels": {
        "sp95": 1.909,
        "gazole": 2.029,
        "gplc": 0.704
      }
    },
    {
      "id": "59235",
      "cp": "",
      "ville": "Treviso",
      "adresse": "s. Angelo 193/C 31100",
      "brand": "Pompe Bianche",
      "lat": 45.644364,
      "lng": 12.204074,
      "fuels": {
        "sp95": 1.928,
        "gazole": 2.059
      }
    },
    {
      "id": "32859",
      "cp": "",
      "ville": "Treviso",
      "adresse": "Statale 515 noalese, km. 4, dir. Treviso - 31100",
      "brand": "Agip Eni",
      "lat": 45.650109597194216,
      "lng": 12.185864100296271,
      "fuels": {
        "sp95": 1.944,
        "gazole": 2.059,
        "gplc": 0.706
      }
    },
    {
      "id": "58076",
      "cp": "",
      "ville": "Treviso",
      "adresse": "str. Terraglio 74  31100",
      "brand": "Esso",
      "lat": 45.653957551497044,
      "lng": 12.242816984653473,
      "fuels": {
        "sp95": 1.949,
        "gazole": 2.089
      }
    },
    {
      "id": "61193",
      "cp": "",
      "ville": "Treviso",
      "adresse": "Terraglio 62 31100",
      "brand": "Agip Eni",
      "lat": 45.65615495704506,
      "lng": 12.244362714325195,
      "fuels": {
        "sp95": 1.889,
        "gazole": 1.974
      }
    },
    {
      "id": "7962",
      "cp": "",
      "ville": "Treviso",
      "adresse": "v.le Della Repubblica 216 31100",
      "brand": "Tamoil",
      "lat": 45.685383009600535,
      "lng": 12.245086133480072,
      "fuels": {
        "sp95": 1.949,
        "gazole": 2.099
      }
    },
    {
      "id": "6490",
      "cp": "",
      "ville": "Treviso",
      "adresse": "v.le Felissent 104 31100",
      "brand": "q8",
      "lat": 45.697623812998906,
      "lng": 12.259260053967296,
      "fuels": {
        "sp95": 1.889,
        "gazole": 2.049
      }
    },
    {
      "id": "58590",
      "cp": "",
      "ville": "Treviso",
      "adresse": "Via  Iv Novembre  32",
      "brand": "Agip Eni",
      "lat": 45.665493,
      "lng": 12.258606,
      "fuels": {
        "sp95": 1.929,
        "gazole": 2.029
      }
    },
    {
      "id": "31527",
      "cp": "",
      "ville": "Treviso",
      "adresse": "Via Adige 2 31100",
      "brand": "Vega",
      "lat": 45.65192425301891,
      "lng": 12.22016841173172,
      "fuels": {
        "sp95": 1.899,
        "gazole": 2.099,
        "gplc": 0.739
      }
    },
    {
      "id": "31528",
      "cp": "",
      "ville": "Treviso",
      "adresse": "Via Adige 3 31100",
      "brand": "Vega",
      "lat": 45.65246703557353,
      "lng": 12.220197916030884,
      "fuels": {
        "sp95": 1.899,
        "gazole": 2.099,
        "e85": 1.599
      }
    },
    {
      "id": "62296",
      "cp": "",
      "ville": "Treviso",
      "adresse": "Via Brigata Treviso 23",
      "brand": "q8",
      "lat": 45.6809721,
      "lng": 12.2521944,
      "fuels": {
        "sp95": 1.919,
        "gazole": 2.069
      }
    },
    {
      "id": "30832",
      "cp": "",
      "ville": "Treviso",
      "adresse": "Via Iv Novembre  78 31100",
      "brand": "q8",
      "lat": 45.66420367247441,
      "lng": 12.261784768717234,
      "fuels": {
        "sp95": 1.919,
        "gazole": 2.039
      }
    },
    {
      "id": "55945",
      "cp": "",
      "ville": "Treviso",
      "adresse": "Via livenza, 4  31100",
      "brand": "Agip Eni",
      "lat": 45.65470560677336,
      "lng": 12.272071838378906,
      "fuels": {
        "sp95": 1.929,
        "gazole": 2.169,
        "e85": 1.399,
        "gplc": 0.739
      }
    },
    {
      "id": "31027",
      "cp": "",
      "ville": "Treviso",
      "adresse": "Via Monte Grappa  31100",
      "brand": "Api-Ip",
      "lat": 45.6667971554742,
      "lng": 12.231498174541798,
      "fuels": {
        "sp95": 1.929,
        "gazole": 2.049
      }
    },
    {
      "id": "5551",
      "cp": "",
      "ville": "Treviso",
      "adresse": "Via Postumia 2 31100",
      "brand": "Api-Ip",
      "lat": 45.662896118084696,
      "lng": 12.266703341104517,
      "fuels": {
        "sp95": 1.929,
        "gazole": 2.029
      }
    },
    {
      "id": "45567",
      "cp": "",
      "ville": "Treviso",
      "adresse": "Via San Pelaio 102 31100, Treviso (tv) 102 31100",
      "brand": "Gnp",
      "lat": 45.69294021803041,
      "lng": 12.232214266993083,
      "fuels": {
        "sp95": 1.897,
        "gazole": 2.047
      }
    },
    {
      "id": "10751",
      "cp": "",
      "ville": "Treviso",
      "adresse": "Via Sant'Antonino 126 31100",
      "brand": "Agip Eni",
      "lat": 45.655554259422665,
      "lng": 12.25378791527487,
      "fuels": {
        "sp95": 1.944,
        "gazole": 2.049
      }
    },
    {
      "id": "44885",
      "cp": "",
      "ville": "Treviso",
      "adresse": "Via Terraglio  120 31100",
      "brand": "Agip Eni",
      "lat": 45.65115846683292,
      "lng": 12.241787671249313,
      "fuels": {
        "sp95": 1.924,
        "gazole": 2.019
      }
    },
    {
      "id": "53812",
      "cp": "",
      "ville": "Treviso",
      "adresse": "Viale Brigata Treviso 3  31100",
      "brand": "Esso",
      "lat": 45.4433,
      "lng": 12.3315,
      "fuels": {
        "sp95": 1.939,
        "gazole": 2.069
      }
    },
    {
      "id": "25638",
      "cp": "",
      "ville": "Treviso",
      "adresse": "Viale Della Repubblica 121 31100",
      "brand": "Pompe Bianche",
      "lat": 45.67582318954371,
      "lng": 12.235030478872886,
      "fuels": {
        "sp95": 1.899,
        "gazole": 2.059,
        "gplc": 0.739
      }
    },
    {
      "id": "11899",
      "cp": "",
      "ville": "Treviso",
      "adresse": "Viale Della Repubblica 124 31100",
      "brand": "q8",
      "lat": 45.67631713069044,
      "lng": 12.23659346990587,
      "fuels": {
        "sp95": 1.899,
        "gazole": 2.059
      }
    },
    {
      "id": "12813",
      "cp": "",
      "ville": "Treviso",
      "adresse": "Viale Della Repubblica 278 31100",
      "brand": "Costantin",
      "lat": 45.6897685482898,
      "lng": 12.248933931877104,
      "fuels": {
        "sp95": 1.929,
        "gazole": 2.129
      }
    },
    {
      "id": "57352",
      "cp": "",
      "ville": "Treviso",
      "adresse": "Viale g. g. Felissent 118",
      "brand": "Agip Eni",
      "lat": 45.70092,
      "lng": 12.259352,
      "fuels": {
        "sp95": 1.929,
        "gazole": 2.029
      }
    },
    {
      "id": "39896",
      "cp": "",
      "ville": "Treviso",
      "adresse": "Viale Monte Grappa 30/E 31100",
      "brand": "Agip Eni",
      "lat": 45.666633630440906,
      "lng": 12.230623247887479,
      "fuels": {
        "sp95": 1.924,
        "gazole": 2.029
      }
    },
    {
      "id": "14636",
      "cp": "",
      "ville": "Treviso",
      "adresse": "Viale Xxiv Maggio 4/6 31100",
      "brand": "Agip Eni",
      "lat": 45.668441548529735,
      "lng": 12.225027182664462,
      "fuels": {
        "sp95": 1.944,
        "gazole": 2.059
      }
    },
    {
      "id": "7282",
      "cp": "",
      "ville": "Valdobbiadene",
      "adresse": "s.p. 2 Erizzo-fraz. Bigolino Sn 31049",
      "brand": "q8",
      "lat": 45.872161112537306,
      "lng": 12.006018034393264,
      "fuels": {
        "sp95": 1.979,
        "gazole": 2.099,
        "gplc": 0.719
      }
    },
    {
      "id": "12995",
      "cp": "",
      "ville": "Valdobbiadene",
      "adresse": "Via Erizzo  31049",
      "brand": "Tamoil",
      "lat": 45.889730733726864,
      "lng": 12.003242745995522,
      "fuels": {
        "sp95": 1.979,
        "gazole": 2.079
      }
    },
    {
      "id": "25860",
      "cp": "",
      "ville": "Valdobbiadene",
      "adresse": "Via Erizzo 449 31030",
      "brand": "Beyfin",
      "lat": 45.861017792480894,
      "lng": 12.024589776992798,
      "fuels": {
        "sp95": 1.939,
        "gazole": 2.059
      }
    },
    {
      "id": "16909",
      "cp": "",
      "ville": "Valdobbiadene",
      "adresse": "Via Garibaldi 196 31049",
      "brand": "Energyca",
      "lat": 45.89707153668175,
      "lng": 11.981125196155515,
      "fuels": {
        "sp95": 1.928,
        "gazole": 2.098
      }
    },
    {
      "id": "25300",
      "cp": "",
      "ville": "Vazzola",
      "adresse": "Via Cesare Battisti 8 - 31028 - -",
      "brand": "Energyca",
      "lat": 45.83735212142606,
      "lng": 12.374245364418016,
      "fuels": {
        "sp95": 1.918,
        "gazole": 2.088
      }
    },
    {
      "id": "43950",
      "cp": "",
      "ville": "Vazzola",
      "adresse": "Via Piave  14 31028",
      "brand": "Costantin",
      "lat": 45.81181293786906,
      "lng": 12.348444119071473,
      "fuels": {
        "sp95": 1.878,
        "gazole": 2.058
      }
    },
    {
      "id": "52518",
      "cp": "",
      "ville": "Vazzola",
      "adresse": "Via Piave 87 31028",
      "brand": "Pompe Bianche",
      "lat": 45.80614897342587,
      "lng": 12.34557757328238,
      "fuels": {
        "sp95": 1.889,
        "gazole": 2.099,
        "e85": 1.599,
        "gplc": 0.759
      }
    },
    {
      "id": "56123",
      "cp": "",
      "ville": "Vedelago",
      "adresse": "Corriva 56 31050",
      "brand": "Pompe Bianche",
      "lat": 45.6635933,
      "lng": 12.038223,
      "fuels": {
        "sp95": 1.889,
        "gazole": 2.099
      }
    },
    {
      "id": "38021",
      "cp": "",
      "ville": "Vedelago",
      "adresse": "Crispi 74 31050",
      "brand": "Loro",
      "lat": 45.67896342714306,
      "lng": 12.016038581723478,
      "fuels": {
        "sp95": 1.859,
        "gazole": 2.059
      }
    },
    {
      "id": "38123",
      "cp": "",
      "ville": "Vedelago",
      "adresse": "Via Brenta 80 31050",
      "brand": "Pompe Bianche",
      "lat": 45.66678259779239,
      "lng": 12.0069220662117,
      "fuels": {
        "sp95": 1.89,
        "gazole": 2.1
      }
    },
    {
      "id": "47962",
      "cp": "",
      "ville": "Vedelago",
      "adresse": "Via Nazionale 99 31050",
      "brand": "Agip Eni",
      "lat": 45.6868403787904,
      "lng": 12.033767309192678,
      "fuels": {
        "sp95": 1.921,
        "gazole": 2.129,
        "e85": 1.558,
        "gplc": 0.766
      }
    },
    {
      "id": "17310",
      "cp": "",
      "ville": "Vedelago",
      "adresse": "Via Postumia Ovest 17 31050",
      "brand": "Api-Ip",
      "lat": 45.70011689221231,
      "lng": 12.012388408184052,
      "fuels": {
        "sp95": 1.899,
        "gazole": 1.999
      }
    },
    {
      "id": "50866",
      "cp": "",
      "ville": "Vedelago",
      "adresse": "Via Trieste 40 31050",
      "brand": "Bc",
      "lat": 45.68865455392574,
      "lng": 12.057521343231196,
      "fuels": {
        "sp95": 1.869,
        "gazole": 2.049
      }
    },
    {
      "id": "45345",
      "cp": "",
      "ville": "Vedelago",
      "adresse": "Via Vicenza 21 31050",
      "brand": "Agip Eni",
      "lat": 45.68482288549191,
      "lng": 12.000432148570326,
      "fuels": {
        "sp95": 1.884,
        "gazole": 1.969
      }
    },
    {
      "id": "34036",
      "cp": "",
      "ville": "Vidor",
      "adresse": "Via Via Marconi 181 31020, Vidor (tv) 181 31020",
      "brand": "Costantin",
      "lat": 45.85838157982523,
      "lng": 12.058479038761902,
      "fuels": {
        "sp95": 1.899,
        "gazole": 2.099
      }
    },
    {
      "id": "42118",
      "cp": "",
      "ville": "Villorba",
      "adresse": "Piave 219/B 31020",
      "brand": "Tamoil",
      "lat": 45.71929733438696,
      "lng": 12.285195203596459,
      "fuels": {
        "sp95": 1.949,
        "gazole": 2.099
      }
    },
    {
      "id": "54880",
      "cp": "",
      "ville": "Villorba",
      "adresse": "Roma 251 31020",
      "brand": "Agip Eni",
      "lat": 45.7353037,
      "lng": 12.2366667,
      "fuels": {
        "sp95": 1.939,
        "gazole": 2.059
      }
    },
    {
      "id": "4353",
      "cp": "",
      "ville": "Villorba",
      "adresse": "Via Cave 2 31050",
      "brand": "Pompe Bianche",
      "lat": 45.702982393387536,
      "lng": 12.259179800748825,
      "fuels": {
        "gplc": 0.739
      }
    },
    {
      "id": "14136",
      "cp": "",
      "ville": "Villorba",
      "adresse": "Via Centa 46 31020",
      "brand": "Api-Ip",
      "lat": 45.74122857829003,
      "lng": 12.233779951930046,
      "fuels": {
        "sp95": 1.929,
        "gazole": 2.109
      }
    },
    {
      "id": "31162",
      "cp": "",
      "ville": "Villorba",
      "adresse": "Via Liviana Scattolon 4 31020",
      "brand": "Agip Eni",
      "lat": 45.73653755203557,
      "lng": 12.280418872833252,
      "fuels": {
        "sp95": 1.949,
        "gazole": 2.064,
        "e85": 1.323,
        "gplc": 0.719
      }
    },
    {
      "id": "6320",
      "cp": "",
      "ville": "Villorba",
      "adresse": "Via Postioma 134 31020",
      "brand": "Agip Eni",
      "lat": 45.73198240055204,
      "lng": 12.23261839140173,
      "fuels": {
        "sp95": 1.919,
        "gazole": 2.139,
        "gplc": 0.769
      }
    },
    {
      "id": "34170",
      "cp": "",
      "ville": "Villorba",
      "adresse": "Via Postioma 45/A 31020",
      "brand": "Sia Fuel",
      "lat": 45.735427028339394,
      "lng": 12.259364873170853,
      "fuels": {
        "sp95": 1.899,
        "gazole": 2.099
      }
    },
    {
      "id": "62637",
      "cp": "",
      "ville": "Villorba",
      "adresse": "Via Roma 130  31020",
      "brand": "q8",
      "lat": 45.7676568,
      "lng": 12.2405909,
      "fuels": {
        "sp95": 1.899,
        "gazole": 2.089
      }
    },
    {
      "id": "43207",
      "cp": "",
      "ville": "Villorba",
      "adresse": "Via Roma 177 31020",
      "brand": "Sia Fuel",
      "lat": 45.73515115094308,
      "lng": 12.250231084655752,
      "fuels": {
        "sp95": 1.899,
        "gazole": 2.099
      }
    },
    {
      "id": "14603",
      "cp": "",
      "ville": "Vittorio Veneto",
      "adresse": "Via Della Vallata 52 31029",
      "brand": "Pompe Bianche",
      "lat": 46.00674880065835,
      "lng": 12.277603959151861,
      "fuels": {
        "sp95": 1.898,
        "gazole": 2.038
      }
    },
    {
      "id": "56574",
      "cp": "",
      "ville": "Vittorio Veneto",
      "adresse": "Via g. Matteotti 122 31029",
      "brand": "Esso",
      "lat": 45.97300157503617,
      "lng": 12.31018066406242,
      "fuels": {
        "sp95": 1.959,
        "gazole": 2.099
      }
    },
    {
      "id": "12847",
      "cp": "",
      "ville": "Vittorio Veneto",
      "adresse": "Via Grazioli 13/A 31029",
      "brand": "Esso",
      "lat": 45.96753276743481,
      "lng": 12.289713414022913,
      "fuels": {
        "sp95": 1.939,
        "gazole": 2.129
      }
    },
    {
      "id": "30678",
      "cp": "",
      "ville": "Vittorio Veneto",
      "adresse": "Via Negrisiola 9 31020",
      "brand": "Api-Ip",
      "lat": 46.02702979694428,
      "lng": 12.299313411045091,
      "fuels": {
        "sp95": 1.929,
        "gazole": 2.049
      }
    },
    {
      "id": "61270",
      "cp": "",
      "ville": "Vittorio Veneto",
      "adresse": "Via s. Antonio Da Padova  100",
      "brand": "Agip Eni",
      "lat": 45.96709,
      "lng": 12.318058,
      "fuels": {
        "sp95": 1.899,
        "gazole": 2.039,
        "e85": 1.332
      }
    },
    {
      "id": "18685",
      "cp": "",
      "ville": "Vittorio Veneto",
      "adresse": "Via Sant'Antonio Da Padova 249 31029",
      "brand": "Api-Ip",
      "lat": 45.96880229188155,
      "lng": 12.314809560775757,
      "fuels": {
        "sp95": 1.929,
        "gazole": 2.049
      }
    },
    {
      "id": "58264",
      "cp": "",
      "ville": "Vittorio Veneto",
      "adresse": "Viale Del Cansiglio 14 31029",
      "brand": "Agip Eni",
      "lat": 45.9806048307599,
      "lng": 12.314450740814209,
      "fuels": {
        "sp95": 1.899,
        "gazole": 2.129,
        "gplc": 0.769
      }
    },
    {
      "id": "21089",
      "cp": "",
      "ville": "Volpago Del Montello",
      "adresse": "Via Jacopo Gasparini 75 31040",
      "brand": "Galoil Carburanti",
      "lat": 45.7774804549838,
      "lng": 12.105018496513367,
      "fuels": {
        "sp95": 1.858,
        "gazole": 2.068,
        "gplc": 0.718
      }
    },
    {
      "id": "38263",
      "cp": "",
      "ville": "Volpago Del Montello",
      "adresse": "Via Via Schiavonesca Nuova  s.s. 248 - loc. Selve Sn 31040, Volpago Del Montello (tv) 248 31040",
      "brand": "Api-Ip",
      "lat": 45.784443132867125,
      "lng": 12.139384970068932,
      "fuels": {
        "sp95": 1.939,
        "gazole": 2.039
      }
    },
    {
      "id": "52604",
      "cp": "",
      "ville": "Zero Branco",
      "adresse": "j.f. Kennedy 30/1 31059",
      "brand": "Agip Eni",
      "lat": 45.6050123,
      "lng": 12.1783819,
      "fuels": {
        "sp95": 1.944,
        "gazole": 2.059
      }
    },
    {
      "id": "35591",
      "cp": "",
      "ville": "Zero Branco",
      "adresse": "Via Noalese 98/B 31059",
      "brand": "Vega",
      "lat": 45.59449949196664,
      "lng": 12.148503849212602,
      "fuels": {
        "sp95": 1.899,
        "gazole": 2.099
      }
    }
  ]
}