{
  "code": "VA",
  "name": "Varese",
  "regionCode": "LOM",
  "regionName": "Lombardia",
  "asOf": "2026-07-02T18:25:15.857Z",
  "source": "https://www.mimit.gov.it/it/open-data/elenco-dataset/2032336-dataset-prezzi-carburanti",
  "stationCount": 241,
  "fuels": {
    "gazole": {
      "count": 236,
      "mean": 1.8908,
      "median": 1.889,
      "min": 1.733,
      "max": 2.199
    },
    "sp95": {
      "count": 236,
      "mean": 1.8066,
      "median": 1.799,
      "min": 1.658,
      "max": 2.172
    },
    "e85": {
      "count": 10,
      "mean": 1.633,
      "median": 1.6785,
      "min": 1.399,
      "max": 1.769
    },
    "gplc": {
      "count": 23,
      "mean": 0.7742,
      "median": 0.759,
      "min": 0.738,
      "max": 0.879
    }
  },
  "stations": [
    {
      "id": "49086",
      "cp": "",
      "ville": "Albizzate",
      "adresse": "Via  Carabelli  4 21041",
      "brand": "Tamoil",
      "lat": 45.726971747716206,
      "lng": 8.799760626750434,
      "fuels": {
        "sp95": 1.919,
        "gazole": 2.029
      }
    },
    {
      "id": "14404",
      "cp": "",
      "ville": "Angera",
      "adresse": "Via Europa 6 21021",
      "brand": "Sommese Petroli",
      "lat": 45.77627912522749,
      "lng": 8.588541429430393,
      "fuels": {
        "sp95": 1.799,
        "gazole": 1.899
      }
    },
    {
      "id": "48419",
      "cp": "",
      "ville": "Angera",
      "adresse": "Via Matteotti 65 21021",
      "brand": "Sommese Petroli",
      "lat": 45.774526323007045,
      "lng": 8.58459336441804,
      "fuels": {
        "sp95": 1.799,
        "gazole": 1.899
      }
    },
    {
      "id": "32673",
      "cp": "",
      "ville": "Angera",
      "adresse": "Via Milano 24 21021",
      "brand": "Api-Ip",
      "lat": 45.770246773540116,
      "lng": 8.594232944774603,
      "fuels": {
        "sp95": 1.799,
        "gazole": 1.899
      }
    },
    {
      "id": "19572",
      "cp": "",
      "ville": "Arcisate",
      "adresse": "Statale 344 Di Porto ceresio, km. ix4, dir. Porto Ceresio - 21051",
      "brand": "Agip Eni",
      "lat": 45.85941334106329,
      "lng": 8.856808661376931,
      "fuels": {
        "sp95": 1.814,
        "gazole": 1.889
      }
    },
    {
      "id": "57469",
      "cp": "",
      "ville": "Arsago Seprio",
      "adresse": "Autostrada Diramazione a8/a26,  km. 6,100, dir. Nord 21010",
      "brand": "Api-Ip",
      "lat": 45.703604521,
      "lng": 8.735458,
      "fuels": {
        "sp95": 1.909,
        "gazole": 1.999,
        "gplc": 0.839
      }
    },
    {
      "id": "58183",
      "cp": "",
      "ville": "Arsago Seprio",
      "adresse": "Autostrada Diramazione a8/a26, dir. Sud Est 21010",
      "brand": "Api-Ip",
      "lat": 45.70285458265985,
      "lng": 8.734866392065435,
      "fuels": {
        "sp95": 1.829,
        "gazole": 1.929,
        "gplc": 0.849
      }
    },
    {
      "id": "53689",
      "cp": "",
      "ville": "Azzate",
      "adresse": "Piave 29 21022",
      "brand": "Keropetrol",
      "lat": 45.77636,
      "lng": 8.7929,
      "fuels": {
        "sp95": 1.799,
        "gazole": 1.899
      }
    },
    {
      "id": "61664",
      "cp": "",
      "ville": "Barasso",
      "adresse": "Roma 4 21020",
      "brand": "Api-Ip",
      "lat": 45.84015006126245,
      "lng": 8.761440854401604,
      "fuels": {
        "sp95": 1.849,
        "gazole": 1.969
      }
    },
    {
      "id": "6197",
      "cp": "",
      "ville": "Bardello Con Malgesso E Bregano",
      "adresse": "Marconi 12 21020",
      "brand": "Api-Ip",
      "lat": 45.83857388436031,
      "lng": 8.69967520236969,
      "fuels": {
        "sp95": 1.799,
        "gazole": 1.879
      }
    },
    {
      "id": "52293",
      "cp": "",
      "ville": "Besnate",
      "adresse": "Via Gallarate Snc - Sp 26  21010",
      "brand": "Sommese Petroli",
      "lat": 45.7033552419156,
      "lng": 8.774057002877965,
      "fuels": {
        "sp95": 1.779,
        "gazole": 1.869
      }
    },
    {
      "id": "22847",
      "cp": "",
      "ville": "Besozzo",
      "adresse": "str.prov.vergiate/Luino  21023",
      "brand": "q8",
      "lat": 45.85984725164984,
      "lng": 8.670587686508156,
      "fuels": {
        "sp95": 1.799,
        "gazole": 1.879
      }
    },
    {
      "id": "11918",
      "cp": "",
      "ville": "Besozzo",
      "adresse": "Via Roncari 65 21023",
      "brand": "q8",
      "lat": 45.84387857837213,
      "lng": 8.670674093254092,
      "fuels": {
        "sp95": 1.799,
        "gazole": 1.889
      }
    },
    {
      "id": "12159",
      "cp": "",
      "ville": "Bodio Lomnago",
      "adresse": "Risorgimento 8 21020",
      "brand": "Api-Ip",
      "lat": 45.790718867136135,
      "lng": 8.75347651104505,
      "fuels": {
        "sp95": 1.839,
        "gazole": 1.939
      }
    },
    {
      "id": "59471",
      "cp": "",
      "ville": "Brebbia",
      "adresse": "Provinciale 69 21020",
      "brand": "q8",
      "lat": 45.839440182562036,
      "lng": 8.628607392311096,
      "fuels": {
        "sp95": 1.799,
        "gazole": 1.889
      }
    },
    {
      "id": "52166",
      "cp": "",
      "ville": "Brebbia",
      "adresse": "Via Piave 7 21020, Brebbia (va) 7 21020",
      "brand": "q8",
      "lat": 45.830835899231936,
      "lng": 8.652394722719196,
      "fuels": {
        "sp95": 1.799,
        "gazole": 1.889
      }
    },
    {
      "id": "35587",
      "cp": "",
      "ville": "Brebbia",
      "adresse": "Via Via Roma 61 21020, Brebbia (va) 61 21020",
      "brand": "Api-Ip",
      "lat": 45.824638766904705,
      "lng": 8.643822181718853,
      "fuels": {
        "sp95": 1.799,
        "gazole": 1.949
      }
    },
    {
      "id": "9138",
      "cp": "",
      "ville": "Brinzio",
      "adresse": "Via Marconi 6 21030",
      "brand": "Sommese Petroli",
      "lat": 45.889724060121715,
      "lng": 8.788100797679704,
      "fuels": {
        "sp95": 1.859,
        "gazole": 1.959
      }
    },
    {
      "id": "52100",
      "cp": "",
      "ville": "Buguggiate",
      "adresse": "Via Provinciale  1 21020",
      "brand": "Pompe Bianche",
      "lat": 45.788675021920895,
      "lng": 8.809844116624667,
      "fuels": {
        "sp95": 1.779,
        "gazole": 1.889
      }
    },
    {
      "id": "41668",
      "cp": "",
      "ville": "Buguggiate",
      "adresse": "Xxv Aprile 22 21020",
      "brand": "Retitalia",
      "lat": 45.78008061814939,
      "lng": 8.809195798147584,
      "fuels": {
        "sp95": 1.839,
        "gazole": 1.939
      }
    },
    {
      "id": "52914",
      "cp": "",
      "ville": "Busto Arsizio",
      "adresse": "Boccaccio 67 21052",
      "brand": "Agip Eni",
      "lat": 45.596735923611206,
      "lng": 8.86073774180295,
      "fuels": {
        "sp95": 1.809,
        "gazole": 1.859
      }
    },
    {
      "id": "9059",
      "cp": "",
      "ville": "Busto Arsizio",
      "adresse": "Corso Italia  21052",
      "brand": "Esso",
      "lat": 45.615347715796815,
      "lng": 8.83901059627533,
      "fuels": {
        "sp95": 1.796,
        "gazole": 1.896
      }
    },
    {
      "id": "11922",
      "cp": "",
      "ville": "Busto Arsizio",
      "adresse": "Corso Italia 23 21052",
      "brand": "q8",
      "lat": 45.62081875947187,
      "lng": 8.846762449073822,
      "fuels": {
        "sp95": 1.797,
        "gazole": 1.869
      }
    },
    {
      "id": "48733",
      "cp": "",
      "ville": "Busto Arsizio",
      "adresse": "Corso Xx Settembre 91 21052",
      "brand": "Tamoil",
      "lat": 45.61425777724803,
      "lng": 8.876524726736776,
      "fuels": {
        "sp95": 1.799,
        "gazole": 1.869
      }
    },
    {
      "id": "9058",
      "cp": "",
      "ville": "Busto Arsizio",
      "adresse": "Statale 33 Del sempione, km. 144, dir. Nord  21052",
      "brand": "Esso",
      "lat": 45.62873718186091,
      "lng": 8.841612339019775,
      "fuels": {
        "sp95": 1.796,
        "gazole": 1.896
      }
    },
    {
      "id": "24961",
      "cp": "",
      "ville": "Busto Arsizio",
      "adresse": "Statale 336 Dell'Aeroporto Della malpensa, km. km. 1,850, dir. Busto Arsizio - 21052",
      "brand": "Api-Ip",
      "lat": 45.63975625942259,
      "lng": 8.8329019239427,
      "fuels": {
        "sp95": 1.769,
        "gazole": 1.849,
        "gplc": 0.739
      }
    },
    {
      "id": "12887",
      "cp": "",
      "ville": "Busto Arsizio",
      "adresse": "Toscana 103 21052",
      "brand": "Pompe Bianche",
      "lat": 45.580976311450684,
      "lng": 8.859471538577509,
      "fuels": {
        "sp95": 1.797,
        "gazole": 1.867
      }
    },
    {
      "id": "6459",
      "cp": "",
      "ville": "Busto Arsizio",
      "adresse": "v.le Rimembranze 53 21052",
      "brand": "q8",
      "lat": 45.60909492679454,
      "lng": 8.833518582942133,
      "fuels": {
        "sp95": 1.797,
        "gazole": 1.869
      }
    },
    {
      "id": "50978",
      "cp": "",
      "ville": "Busto Arsizio",
      "adresse": "Via Giovanni Amendola 160 21052",
      "brand": "Sommese Petroli",
      "lat": 45.60333064015385,
      "lng": 8.819097709966561,
      "fuels": {
        "sp95": 1.797,
        "gazole": 1.759
      }
    },
    {
      "id": "39853",
      "cp": "",
      "ville": "Busto Arsizio",
      "adresse": "Via Per Cassano 80 21052",
      "brand": "Sommese Petroli",
      "lat": 45.636349970305154,
      "lng": 8.846336471163909,
      "fuels": {
        "sp95": 1.787,
        "gazole": 1.869
      }
    },
    {
      "id": "56090",
      "cp": "",
      "ville": "Busto Arsizio",
      "adresse": "Via Per Cassano Magnago  21052",
      "brand": "Tamoil",
      "lat": 45.6309533,
      "lng": 8.84793832,
      "fuels": {
        "sp95": 1.789,
        "gazole": 1.869
      }
    },
    {
      "id": "10021",
      "cp": "",
      "ville": "Busto Arsizio",
      "adresse": "Via Per Fagnano 24 21052",
      "brand": "Esso",
      "lat": 45.62548446746924,
      "lng": 8.857867866754532,
      "fuels": {
        "sp95": 1.796,
        "gazole": 1.876
      }
    },
    {
      "id": "46044",
      "cp": "",
      "ville": "Busto Arsizio",
      "adresse": "Via Per Fagnano 32 21052",
      "brand": "Agip Eni",
      "lat": 45.626435000123,
      "lng": 8.857783000123,
      "fuels": {
        "sp95": 1.829,
        "gazole": 1.889
      }
    },
    {
      "id": "47231",
      "cp": "",
      "ville": "Busto Arsizio",
      "adresse": "Via Via  Toscana 140 21052, Busto Arsizio (va) 140 21052",
      "brand": "Keropetrol",
      "lat": 45.58010593089396,
      "lng": 8.865001201629639,
      "fuels": {
        "sp95": 1.849,
        "gazole": 1.949,
        "gplc": 0.739
      }
    },
    {
      "id": "22418",
      "cp": "",
      "ville": "Busto Arsizio",
      "adresse": "Via Viale Boccaccio 42 21052, Busto Arsizio (va) 42 21052",
      "brand": "Api-Ip",
      "lat": 45.59867244590827,
      "lng": 8.860757946968079,
      "fuels": {
        "sp95": 1.809,
        "gazole": 1.889
      }
    },
    {
      "id": "49792",
      "cp": "",
      "ville": "Busto Arsizio",
      "adresse": "Via Xx settembre, 60  21052",
      "brand": "Agip Eni",
      "lat": 45.61297865138692,
      "lng": 8.867198119656962,
      "fuels": {
        "sp95": 1.809,
        "gazole": 1.859
      }
    },
    {
      "id": "38949",
      "cp": "",
      "ville": "Busto Arsizio",
      "adresse": "Viale Armando Diaz 28 21052",
      "brand": "Agip Eni",
      "lat": 45.62159883144696,
      "lng": 8.852900235581956,
      "fuels": {
        "sp95": 1.879,
        "gazole": 1.989
      }
    },
    {
      "id": "22654",
      "cp": "",
      "ville": "Busto Arsizio",
      "adresse": "Viale Boccaccio 101 21052",
      "brand": "Pompe Bianche",
      "lat": 45.58908169614077,
      "lng": 8.858603230094104,
      "fuels": {
        "sp95": 1.788,
        "gazole": 1.888
      }
    },
    {
      "id": "11920",
      "cp": "",
      "ville": "Busto Arsizio",
      "adresse": "Viale Boccaccio 24 21052",
      "brand": "q8",
      "lat": 45.60159704228577,
      "lng": 8.861526822090127,
      "fuels": {
        "sp95": 1.787,
        "gazole": 1.859
      }
    },
    {
      "id": "29759",
      "cp": "",
      "ville": "Busto Arsizio",
      "adresse": "Viale Borri 14 21052",
      "brand": "Api-Ip",
      "lat": 45.606515011405214,
      "lng": 8.862762449073784,
      "fuels": {
        "sp95": 1.779,
        "gazole": 1.859
      }
    },
    {
      "id": "23156",
      "cp": "",
      "ville": "Busto Arsizio",
      "adresse": "Viale Malpensa 19 21052",
      "brand": "q8",
      "lat": 45.63720059681254,
      "lng": 8.849781362951717,
      "fuels": {
        "sp95": 1.787,
        "gazole": 1.877
      }
    },
    {
      "id": "14390",
      "cp": "",
      "ville": "Busto Arsizio",
      "adresse": "Viale Pirandello 2 21052",
      "brand": "Agip Eni",
      "lat": 45.60283165537623,
      "lng": 8.847196151520507,
      "fuels": {
        "sp95": 1.809,
        "gazole": 1.859
      }
    },
    {
      "id": "51600",
      "cp": "",
      "ville": "Busto Arsizio",
      "adresse": "Viale Repubblica 60 21052",
      "brand": "Agip Eni",
      "lat": 45.62782019660626,
      "lng": 8.830307327567697,
      "fuels": {
        "sp95": 1.809,
        "gazole": 1.859
      }
    },
    {
      "id": "31608",
      "cp": "",
      "ville": "Cadrezzate",
      "adresse": "Via Enrico Fermi 523 21020",
      "brand": "Retitalia",
      "lat": 45.80270947489053,
      "lng": 8.629799066053806,
      "fuels": {
        "sp95": 1.658,
        "gazole": 1.733
      }
    },
    {
      "id": "4382",
      "cp": "",
      "ville": "Cadrezzate Con Osmate",
      "adresse": "Rimembranze 84 21062",
      "brand": "Pompe Bianche",
      "lat": 45.79889365964391,
      "lng": 8.645334110450676,
      "fuels": {
        "sp95": 1.808,
        "gazole": 1.918
      }
    },
    {
      "id": "36260",
      "cp": "",
      "ville": "Cairate",
      "adresse": "s.p. 12 Via Como  21050",
      "brand": "Api-Ip",
      "lat": 45.68073092003936,
      "lng": 8.844366107969336,
      "fuels": {
        "sp95": 1.788,
        "gazole": 1.818
      }
    },
    {
      "id": "11925",
      "cp": "",
      "ville": "Cairate",
      "adresse": "Strada Provinciale 12 21050",
      "brand": "q8",
      "lat": 45.688237473809096,
      "lng": 8.886607288360665,
      "fuels": {
        "sp95": 1.788,
        "gazole": 1.818
      }
    },
    {
      "id": "47651",
      "cp": "",
      "ville": "Cairate",
      "adresse": "Via Monte Rosa 85 21050",
      "brand": "Pompe Bianche",
      "lat": 45.68314771128692,
      "lng": 8.85530563558198,
      "fuels": {
        "sp95": 1.819,
        "gazole": 1.879,
        "gplc": 0.799
      }
    },
    {
      "id": "53591",
      "cp": "",
      "ville": "Cairate",
      "adresse": "Via Via Dante s.p. 2 km. 10+900 Snc 21050, Cairate (va) 66 21050",
      "brand": "Api-Ip",
      "lat": 45.68680058751433,
      "lng": 8.873248518454716,
      "fuels": {
        "sp95": 1.788,
        "gazole": 1.818
      }
    },
    {
      "id": "59752",
      "cp": "",
      "ville": "Caravate",
      "adresse": "Via Xxv Aprile 27 21032",
      "brand": "Api-Ip",
      "lat": 45.87531101052833,
      "lng": 8.647574283571231,
      "fuels": {
        "sp95": 1.819,
        "gazole": 1.929
      }
    },
    {
      "id": "4720",
      "cp": "",
      "ville": "Cardano Al Campo",
      "adresse": "Statale 336 Dell'Aeroporto Della malpensa, km. 8+500, dir. Est - 21010",
      "brand": "Agip Eni",
      "lat": 45.645930147828054,
      "lng": 8.749292875674428,
      "fuels": {
        "sp95": 1.829,
        "gazole": 1.909,
        "e85": 1.699,
        "gplc": 0.759
      }
    },
    {
      "id": "41177",
      "cp": "",
      "ville": "Cardano Al Campo",
      "adresse": "Via Gramsci 94 21010",
      "brand": "Sommese Petroli",
      "lat": 45.65280249852187,
      "lng": 8.766267714120886,
      "fuels": {
        "sp95": 1.799,
        "gazole": 1.889
      }
    },
    {
      "id": "60037",
      "cp": "",
      "ville": "Caronno Pertusella",
      "adresse": "Corso Della Vittoria 919",
      "brand": "Moro",
      "lat": 45.60432,
      "lng": 9.041115099999999,
      "fuels": {
        "sp95": 1.799,
        "gazole": 1.899
      }
    },
    {
      "id": "39660",
      "cp": "",
      "ville": "Caronno Pertusella",
      "adresse": "Via Lampedusa 49 21042",
      "brand": "Pompe Bianche",
      "lat": 45.59071153491578,
      "lng": 9.05009038746357,
      "fuels": {
        "sp95": 1.799,
        "gazole": 1.889,
        "gplc": 0.759
      }
    },
    {
      "id": "30797",
      "cp": "",
      "ville": "Caronno Pertusella",
      "adresse": "Viale 5 Giornate  21042",
      "brand": "q8",
      "lat": 45.58166503439931,
      "lng": 9.060047826983691,
      "fuels": {
        "sp95": 1.799,
        "gazole": 1.869
      }
    },
    {
      "id": "47237",
      "cp": "",
      "ville": "Caronno Pertusella",
      "adresse": "Viale Cinque Giornate 76",
      "brand": "Tamoil",
      "lat": 45.59654674650503,
      "lng": 9.045335691793225,
      "fuels": {
        "sp95": 1.799,
        "gazole": 1.899
      }
    },
    {
      "id": "8319",
      "cp": "",
      "ville": "Caronno Varesino",
      "adresse": "Milano 27 21040",
      "brand": "Esso",
      "lat": 45.73282738197626,
      "lng": 8.832143964279112,
      "fuels": {
        "sp95": 1.82,
        "gazole": 1.892
      }
    },
    {
      "id": "4185",
      "cp": "",
      "ville": "Casorate Sempione",
      "adresse": "Via roma, ang. Medaglie D'Oro  21011",
      "brand": "Pompe Bianche",
      "lat": 45.66520207437205,
      "lng": 8.749526739120483,
      "fuels": {
        "sp95": 1.775,
        "gazole": 1.868,
        "e85": 1.678,
        "gplc": 0.749
      }
    },
    {
      "id": "51114",
      "cp": "",
      "ville": "Casorate Sempione",
      "adresse": "Via Sempione 45 21011",
      "brand": "Sommese Petroli",
      "lat": 45.67217626416979,
      "lng": 8.749025819588473,
      "fuels": {
        "sp95": 1.779,
        "gazole": 1.889
      }
    },
    {
      "id": "58277",
      "cp": "",
      "ville": "Cassano Magnago",
      "adresse": "Marconi 125 21012",
      "brand": "Api-Ip",
      "lat": 45.6905,
      "lng": 8.8213,
      "fuels": {
        "sp95": 1.799,
        "gazole": 1.909,
        "e85": 1.679
      }
    },
    {
      "id": "45389",
      "cp": "",
      "ville": "Cassano Magnago",
      "adresse": "Via Bonicalza 127 21012",
      "brand": "Agip Eni",
      "lat": 45.660386000123,
      "lng": 8.843454000123,
      "fuels": {
        "sp95": 1.814,
        "gazole": 1.884
      }
    },
    {
      "id": "25391",
      "cp": "",
      "ville": "Cassano Magnago",
      "adresse": "Via Iv Novembre 16, 21012 - -",
      "brand": "Agip Eni",
      "lat": 45.67164085351821,
      "lng": 8.822863698005676,
      "fuels": {
        "sp95": 1.789,
        "gazole": 1.824
      }
    },
    {
      "id": "21271",
      "cp": "",
      "ville": "Cassano Magnago",
      "adresse": "Via Venegoni 14/16, 21012  21012",
      "brand": "Sommese Petroli",
      "lat": 45.668641186223084,
      "lng": 8.816861055819686,
      "fuels": {
        "sp95": 1.787,
        "gazole": 1.869
      }
    },
    {
      "id": "15625",
      "cp": "",
      "ville": "Castellanza",
      "adresse": "Statale 527 bustese, km. 20, dir. Milano - 21053",
      "brand": "Sommese Petroli",
      "lat": 45.60463645835393,
      "lng": 8.875574233729594,
      "fuels": {
        "sp95": 1.789,
        "gazole": 1.869
      }
    },
    {
      "id": "10479",
      "cp": "",
      "ville": "Castellanza",
      "adresse": "Via Don Minzoni 32 21053",
      "brand": "Sommese Petroli",
      "lat": 45.609014872721055,
      "lng": 8.889191312828075,
      "fuels": {
        "sp95": 1.779,
        "gazole": 1.869
      }
    },
    {
      "id": "39454",
      "cp": "",
      "ville": "Castellanza",
      "adresse": "Via Don Minzoni 52 21053",
      "brand": "Agip Eni",
      "lat": 45.60381865060999,
      "lng": 8.892793580889702,
      "fuels": {
        "sp95": 1.799,
        "gazole": 1.859
      }
    },
    {
      "id": "5552",
      "cp": "",
      "ville": "Castellanza",
      "adresse": "Via Milano Km 27+576  21053",
      "brand": "Api-Ip",
      "lat": 45.60705975281448,
      "lng": 8.910448635581929,
      "fuels": {
        "sp95": 1.729,
        "gazole": 1.809
      }
    },
    {
      "id": "6460",
      "cp": "",
      "ville": "Castellanza",
      "adresse": "Viale Lombardia 27 21053",
      "brand": "q8",
      "lat": 45.61509008291705,
      "lng": 8.904368128241686,
      "fuels": {
        "sp95": 1.749,
        "gazole": 1.819
      }
    },
    {
      "id": "25132",
      "cp": "",
      "ville": "Castellanza",
      "adresse": "Viale Lombardia 72 21053",
      "brand": "Agip Eni",
      "lat": 45.61004458384013,
      "lng": 8.910047560930252,
      "fuels": {
        "sp95": 1.789,
        "gazole": 1.849
      }
    },
    {
      "id": "18798",
      "cp": "",
      "ville": "Castelseprio",
      "adresse": "Via San Rocco 311 21050",
      "brand": "Pompe Bianche",
      "lat": 45.71264320534582,
      "lng": 8.862280830688405,
      "fuels": {
        "sp95": 1.799,
        "gazole": 1.879
      }
    },
    {
      "id": "56089",
      "cp": "",
      "ville": "Castiglione Olona",
      "adresse": "Via Cesare Battisti",
      "brand": "Tamoil",
      "lat": 45.7620762,
      "lng": 8.8761907,
      "fuels": {
        "sp95": 1.819,
        "gazole": 1.919
      }
    },
    {
      "id": "60260",
      "cp": "",
      "ville": "Castronno",
      "adresse": "Autostrada a8 Milano-varese, dir. Sud",
      "brand": "Tamoil",
      "lat": 45.7622072,
      "lng": 8.8093467,
      "fuels": {
        "sp95": 1.859,
        "gazole": 1.929,
        "gplc": 0.879
      }
    },
    {
      "id": "4707",
      "cp": "",
      "ville": "Castronno",
      "adresse": "Autostrada a8 Milano-varese, km. 40+700, dir. Nord - 21040",
      "brand": "Tamoil",
      "lat": 45.76279939130242,
      "lng": 8.811317025795006,
      "fuels": {
        "sp95": 1.859,
        "gazole": 1.929
      }
    },
    {
      "id": "33723",
      "cp": "",
      "ville": "Cavaria Con Premezzo",
      "adresse": "Via Ronchetti 30 21044",
      "brand": "Tamoil",
      "lat": 45.69239708563681,
      "lng": 8.801982700824738,
      "fuels": {
        "sp95": 1.789,
        "gazole": 1.879
      }
    },
    {
      "id": "39354",
      "cp": "",
      "ville": "Cislago",
      "adresse": "Cesare Battisti 1426 21040",
      "brand": "q8",
      "lat": 45.657027747353034,
      "lng": 8.97963968220904,
      "fuels": {
        "sp95": 1.797,
        "gazole": 1.897
      }
    },
    {
      "id": "56002",
      "cp": "",
      "ville": "Cislago",
      "adresse": "Sp Ex Ss 233 Varesina Km 27+500  Snc 21040",
      "brand": "Pompe Bianche",
      "lat": 45.65379365777557,
      "lng": 8.985026583099351,
      "fuels": {
        "sp95": 1.786,
        "gazole": 1.875,
        "gplc": 0.738
      }
    },
    {
      "id": "38341",
      "cp": "",
      "ville": "Cislago",
      "adresse": "Via Battisti 909 21040",
      "brand": "Esso",
      "lat": 45.66038923719945,
      "lng": 8.975055488954922,
      "fuels": {
        "sp95": 1.799,
        "gazole": 1.879
      }
    },
    {
      "id": "58951",
      "cp": "",
      "ville": "Cislago",
      "adresse": "Via Cavour  100 21040",
      "brand": "Pompe Bianche",
      "lat": 45.6596,
      "lng": 8.96952,
      "fuels": {
        "sp95": 1.819,
        "gazole": 1.879,
        "gplc": 0.799
      }
    },
    {
      "id": "54584",
      "cp": "",
      "ville": "Cislago",
      "adresse": "Via s.s.233 Km 26 + 795 Snc 21040, Cislago (va)  21040",
      "brand": "Sommese Petroli",
      "lat": 45.65367819997178,
      "lng": 8.984498977661133,
      "fuels": {
        "sp95": 1.787,
        "gazole": 1.877
      }
    },
    {
      "id": "60179",
      "cp": "",
      "ville": "Cittiglio",
      "adresse": "Via Provinciale 20 21033",
      "brand": "Api-Ip",
      "lat": 45.8989748,
      "lng": 8.6473988,
      "fuels": {
        "sp95": 1.799,
        "gazole": 1.879
      }
    },
    {
      "id": "11926",
      "cp": "",
      "ville": "Cittiglio",
      "adresse": "Via Provinciale 34 21033",
      "brand": "q8",
      "lat": 45.89338526430814,
      "lng": 8.669715233135207,
      "fuels": {
        "sp95": 1.799,
        "gazole": 1.889
      }
    },
    {
      "id": "24793",
      "cp": "",
      "ville": "Cocquio-Trevisago",
      "adresse": "Statale 394 Del Verbano orientale, km. 11, dir. Varese - 21034",
      "brand": "Tamoil",
      "lat": 45.85270301946166,
      "lng": 8.703123465836143,
      "fuels": {
        "sp95": 1.799,
        "gazole": 1.869
      }
    },
    {
      "id": "39365",
      "cp": "",
      "ville": "Cocquio-Trevisago",
      "adresse": "Via Provinciale 54 21034",
      "brand": "Api-Ip",
      "lat": 45.86768259785588,
      "lng": 8.67008775472641,
      "fuels": {
        "sp95": 1.799,
        "gazole": 1.879
      }
    },
    {
      "id": "62244",
      "cp": "",
      "ville": "Comabbio",
      "adresse": "Bongiasca - s.s. 629 490 21020",
      "brand": "Shell",
      "lat": 45.776823,
      "lng": 8.679768,
      "fuels": {
        "sp95": 1.799,
        "gazole": 1.899,
        "gplc": 0.769
      }
    },
    {
      "id": "56243",
      "cp": "",
      "ville": "Comabbio",
      "adresse": "Bongiasca 1201 21020",
      "brand": "Tamoil",
      "lat": 45.78195088904725,
      "lng": 8.679580251677999,
      "fuels": {
        "sp95": 1.799,
        "gazole": 1.899
      }
    },
    {
      "id": "16459",
      "cp": "",
      "ville": "Comabbio",
      "adresse": "Via Bongiasca 583 21020",
      "brand": "q8",
      "lat": 45.77803118576185,
      "lng": 8.679239451885223,
      "fuels": {
        "sp95": 1.819,
        "gazole": 1.899
      }
    },
    {
      "id": "40393",
      "cp": "",
      "ville": "Comerio",
      "adresse": "Via Borghi 22 21025",
      "brand": "Oll",
      "lat": 45.841677289737085,
      "lng": 8.737411331080011,
      "fuels": {
        "sp95": 1.799,
        "gazole": 1.899
      }
    },
    {
      "id": "59713",
      "cp": "",
      "ville": "Crosio Della Valle",
      "adresse": "Via Risorgimento  12",
      "brand": "Agip Eni",
      "lat": 45.762325,
      "lng": 8.76634,
      "fuels": {
        "sp95": 1.809,
        "gazole": 1.889
      }
    },
    {
      "id": "6549",
      "cp": "",
      "ville": "Cunardo",
      "adresse": "Provinciale Snc 21035",
      "brand": "q8",
      "lat": 45.933827292163755,
      "lng": 8.805555499999969,
      "fuels": {
        "sp95": 1.829,
        "gazole": 1.819
      }
    },
    {
      "id": "51185",
      "cp": "",
      "ville": "Cuveglio",
      "adresse": "Via Battaglia San Martino 10 21030",
      "brand": "Sommese Petroli",
      "lat": 45.904149952975494,
      "lng": 8.73162366449833,
      "fuels": {
        "sp95": 1.829,
        "gazole": 1.919
      }
    },
    {
      "id": "43489",
      "cp": "",
      "ville": "Cuveglio",
      "adresse": "Via s.p. 54 - Km 4 + 750  Snc 21030",
      "brand": "q8",
      "lat": 45.90622912994087,
      "lng": 8.723364839286774,
      "fuels": {
        "sp95": 1.829,
        "gazole": 1.929
      }
    },
    {
      "id": "37928",
      "cp": "",
      "ville": "Daverio",
      "adresse": "Via Cesare Battisti 75 21020",
      "brand": "Api-Ip",
      "lat": 45.76553551633515,
      "lng": 8.769684880971909,
      "fuels": {
        "sp95": 1.808,
        "gazole": 1.898
      }
    },
    {
      "id": "62186",
      "cp": "",
      "ville": "Fagnano Olona",
      "adresse": "Via Armando Diaz  40 21054",
      "brand": "Sommese Petroli",
      "lat": 45.66555164101698,
      "lng": 8.867808510118474,
      "fuels": {
        "sp95": 1.789,
        "gazole": 1.869
      }
    },
    {
      "id": "51309",
      "cp": "",
      "ville": "Ferno",
      "adresse": "Via Oberdan 39 21010",
      "brand": "Api-Ip",
      "lat": 45.60962476560249,
      "lng": 8.771595820034214,
      "fuels": {
        "sp95": 2.172,
        "gazole": 2.199
      }
    },
    {
      "id": "43823",
      "cp": "",
      "ville": "Gallarate",
      "adresse": "33 Del sempione, km. 40+252, Nord  21013",
      "brand": "Sommese Petroli",
      "lat": 45.66498502191534,
      "lng": 8.778295516967773,
      "fuels": {
        "sp95": 1.775,
        "gazole": 1.869
      }
    },
    {
      "id": "53276",
      "cp": "",
      "ville": "Gallarate",
      "adresse": "Lombardia 12 21013",
      "brand": "Esso",
      "lat": 45.66186412745246,
      "lng": 8.802548982803273,
      "fuels": {
        "sp95": 1.789,
        "gazole": 1.879
      }
    },
    {
      "id": "61928",
      "cp": "",
      "ville": "Gallarate",
      "adresse": "Varese 12 21013",
      "brand": "Esso",
      "lat": 45.6737865,
      "lng": 8.7968486,
      "fuels": {
        "sp95": 1.799,
        "gazole": 1.899
      }
    },
    {
      "id": "28889",
      "cp": "",
      "ville": "Gallarate",
      "adresse": "Varese 14 21013",
      "brand": "Agip Eni",
      "lat": 45.67431099042725,
      "lng": 8.797299733729574,
      "fuels": {
        "sp95": 1.824,
        "gazole": 1.884,
        "e85": 1.61
      }
    },
    {
      "id": "49482",
      "cp": "",
      "ville": "Gallarate",
      "adresse": "Via Aleardi 70 21013",
      "brand": "Pompe Bianche",
      "lat": 45.64173781089698,
      "lng": 8.808332565641415,
      "fuels": {
        "e85": 1.769
      }
    },
    {
      "id": "40509",
      "cp": "",
      "ville": "Gallarate",
      "adresse": "Via Ambrosoli ang. Via Milano 15 21013",
      "brand": "Agip Eni",
      "lat": 45.65049049417369,
      "lng": 8.807483911514282,
      "fuels": {
        "sp95": 1.829,
        "gazole": 1.889
      }
    },
    {
      "id": "41799",
      "cp": "",
      "ville": "Gallarate",
      "adresse": "Via Assisi  21013",
      "brand": "Pompe Bianche",
      "lat": 45.67986173067121,
      "lng": 8.777800717782725,
      "fuels": {
        "sp95": 1.775,
        "gazole": 1.868,
        "gplc": 0.749
      }
    },
    {
      "id": "6458",
      "cp": "",
      "ville": "Gallarate",
      "adresse": "Via c. Noe' 79 21013",
      "brand": "q8",
      "lat": 45.655528206039214,
      "lng": 8.782875680950951,
      "fuels": {
        "sp95": 1.789,
        "gazole": 1.874
      }
    },
    {
      "id": "34446",
      "cp": "",
      "ville": "Gallarate",
      "adresse": "Via Cappuccini 20 21013",
      "brand": "Sommese Petroli",
      "lat": 45.64854362799238,
      "lng": 8.78462332431286,
      "fuels": {
        "sp95": 1.789,
        "gazole": 1.879
      }
    },
    {
      "id": "48492",
      "cp": "",
      "ville": "Gallarate",
      "adresse": "Via Carlo Noè 48 21013",
      "brand": "Agip Eni",
      "lat": 45.655678477844525,
      "lng": 8.782354151727843,
      "fuels": {
        "sp95": 1.824,
        "gazole": 1.884
      }
    },
    {
      "id": "24620",
      "cp": "",
      "ville": "Gallarate",
      "adresse": "Via Carlo Noe' 35  21013",
      "brand": "Api-Ip",
      "lat": 45.66112624437493,
      "lng": 8.783059766864653,
      "fuels": {
        "sp95": 1.789,
        "gazole": 1.889
      }
    },
    {
      "id": "28790",
      "cp": "",
      "ville": "Gallarate",
      "adresse": "Via Ercole Ferrario 1 21013",
      "brand": "Agip Eni",
      "lat": 45.65281493830711,
      "lng": 8.792808172521973,
      "fuels": {
        "sp95": 1.824,
        "gazole": 1.884
      }
    },
    {
      "id": "31851",
      "cp": "",
      "ville": "Gallarate",
      "adresse": "Via Ercole Ferrario 37 ss. 33 21013",
      "brand": "q8",
      "lat": 45.65343803154252,
      "lng": 8.785941079258919,
      "fuels": {
        "sp95": 1.789,
        "gazole": 1.874
      }
    },
    {
      "id": "42778",
      "cp": "",
      "ville": "Gallarate",
      "adresse": "Via Luigi Riva 21 21013",
      "brand": "Sommese Petroli",
      "lat": 45.66626589283417,
      "lng": 8.79571833372961,
      "fuels": {
        "sp95": 1.789,
        "gazole": 1.879
      }
    },
    {
      "id": "41800",
      "cp": "",
      "ville": "Gallarate",
      "adresse": "Via Monte San Martino 19 21013",
      "brand": "Pompe Bianche",
      "lat": 45.66904496299664,
      "lng": 8.774024695158005,
      "fuels": {
        "sp95": 1.775,
        "gazole": 1.868
      }
    },
    {
      "id": "4135",
      "cp": "",
      "ville": "Gallarate",
      "adresse": "Via Olona 181 21013",
      "brand": "Pompe Bianche",
      "lat": 45.64914025334275,
      "lng": 8.816686804893493,
      "fuels": {
        "sp95": 1.779,
        "gazole": 1.879,
        "gplc": 0.739
      }
    },
    {
      "id": "38380",
      "cp": "",
      "ville": "Gallarate",
      "adresse": "Via Sanzio 15 21013",
      "brand": "Api-Ip",
      "lat": 45.66804046676662,
      "lng": 8.795668647815774,
      "fuels": {
        "sp95": 1.779,
        "gazole": 1.879
      }
    },
    {
      "id": "61152",
      "cp": "",
      "ville": "Gallarate",
      "adresse": "Via Torino",
      "brand": "q8",
      "lat": 45.6449431,
      "lng": 8.7929323,
      "fuels": {
        "sp95": 1.829,
        "gazole": 1.889
      }
    },
    {
      "id": "10130",
      "cp": "",
      "ville": "Gallarate",
      "adresse": "Via Torino   21013",
      "brand": "Api-Ip",
      "lat": 45.650672587282344,
      "lng": 8.79481032023773,
      "fuels": {
        "sp95": 1.779,
        "gazole": 1.879
      }
    },
    {
      "id": "10817",
      "cp": "",
      "ville": "Gallarate",
      "adresse": "Via Torino s.n. 21013, Gallarate (va) 76 21013",
      "brand": "Agip Eni",
      "lat": 45.64576312759459,
      "lng": 8.793311690807286,
      "fuels": {
        "sp95": 1.829,
        "gazole": 1.889
      }
    },
    {
      "id": "17205",
      "cp": "",
      "ville": "Gallarate",
      "adresse": "via.c.noe 43 21013",
      "brand": "Pompe Bianche",
      "lat": 45.658904859555896,
      "lng": 8.782966448561638,
      "fuels": {
        "sp95": 1.789,
        "gazole": 1.879
      }
    },
    {
      "id": "34333",
      "cp": "",
      "ville": "Gallarate",
      "adresse": "Viale Milano 33 21013",
      "brand": "Sommese Petroli",
      "lat": 45.655140743708245,
      "lng": 8.801605022186209,
      "fuels": {
        "sp95": 1.775,
        "gazole": 1.869
      }
    },
    {
      "id": "54238",
      "cp": "",
      "ville": "Gavirate",
      "adresse": "Del Chiostro 6 21026",
      "brand": "Tam Service",
      "lat": 45.84102,
      "lng": 8.72151,
      "fuels": {
        "sp95": 1.779,
        "gazole": 1.889
      }
    },
    {
      "id": "10815",
      "cp": "",
      "ville": "Gavirate",
      "adresse": "Via Del Chiostro 41 21026",
      "brand": "Api-Ip",
      "lat": 45.834666778866215,
      "lng": 8.731673955917358,
      "fuels": {
        "sp95": 1.799,
        "gazole": 1.879
      }
    },
    {
      "id": "17091",
      "cp": "",
      "ville": "Gavirate",
      "adresse": "Via Rovera 34 21026",
      "brand": "Api-Ip",
      "lat": 45.82517157741122,
      "lng": 8.743231038345357,
      "fuels": {
        "sp95": 1.799,
        "gazole": 1.879
      }
    },
    {
      "id": "44426",
      "cp": "",
      "ville": "Gavirate",
      "adresse": "Via Verbano 60 21026",
      "brand": "Sommese Petroli",
      "lat": 45.850875000123,
      "lng": 8.706566000123,
      "fuels": {
        "sp95": 1.799,
        "gazole": 1.889
      }
    },
    {
      "id": "54473",
      "cp": "",
      "ville": "Gazzada Schianno",
      "adresse": "sp57 Km 3+300 21045",
      "brand": "Api-Ip",
      "lat": 45.7780186,
      "lng": 8.8395267,
      "fuels": {
        "sp95": 1.959,
        "gazole": 2.039
      }
    },
    {
      "id": "61077",
      "cp": "",
      "ville": "Gazzada Schianno",
      "adresse": "Via i. Cremona 1 21045",
      "brand": "Tamoil",
      "lat": 45.7787269,
      "lng": 8.82544197,
      "fuels": {
        "sp95": 1.919,
        "gazole": 1.999
      }
    },
    {
      "id": "31607",
      "cp": "",
      "ville": "Gemonio",
      "adresse": "Via Verdi 51 21036",
      "brand": "Retitalia",
      "lat": 45.88065505631293,
      "lng": 8.671992637417816,
      "fuels": {
        "sp95": 1.669,
        "gazole": 1.744
      }
    },
    {
      "id": "38725",
      "cp": "",
      "ville": "Gerenzano",
      "adresse": "Risorgimento 26 21040",
      "brand": "Api-Ip",
      "lat": 45.643181634759976,
      "lng": 8.995601311326027,
      "fuels": {
        "sp95": 1.799,
        "gazole": 1.899
      }
    },
    {
      "id": "45447",
      "cp": "",
      "ville": "Gerenzano",
      "adresse": "Via Carducci 25 21040",
      "brand": "Pompe Bianche",
      "lat": 45.63447167121218,
      "lng": 9.012491567736788,
      "fuels": {
        "sp95": 1.889,
        "gazole": 1.939,
        "e85": 1.399,
        "gplc": 0.759
      }
    },
    {
      "id": "13516",
      "cp": "",
      "ville": "Golasecca",
      "adresse": "Viale Europa 12 21010",
      "brand": "Pompe Bianche",
      "lat": 45.69505352604712,
      "lng": 8.674040836106883,
      "fuels": {
        "sp95": 1.799,
        "gazole": 1.899
      }
    },
    {
      "id": "15743",
      "cp": "",
      "ville": "Gorla Maggiore",
      "adresse": "Via Italia 7 21050",
      "brand": "Sommese Petroli",
      "lat": 45.659816637834766,
      "lng": 8.893490062565661,
      "fuels": {
        "sp95": 1.869,
        "gazole": 1.959
      }
    },
    {
      "id": "53349",
      "cp": "",
      "ville": "Gorla Minore",
      "adresse": "Monte Grappa 4 21055",
      "brand": "Agip Eni",
      "lat": 45.637194026179934,
      "lng": 8.900911886350288,
      "fuels": {
        "sp95": 1.828,
        "gazole": 1.889
      }
    },
    {
      "id": "37667",
      "cp": "",
      "ville": "Gorla Minore",
      "adresse": "sp19 km11 Direzione Gorla Minore  21055",
      "brand": "Api-Ip",
      "lat": 45.652237173918735,
      "lng": 8.90462078154087,
      "fuels": {
        "sp95": 1.779,
        "gazole": 1.859,
        "gplc": 0.799
      }
    },
    {
      "id": "19217",
      "cp": "",
      "ville": "Gorla Minore",
      "adresse": "Via Giuseppe Garibaldi 83 21055",
      "brand": "Sommese Petroli",
      "lat": 45.65115185264066,
      "lng": 8.896482135582005,
      "fuels": {
        "sp95": 1.849,
        "gazole": 1.939
      }
    },
    {
      "id": "59191",
      "cp": "",
      "ville": "Ispra",
      "adresse": "Via Mazzini  2",
      "brand": "Agip Eni",
      "lat": 45.814247,
      "lng": 8.61264,
      "fuels": {
        "sp95": 1.809,
        "gazole": 1.889
      }
    },
    {
      "id": "29438",
      "cp": "",
      "ville": "Jerago Con Orago",
      "adresse": "Via Milano 3 21040",
      "brand": "Keropetrol",
      "lat": 45.70695030184689,
      "lng": 8.795823352184243,
      "fuels": {
        "sp95": 1.799,
        "gazole": 1.899
      }
    },
    {
      "id": "12844",
      "cp": "",
      "ville": "Laveno-Mombello",
      "adresse": "Labiena 111 21014",
      "brand": "Esso",
      "lat": 45.90905365169379,
      "lng": 8.62151215707786,
      "fuels": {
        "sp95": 1.829,
        "gazole": 1.959
      }
    },
    {
      "id": "14100",
      "cp": "",
      "ville": "Laveno-Mombello",
      "adresse": "Via Labiena 171 21014",
      "brand": "q8",
      "lat": 45.908161290371055,
      "lng": 8.623205295700814,
      "fuels": {
        "sp95": 1.899,
        "gazole": 1.999
      }
    },
    {
      "id": "41933",
      "cp": "",
      "ville": "Laveno-Mombello",
      "adresse": "Via Sangiano  37 21014",
      "brand": "q8",
      "lat": 45.891092454902,
      "lng": 8.634225279092789,
      "fuels": {
        "sp95": 1.819,
        "gazole": 1.919
      }
    },
    {
      "id": "51215",
      "cp": "",
      "ville": "Lonate Ceppino",
      "adresse": "Via Piave 14 21050",
      "brand": "Agip Eni",
      "lat": 45.70529406718423,
      "lng": 8.879017829895014,
      "fuels": {
        "sp95": 1.83,
        "gazole": 1.889
      }
    },
    {
      "id": "46045",
      "cp": "",
      "ville": "Lonate Pozzolo",
      "adresse": "527 bustese, km. 45+579,5, Oleggio - 21015",
      "brand": "Agip Eni",
      "lat": 45.58627818227884,
      "lng": 8.728246092796326,
      "fuels": {
        "sp95": 1.829,
        "gazole": 1.889
      }
    },
    {
      "id": "10115",
      "cp": "",
      "ville": "Lonate Pozzolo",
      "adresse": "s.p. 527   21015",
      "brand": "Api-Ip",
      "lat": 45.593952940809004,
      "lng": 8.770669251680374,
      "fuels": {
        "sp95": 1.799,
        "gazole": 1.879
      }
    },
    {
      "id": "7787",
      "cp": "",
      "ville": "Lonate Pozzolo",
      "adresse": "Via Francesco Baracca 14 21015",
      "brand": "Pompe Bianche",
      "lat": 45.58509993464472,
      "lng": 8.76099399140162,
      "fuels": {
        "sp95": 1.849,
        "gazole": 1.939
      }
    },
    {
      "id": "20076",
      "cp": "",
      "ville": "Lonate Pozzolo",
      "adresse": "Via v. Veneto Sp 527 Km 45/255 s.n.c. 21015",
      "brand": "Api-Ip",
      "lat": 45.588204056116524,
      "lng": 8.731432557106018,
      "fuels": {
        "sp95": 1.849,
        "gazole": 1.919,
        "e85": 1.629,
        "gplc": 0.769
      }
    },
    {
      "id": "11917",
      "cp": "",
      "ville": "Luino",
      "adresse": "Via Dante Alighieri 47/A 21016",
      "brand": "q8",
      "lat": 45.99821614078769,
      "lng": 8.734885015869168,
      "fuels": {
        "sp95": 1.799,
        "gazole": 1.889
      }
    },
    {
      "id": "63312",
      "cp": "",
      "ville": "Luino",
      "adresse": "Via Dante Alighieri 8 21030",
      "brand": "Api-Ip",
      "lat": 45.997402904228615,
      "lng": 8.734102006596622,
      "fuels": {
        "sp95": 1.798,
        "gazole": 1.898
      }
    },
    {
      "id": "53740",
      "cp": "",
      "ville": "Malnate",
      "adresse": "j.f. Kennedy 20 21046",
      "brand": "Tamoil",
      "lat": 45.79418281754305,
      "lng": 8.886034037653875,
      "fuels": {
        "sp95": 1.779,
        "gazole": 1.889
      }
    },
    {
      "id": "42046",
      "cp": "",
      "ville": "Malnate",
      "adresse": "Via Kennedy 8 21046",
      "brand": "Agip Eni",
      "lat": 45.79533153989031,
      "lng": 8.884598091244698,
      "fuels": {
        "sp95": 1.819,
        "gazole": 1.889
      }
    },
    {
      "id": "8198",
      "cp": "",
      "ville": "Malnate",
      "adresse": "Viale John Fitzgerald Kennedy 45 21046",
      "brand": "Esso",
      "lat": 45.79046916337967,
      "lng": 8.890711516141891,
      "fuels": {
        "sp95": 1.789,
        "gazole": 1.899
      }
    },
    {
      "id": "8738",
      "cp": "",
      "ville": "Marchirolo",
      "adresse": "Statale 233 varesina, km. 67+169, dir. Ponte Tresa - 21030",
      "brand": "Pompe Bianche",
      "lat": 45.94358528506766,
      "lng": 8.830848634243011,
      "fuels": {
        "sp95": 1.859,
        "gazole": 1.929
      }
    },
    {
      "id": "41798",
      "cp": "",
      "ville": "Marnate",
      "adresse": "Via Diaz 71 21050",
      "brand": "Pompe Bianche",
      "lat": 45.631638269104215,
      "lng": 8.89830759814754,
      "fuels": {
        "sp95": 1.818,
        "gazole": 1.908
      }
    },
    {
      "id": "11928",
      "cp": "",
      "ville": "Marnate",
      "adresse": "Via Milano Sn 21050",
      "brand": "q8",
      "lat": 45.63074126354187,
      "lng": 8.910799999999995,
      "fuels": {
        "sp95": 1.749,
        "gazole": 1.819
      }
    },
    {
      "id": "61106",
      "cp": "",
      "ville": "Mesenzana",
      "adresse": "Provinciale 62 21030",
      "brand": "Agip Eni",
      "lat": 45.95636627902164,
      "lng": 8.762122898515692,
      "fuels": {
        "sp95": 1.839,
        "gazole": 1.899
      }
    },
    {
      "id": "52434",
      "cp": "",
      "ville": "Morazzone",
      "adresse": "Via Mameli 32 21040",
      "brand": "Api-Ip",
      "lat": 45.768620450207635,
      "lng": 8.82741748788142,
      "fuels": {
        "sp95": 1.799,
        "gazole": 1.899
      }
    },
    {
      "id": "60515",
      "cp": "",
      "ville": "Mornago",
      "adresse": "Stazione - s.p. 17 49 21020",
      "brand": "Retitalia",
      "lat": 45.7392498997583,
      "lng": 8.747262457694378,
      "fuels": {
        "sp95": 1.787,
        "gazole": 1.877
      }
    },
    {
      "id": "53131",
      "cp": "",
      "ville": "Olgiate Olona",
      "adresse": "De Gasperi ang. Via I Maggio Snc 21057",
      "brand": "Natural Gas",
      "lat": 45.63273178998558,
      "lng": 8.873365026855478,
      "fuels": {
        "e85": 1.699
      }
    },
    {
      "id": "34089",
      "cp": "",
      "ville": "Olgiate Olona",
      "adresse": "Via Alcide De Gasperi  126 21057",
      "brand": "Retitalia",
      "lat": 45.638899686699986,
      "lng": 8.88465194543835,
      "fuels": {
        "sp95": 1.779,
        "gazole": 1.879
      }
    },
    {
      "id": "29418",
      "cp": "",
      "ville": "Olgiate Olona",
      "adresse": "Via Alcide De Gasperi 15  21057",
      "brand": "Moro",
      "lat": 45.629405,
      "lng": 8.8860532,
      "fuels": {
        "sp95": 1.779,
        "gazole": 1.879
      }
    },
    {
      "id": "14944",
      "cp": "",
      "ville": "Olgiate Olona",
      "adresse": "Via Armando Diaz 1 21057",
      "brand": "Agip Eni",
      "lat": 45.633243514023064,
      "lng": 8.888167440891266,
      "fuels": {
        "sp95": 1.829,
        "gazole": 1.889
      }
    },
    {
      "id": "7166",
      "cp": "",
      "ville": "Olgiate Olona",
      "adresse": "Via Busto Fagnano 36 21057",
      "brand": "Agip Eni",
      "lat": 45.631588145862736,
      "lng": 8.858649730682373,
      "fuels": {
        "sp95": 1.829,
        "gazole": 1.889
      }
    },
    {
      "id": "27295",
      "cp": "",
      "ville": "Olgiate Olona",
      "adresse": "Via Per Fagnano 46 21057",
      "brand": "Api-Ip",
      "lat": 45.63571781676173,
      "lng": 8.85911206994058,
      "fuels": {
        "sp95": 1.769,
        "gazole": 1.849
      }
    },
    {
      "id": "44094",
      "cp": "",
      "ville": "Origgio",
      "adresse": "s.s. 233 Km 20+110 Snc 21040",
      "brand": "Agip Eni",
      "lat": 45.60036151957927,
      "lng": 9.027523822090188,
      "fuels": {
        "sp95": 1.829,
        "gazole": 1.889
      }
    },
    {
      "id": "48758",
      "cp": "",
      "ville": "Porto Valtravaglia",
      "adresse": "Viale Lucchini 2 21010",
      "brand": "Azzalini Energie",
      "lat": 45.96105705251101,
      "lng": 8.67946343759668,
      "fuels": {
        "sp95": 1.827,
        "gazole": 1.927
      }
    },
    {
      "id": "45200",
      "cp": "",
      "ville": "Samarate",
      "adresse": "Agusta 504 21017",
      "brand": "Pompe Bianche",
      "lat": 45.63173604591536,
      "lng": 8.748867898147637,
      "fuels": {
        "sp95": 1.789,
        "gazole": 1.869
      }
    },
    {
      "id": "60933",
      "cp": "",
      "ville": "Samarate",
      "adresse": "Giuseppe Verdi - s.p. 40 Snc 21017",
      "brand": "Retitalia",
      "lat": 45.62411250319755,
      "lng": 8.774081442447526,
      "fuels": {
        "sp95": 1.779,
        "gazole": 1.869
      }
    },
    {
      "id": "16269",
      "cp": "",
      "ville": "Samarate",
      "adresse": "Via Giuseppe Verdi 49 21017",
      "brand": "Esso",
      "lat": 45.628148718329875,
      "lng": 8.780278166570952,
      "fuels": {
        "sp95": 1.789,
        "gazole": 1.879
      }
    },
    {
      "id": "60505",
      "cp": "",
      "ville": "Saronno",
      "adresse": "Guglielmo Marconi 19 A 21047",
      "brand": "Esso",
      "lat": 45.62389771362292,
      "lng": 9.03899073600769,
      "fuels": {
        "sp95": 1.799,
        "gazole": 1.899
      }
    },
    {
      "id": "60705",
      "cp": "",
      "ville": "Saronno",
      "adresse": "Lombardia 20 21047",
      "brand": "Retitalia",
      "lat": 45.614043706876515,
      "lng": 9.038769855298778,
      "fuels": {
        "sp95": 1.759,
        "gazole": 1.829
      }
    },
    {
      "id": "45765",
      "cp": "",
      "ville": "Saronno",
      "adresse": "Lombardia 91 21047",
      "brand": "Sommese Petroli",
      "lat": 45.61677197919744,
      "lng": 9.052836298942566,
      "fuels": {
        "sp95": 1.778,
        "gazole": 1.835
      }
    },
    {
      "id": "19040",
      "cp": "",
      "ville": "Saronno",
      "adresse": "Roma Angolo Via Miola Snc 21047",
      "brand": "Agip Eni",
      "lat": 45.624051532607474,
      "lng": 9.045867919921875,
      "fuels": {
        "sp95": 1.829,
        "gazole": 1.889
      }
    },
    {
      "id": "60069",
      "cp": "",
      "ville": "Saronno",
      "adresse": "Varese 2 21047",
      "brand": "Esso",
      "lat": 45.61233862604745,
      "lng": 9.035006720252952,
      "fuels": {
        "sp95": 1.799,
        "gazole": 1.899
      }
    },
    {
      "id": "55210",
      "cp": "",
      "ville": "Saronno",
      "adresse": "Varese 35 21047",
      "brand": "Agip Eni",
      "lat": 45.62518533075032,
      "lng": 9.025793068709186,
      "fuels": {
        "sp95": 1.829,
        "gazole": 1.889
      }
    },
    {
      "id": "60684",
      "cp": "",
      "ville": "Saronno",
      "adresse": "Varese 71 21047",
      "brand": "Retitalia",
      "lat": 45.631745453132034,
      "lng": 9.017969219525636,
      "fuels": {
        "sp95": 1.787,
        "gazole": 1.887
      }
    },
    {
      "id": "45804",
      "cp": "",
      "ville": "Saronno",
      "adresse": "Via  a.volta 211 21047",
      "brand": "Api-Ip",
      "lat": 45.641669360615985,
      "lng": 9.036012020732983,
      "fuels": {
        "sp95": 1.809,
        "gazole": 1.909
      }
    },
    {
      "id": "57996",
      "cp": "",
      "ville": "Saronno",
      "adresse": "Via a. Parma 2h 21047",
      "brand": "Pompe Bianche",
      "lat": 45.6118018,
      "lng": 9.0287413,
      "fuels": {
        "sp95": 1.789,
        "gazole": 1.879,
        "gplc": 0.739
      }
    },
    {
      "id": "20637",
      "cp": "",
      "ville": "Saronno",
      "adresse": "Via Antonio Parma 3-5 21047",
      "brand": "q8",
      "lat": 45.61241187080537,
      "lng": 9.031153321266174,
      "fuels": {
        "sp95": 1.819,
        "gazole": 1.929,
        "gplc": 0.759
      }
    },
    {
      "id": "13898",
      "cp": "",
      "ville": "Saronno",
      "adresse": "Via Cristoforo Colombo 19 21047",
      "brand": "Agip Eni",
      "lat": 45.63058096614678,
      "lng": 9.037899439950593,
      "fuels": {
        "sp95": 1.829,
        "gazole": 1.889
      }
    },
    {
      "id": "33505",
      "cp": "",
      "ville": "Saronno",
      "adresse": "Via Grieg 81 21047",
      "brand": "Eco Fuel",
      "lat": 45.612057637837346,
      "lng": 9.043757021427155,
      "fuels": {
        "e85": 1.469
      }
    },
    {
      "id": "59410",
      "cp": "",
      "ville": "Saronno",
      "adresse": "Via Prealpi  Snc",
      "brand": "Agip Eni",
      "lat": 45.63674,
      "lng": 9.033452,
      "fuels": {
        "sp95": 1.829,
        "gazole": 1.889
      }
    },
    {
      "id": "11921",
      "cp": "",
      "ville": "Saronno",
      "adresse": "Via Varese Angolo Via Amendola S/N 21047",
      "brand": "q8",
      "lat": 45.61766623106788,
      "lng": 9.031083906745948,
      "fuels": {
        "sp95": 1.819,
        "gazole": 1.899
      }
    },
    {
      "id": "56475",
      "cp": "",
      "ville": "Saronno",
      "adresse": "Via Via Roma 100 21047, Saronno (va) 100 21047",
      "brand": "Tamoil",
      "lat": 45.62354759999999,
      "lng": 9.0508527,
      "fuels": {
        "sp95": 1.829,
        "gazole": 1.909
      }
    },
    {
      "id": "60573",
      "cp": "",
      "ville": "Saronno",
      "adresse": "Viale Europa 33 21047",
      "brand": "Api-Ip",
      "lat": 45.616268,
      "lng": 9.019633,
      "fuels": {
        "sp95": 1.796,
        "gazole": 1.896
      }
    },
    {
      "id": "45457",
      "cp": "",
      "ville": "Sesto Calende",
      "adresse": "33 Del sempione, km. 53+132,  21018",
      "brand": "Retitalia",
      "lat": 45.72263576477767,
      "lng": 8.660120915344237,
      "fuels": {
        "sp95": 1.789,
        "gazole": 1.889
      }
    },
    {
      "id": "7313",
      "cp": "",
      "ville": "Sesto Calende",
      "adresse": "Corso Giacomo Matteotti 8 21018",
      "brand": "Esso",
      "lat": 45.72578493837854,
      "lng": 8.634811576721177,
      "fuels": {
        "sp95": 1.849,
        "gazole": 1.939
      }
    },
    {
      "id": "41959",
      "cp": "",
      "ville": "Sesto Calende",
      "adresse": "Per Angera 1 21018",
      "brand": "Tamoil",
      "lat": 45.73021046385833,
      "lng": 8.619402715581941,
      "fuels": {
        "sp95": 1.779,
        "gazole": 1.869
      }
    },
    {
      "id": "13950",
      "cp": "",
      "ville": "Sesto Calende",
      "adresse": "Via s.s. n. 33 Km 54+154 Snc 21018, Sesto Calende (va) km54+154 21018",
      "brand": "Api-Ip",
      "lat": 45.72416478604611,
      "lng": 8.646971136331558,
      "fuels": {
        "sp95": 1.799,
        "gazole": 1.889
      }
    },
    {
      "id": "59865",
      "cp": "",
      "ville": "Sesto Calende",
      "adresse": "Via Sempione 87 21018",
      "brand": "Beyfin",
      "lat": 45.722674682713894,
      "lng": 8.670778274542377,
      "fuels": {
        "gplc": 0.769
      }
    },
    {
      "id": "57906",
      "cp": "",
      "ville": "Solbiate Arno",
      "adresse": "Per Carnago 3 21048",
      "brand": "Tamoil",
      "lat": 45.71815,
      "lng": 8.82139,
      "fuels": {
        "sp95": 1.789,
        "gazole": 1.919
      }
    },
    {
      "id": "62860",
      "cp": "",
      "ville": "Solbiate Arno",
      "adresse": "Per Caronno Varesino Snc 21048",
      "brand": "Api-Ip",
      "lat": 45.727104909956594,
      "lng": 8.817430816343407,
      "fuels": {
        "sp95": 1.799,
        "gazole": 1.919
      }
    },
    {
      "id": "26290",
      "cp": "",
      "ville": "Solbiate Arno",
      "adresse": "Via Del Lavoro 26 21048",
      "brand": "Esso",
      "lat": 45.71950060321544,
      "lng": 8.811409324407578,
      "fuels": {
        "sp95": 1.789,
        "gazole": 1.899
      }
    },
    {
      "id": "10096",
      "cp": "",
      "ville": "Solbiate Olona",
      "adresse": "Via Per Busto   21058",
      "brand": "Api-Ip",
      "lat": 45.64576541117171,
      "lng": 8.865092396736145,
      "fuels": {
        "sp95": 1.769,
        "gazole": 1.849
      }
    },
    {
      "id": "44186",
      "cp": "",
      "ville": "Somma Lombardo",
      "adresse": "Giusti 110 21019",
      "brand": "Agip Eni",
      "lat": 45.657395001234,
      "lng": 8.704129001234,
      "fuels": {
        "sp95": 1.829,
        "gazole": 1.889
      }
    },
    {
      "id": "27030",
      "cp": "",
      "ville": "Somma Lombardo",
      "adresse": "Statale 336 Dell'Aeroporto Della malpensa, km. 0+137, dir. Malpensa - 21019",
      "brand": "Api-Ip",
      "lat": 45.64600392493457,
      "lng": 8.70390236377716,
      "fuels": {
        "sp95": 1.775,
        "gazole": 1.868
      }
    },
    {
      "id": "61687",
      "cp": "",
      "ville": "Somma Lombardo",
      "adresse": "Via Milano   loc. Tre Piante  136",
      "brand": "Agip Eni",
      "lat": 45.680363,
      "lng": 8.721418,
      "fuels": {
        "sp95": 1.824,
        "gazole": 1.889
      }
    },
    {
      "id": "5978",
      "cp": "",
      "ville": "Somma Lombardo",
      "adresse": "Via Milano 98 21019",
      "brand": "Api-Ip",
      "lat": 45.6814719740126,
      "lng": 8.715226550926218,
      "fuels": {
        "sp95": 1.775,
        "gazole": 1.868
      }
    },
    {
      "id": "61561",
      "cp": "",
      "ville": "Somma Lombardo",
      "adresse": "Via Per Tornavento 5 21019",
      "brand": "Api-Ip",
      "lat": 45.63839342473976,
      "lng": 8.705004211615073,
      "fuels": {
        "sp95": 1.789,
        "gazole": 1.899
      }
    },
    {
      "id": "13597",
      "cp": "",
      "ville": "Somma Lombardo",
      "adresse": "Via Via Don Selva 16 21019, Somma Lombardo (va) 16 21019",
      "brand": "Sommese Petroli",
      "lat": 45.687531263373096,
      "lng": 8.720258474349976,
      "fuels": {
        "sp95": 1.779,
        "gazole": 1.879
      }
    },
    {
      "id": "49947",
      "cp": "",
      "ville": "Sumirago",
      "adresse": "Via Trento 57 21040, Sumirago (va) 57 21040",
      "brand": "Keropetrol",
      "lat": 45.74650688290466,
      "lng": 8.790675806007146,
      "fuels": {
        "sp95": 1.799,
        "gazole": 1.899
      }
    },
    {
      "id": "40586",
      "cp": "",
      "ville": "Ternate",
      "adresse": "Via Mazzini 21 21020",
      "brand": "Retitalia",
      "lat": 45.78730518729005,
      "lng": 8.699258831573957,
      "fuels": {
        "sp95": 1.799,
        "gazole": 1.899
      }
    },
    {
      "id": "58535",
      "cp": "",
      "ville": "Ternate",
      "adresse": "Volta 13 21020",
      "brand": "Sommese Petroli",
      "lat": 45.78550115287534,
      "lng": 8.698487051479335,
      "fuels": {
        "sp95": 1.799,
        "gazole": 1.899
      }
    },
    {
      "id": "40685",
      "cp": "",
      "ville": "Tradate",
      "adresse": "Bruno Passerini 1 21049",
      "brand": "Api-Ip",
      "lat": 45.70973598037379,
      "lng": 8.901737406849861,
      "fuels": {
        "sp95": 1.799,
        "gazole": 1.899
      }
    },
    {
      "id": "50347",
      "cp": "",
      "ville": "Tradate",
      "adresse": "Corso Europa (ex s.s.233 km35) Snc 21049",
      "brand": "Retitalia",
      "lat": 45.69939505149257,
      "lng": 8.912413684595808,
      "fuels": {
        "sp95": 1.819,
        "gazole": 1.919
      }
    },
    {
      "id": "54056",
      "cp": "",
      "ville": "Tradate",
      "adresse": "Fiume 45 21049",
      "brand": "Agip Eni",
      "lat": 45.69714277500755,
      "lng": 8.923001289367676,
      "fuels": {
        "sp95": 1.844,
        "gazole": 1.919
      }
    },
    {
      "id": "43530",
      "cp": "",
      "ville": "Tradate",
      "adresse": "Strada statale, km. 22, Varese - 21049",
      "brand": "Pompe Bianche",
      "lat": 45.70678771519606,
      "lng": 8.888719923008125,
      "fuels": {
        "gplc": 0.799
      }
    },
    {
      "id": "63102",
      "cp": "",
      "ville": "Tradate",
      "adresse": "Via Monte Grappa  21049",
      "brand": "Api-Ip",
      "lat": 45.7214417,
      "lng": 8.8945061,
      "fuels": {
        "sp95": 1.769,
        "gazole": 1.829
      }
    },
    {
      "id": "53825",
      "cp": "",
      "ville": "Tradate",
      "adresse": "Via Via Passerini 10 21049, Tradate (va) 8 21049",
      "brand": "Pompe Bianche",
      "lat": 45.7105306,
      "lng": 8.9004955,
      "fuels": {
        "sp95": 1.799,
        "gazole": 1.899
      }
    },
    {
      "id": "60816",
      "cp": "",
      "ville": "Travedona-Monate",
      "adresse": "Trieste 213 21028",
      "brand": "Sommese Petroli",
      "lat": 45.803962773081516,
      "lng": 8.676253496632436,
      "fuels": {
        "sp95": 1.829,
        "gazole": 1.919
      }
    },
    {
      "id": "47558",
      "cp": "",
      "ville": "Uboldo",
      "adresse": "527 bustese, km. 54,344, Castellanza - 21040",
      "brand": "Api-Ip",
      "lat": 45.6137107376401,
      "lng": 8.999279403993663,
      "fuels": {
        "sp95": 1.789,
        "gazole": 1.889
      }
    },
    {
      "id": "44438",
      "cp": "",
      "ville": "Uboldo",
      "adresse": "Iv Novembre 10 21040",
      "brand": "Tamoil",
      "lat": 45.619769000123,
      "lng": 9.0138290000123,
      "fuels": {
        "sp95": 1.779,
        "gazole": 1.849
      }
    },
    {
      "id": "23842",
      "cp": "",
      "ville": "Uboldo",
      "adresse": "Via Via Iv Novembre Ex s.s. 527 Snc 21040, Uboldo (va) Snc 21040",
      "brand": "Keropetrol",
      "lat": 45.61317586572184,
      "lng": 8.979483246803284,
      "fuels": {
        "sp95": 1.779,
        "gazole": 1.859,
        "e85": 1.699,
        "gplc": 0.739
      }
    },
    {
      "id": "8489",
      "cp": "",
      "ville": "Valganna",
      "adresse": "Statale 233 varesina, km. 65+275, dir. Varese - Svizzera - 21039",
      "brand": "Tamoil",
      "lat": 45.92923134592548,
      "lng": 8.82190816104412,
      "fuels": {
        "sp95": 1.799,
        "gazole": 1.819
      }
    },
    {
      "id": "56081",
      "cp": "",
      "ville": "Varese",
      "adresse": "Iv Novembre 3 21100",
      "brand": "Shell",
      "lat": 45.8231115102263,
      "lng": 8.83587096071323,
      "fuels": {
        "sp95": 1.799,
        "gazole": 1.889
      }
    },
    {
      "id": "59855",
      "cp": "",
      "ville": "Varese",
      "adresse": "Luigi Borri 1 21100",
      "brand": "Esso",
      "lat": 45.810832701429995,
      "lng": 8.835456503952006,
      "fuels": {
        "sp95": 1.779,
        "gazole": 1.889
      }
    },
    {
      "id": "29597",
      "cp": "",
      "ville": "Varese",
      "adresse": "Lungolago Capolago-s.p. n. 1 45 21100",
      "brand": "Api-Ip",
      "lat": 45.799046929143294,
      "lng": 8.801526725292206,
      "fuels": {
        "sp95": 1.799,
        "gazole": 1.889
      }
    },
    {
      "id": "59684",
      "cp": "",
      "ville": "Varese",
      "adresse": "Peschiera 112 21100",
      "brand": "Sommese Petroli",
      "lat": 45.8061304478687,
      "lng": 8.864205396424865,
      "fuels": {
        "sp95": 1.779,
        "gazole": 1.887
      }
    },
    {
      "id": "53624",
      "cp": "",
      "ville": "Varese",
      "adresse": "Sanvito Silvestro 49 21100",
      "brand": "Coil",
      "lat": 45.8238004342928,
      "lng": 8.81265351833802,
      "fuels": {
        "sp95": 1.795,
        "gazole": 1.879
      }
    },
    {
      "id": "57199",
      "cp": "",
      "ville": "Varese",
      "adresse": "Sanvito Silvestro 68 21100",
      "brand": "Api-Ip",
      "lat": 45.8239131,
      "lng": 8.8131516,
      "fuels": {
        "sp95": 1.819,
        "gazole": 1.919
      }
    },
    {
      "id": "61494",
      "cp": "",
      "ville": "Varese",
      "adresse": "Via Cristoforo Colombo 40 21047",
      "brand": "Keropetrol",
      "lat": 45.63172,
      "lng": 9.03913,
      "fuels": {
        "sp95": 1.799,
        "gazole": 1.919
      }
    },
    {
      "id": "44111",
      "cp": "",
      "ville": "Varese",
      "adresse": "Via Dalmazia 26 21100",
      "brand": "Api-Ip",
      "lat": 45.82438427096708,
      "lng": 8.840643965029699,
      "fuels": {
        "sp95": 1.819,
        "gazole": 1.919
      }
    },
    {
      "id": "42994",
      "cp": "",
      "ville": "Varese",
      "adresse": "Via Dandolo  55 21100",
      "brand": "Moro",
      "lat": 45.82103222293216,
      "lng": 8.832141097483827,
      "fuels": {
        "sp95": 1.799,
        "gazole": 1.899
      }
    },
    {
      "id": "10167",
      "cp": "",
      "ville": "Varese",
      "adresse": "Via Francesco Crispi 8 21100",
      "brand": "Agip Eni",
      "lat": 45.82376525952059,
      "lng": 8.817218033065728,
      "fuels": {
        "sp95": 1.819,
        "gazole": 1.889
      }
    },
    {
      "id": "48468",
      "cp": "",
      "ville": "Varese",
      "adresse": "Via Jamoretti 20 21100",
      "brand": "Sommese Petroli",
      "lat": 45.84612,
      "lng": 8.839781,
      "fuels": {
        "sp95": 1.799,
        "gazole": 1.899
      }
    },
    {
      "id": "14688",
      "cp": "",
      "ville": "Varese",
      "adresse": "Via Ledro 18 21100",
      "brand": "Agip Eni",
      "lat": 45.81983794297321,
      "lng": 8.839726596750666,
      "fuels": {
        "sp95": 1.819,
        "gazole": 1.889
      }
    },
    {
      "id": "46369",
      "cp": "",
      "ville": "Varese",
      "adresse": "Via Leopoldo Gasparotto 110 21100",
      "brand": "Agip Eni",
      "lat": 45.793995223569326,
      "lng": 8.832267921741845,
      "fuels": {
        "sp95": 1.819,
        "gazole": 1.889
      }
    },
    {
      "id": "15477",
      "cp": "",
      "ville": "Varese",
      "adresse": "Via Lungolago 31 Varese",
      "brand": "Api-Ip",
      "lat": 45.820798413974074,
      "lng": 8.747212027368164,
      "fuels": {
        "sp95": 1.979,
        "gazole": 2.089
      }
    },
    {
      "id": "51293",
      "cp": "",
      "ville": "Varese",
      "adresse": "Via Lungolago Di Capolago - Sp 1  21100",
      "brand": "Agip Eni",
      "lat": 45.79899868548435,
      "lng": 8.802050125733725,
      "fuels": {
        "sp95": 1.809,
        "gazole": 1.889
      }
    },
    {
      "id": "33180",
      "cp": "",
      "ville": "Varese",
      "adresse": "Via Sanvito Silvestro 38 21100",
      "brand": "q8",
      "lat": 45.82247588928148,
      "lng": 8.81772845396722,
      "fuels": {
        "sp95": 1.799,
        "gazole": 1.869
      }
    },
    {
      "id": "11919",
      "cp": "",
      "ville": "Varese",
      "adresse": "Via Sanvito Silvestro 62 21100",
      "brand": "q8",
      "lat": 45.82361121490082,
      "lng": 8.814153644180351,
      "fuels": {
        "sp95": 1.799,
        "gazole": 1.869
      }
    },
    {
      "id": "11109",
      "cp": "",
      "ville": "Varese",
      "adresse": "Via Sanvito Silvestro 84 21100",
      "brand": "Agip Eni",
      "lat": 45.82536886434637,
      "lng": 8.80745607665176,
      "fuels": {
        "sp95": 1.819,
        "gazole": 1.889
      }
    },
    {
      "id": "37599",
      "cp": "",
      "ville": "Varese",
      "adresse": "Via Silvestro Sanvito 83 21100",
      "brand": "Coil",
      "lat": 45.82527032692657,
      "lng": 8.805946335196495,
      "fuels": {
        "sp95": 1.795,
        "gazole": 1.879
      }
    },
    {
      "id": "34223",
      "cp": "",
      "ville": "Varese",
      "adresse": "Via Viale Valganna 43 21100, Varese (va) 43 21100",
      "brand": "Sommese Petroli",
      "lat": 45.830351893229405,
      "lng": 8.834637599999951,
      "fuels": {
        "sp95": 1.799,
        "gazole": 1.899
      }
    },
    {
      "id": "24047",
      "cp": "",
      "ville": "Varese",
      "adresse": "Viale Aguggiari 175 21100",
      "brand": "q8",
      "lat": 45.83373424159962,
      "lng": 8.82003208650815,
      "fuels": {
        "sp95": 1.799,
        "gazole": 1.869
      }
    },
    {
      "id": "16887",
      "cp": "",
      "ville": "Varese",
      "adresse": "Viale Aguggiari 235 21100",
      "brand": "Agip Eni",
      "lat": 45.837950254124365,
      "lng": 8.81528304299161,
      "fuels": {
        "sp95": 1.805,
        "gazole": 1.884
      }
    },
    {
      "id": "30798",
      "cp": "",
      "ville": "Varese",
      "adresse": "Viale Borri 99 21100",
      "brand": "q8",
      "lat": 45.804320026920124,
      "lng": 8.840558628241752,
      "fuels": {
        "sp95": 1.799,
        "gazole": 1.869
      }
    },
    {
      "id": "29924",
      "cp": "",
      "ville": "Varese",
      "adresse": "Viale Europa 82 21100",
      "brand": "Esso",
      "lat": 45.804557871340464,
      "lng": 8.832338415344225,
      "fuels": {
        "sp95": 1.769,
        "gazole": 1.879
      }
    },
    {
      "id": "49705",
      "cp": "",
      "ville": "Varese",
      "adresse": "Viale europa, 86  21100",
      "brand": "Retitalia",
      "lat": 45.804058075,
      "lng": 8.8326215744,
      "fuels": {
        "sp95": 1.759,
        "gazole": 1.869
      }
    },
    {
      "id": "56536",
      "cp": "",
      "ville": "Varese",
      "adresse": "Viale Luigi Borri 40 21100",
      "brand": "Agip Eni",
      "lat": 45.80812,
      "lng": 8.836961,
      "fuels": {
        "sp95": 1.809,
        "gazole": 1.889
      }
    },
    {
      "id": "8783",
      "cp": "",
      "ville": "Venegono Inferiore",
      "adresse": "Via Fratelli Kennedy 104 21040",
      "brand": "Api-Ip",
      "lat": 45.740963701835284,
      "lng": 8.881406262516975,
      "fuels": {
        "sp95": 1.819,
        "gazole": 1.919
      }
    },
    {
      "id": "6947",
      "cp": "",
      "ville": "Venegono Inferiore",
      "adresse": "Via Manzoni 96 21040",
      "brand": "q8",
      "lat": 45.73066006231538,
      "lng": 8.90105277299881,
      "fuels": {
        "sp95": 1.819,
        "gazole": 1.919
      }
    },
    {
      "id": "50238",
      "cp": "",
      "ville": "Vergiate",
      "adresse": "Puccini - fraz. Cimbro 23 21029",
      "brand": "Tamoil",
      "lat": 45.72677567420747,
      "lng": 8.71979862435861,
      "fuels": {
        "sp95": 1.789,
        "gazole": 1.839
      }
    },
    {
      "id": "61692",
      "cp": "",
      "ville": "Vergiate",
      "adresse": "Roma 12 21029",
      "brand": "Api-Ip",
      "lat": 45.72071,
      "lng": 8.69201,
      "fuels": {
        "sp95": 1.819,
        "gazole": 1.919
      }
    },
    {
      "id": "60286",
      "cp": "",
      "ville": "Vergiate",
      "adresse": "s.s. Del Sempione 33 Km 49+600 21029",
      "brand": "Retitalia",
      "lat": 45.712259,
      "lng": 8.694463,
      "fuels": {
        "sp95": 1.775,
        "gazole": 1.875
      }
    },
    {
      "id": "61266",
      "cp": "",
      "ville": "Vergiate",
      "adresse": "Sempione 1 21029",
      "brand": "Shell",
      "lat": 45.706723,
      "lng": 8.697485,
      "fuels": {
        "sp95": 1.799,
        "gazole": 1.899,
        "gplc": 0.769
      }
    },
    {
      "id": "33708",
      "cp": "",
      "ville": "Vergiate",
      "adresse": "Via Locatelli 19 21029",
      "brand": "Sommese Petroli",
      "lat": 45.72204911087784,
      "lng": 8.690449267459144,
      "fuels": {
        "sp95": 1.799,
        "gazole": 1.899
      }
    },
    {
      "id": "59202",
      "cp": "",
      "ville": "Vergiate",
      "adresse": "Via Milano 100  21029",
      "brand": "Agip Eni",
      "lat": 45.73648,
      "lng": 8.67968,
      "fuels": {
        "sp95": 1.789,
        "gazole": 1.834
      }
    }
  ]
}