{
  "code": "VC",
  "name": "Vercelli",
  "regionCode": "PIE",
  "regionName": "Piemonte",
  "asOf": "2026-07-23T14:36:58.561Z",
  "source": "https://www.mimit.gov.it/it/open-data/elenco-dataset/2032336-dataset-prezzi-carburanti",
  "stationCount": 86,
  "fuels": {
    "gazole": {
      "count": 86,
      "mean": 2.1066,
      "median": 2.099,
      "min": 1.799,
      "max": 2.299
    },
    "sp95": {
      "count": 82,
      "mean": 1.94,
      "median": 1.937,
      "min": 1.719,
      "max": 2.098
    },
    "e85": {
      "count": 4,
      "mean": 1.5292,
      "median": 1.504,
      "min": 1.419,
      "max": 1.69
    },
    "gplc": {
      "count": 22,
      "mean": 0.7434,
      "median": 0.704,
      "min": 0.667,
      "max": 0.899
    }
  },
  "stations": [
    {
      "id": "53503",
      "cp": "",
      "ville": "Alice Castello",
      "adresse": "Via Cavaglia'  - s.s.593 Km 3+880 - 28 13040, Alice Castello (vc) 22 13040",
      "brand": "q8",
      "lat": 45.374014,
      "lng": 8.078777,
      "fuels": {
        "sp95": 1.939,
        "gazole": 2.139,
        "gplc": 0.699
      }
    },
    {
      "id": "39652",
      "cp": "",
      "ville": "Bianzè",
      "adresse": "Via Tronzano 34 13041",
      "brand": "Api-Ip",
      "lat": 45.312036813352044,
      "lng": 8.126854598522186,
      "fuels": {
        "sp95": 1.969,
        "gazole": 2.189
      }
    },
    {
      "id": "45702",
      "cp": "",
      "ville": "Borgo Vercelli",
      "adresse": "11 Padana superiore, km. 78+250, Vercelli - 13012",
      "brand": "Tamoil",
      "lat": 45.347667856065954,
      "lng": 8.454266272109635,
      "fuels": {
        "sp95": 1.899,
        "gazole": 2.079,
        "gplc": 0.669
      }
    },
    {
      "id": "56828",
      "cp": "",
      "ville": "Borgosesia",
      "adresse": "Vercelli 212 13011",
      "brand": "Shell",
      "lat": 45.706943,
      "lng": 8.286269,
      "fuels": {
        "sp95": 1.989,
        "gazole": 2.119
      }
    },
    {
      "id": "49210",
      "cp": "",
      "ville": "Borgosesia",
      "adresse": "Via Montrigone  78 13011",
      "brand": "Api-Ip",
      "lat": 45.71060502117219,
      "lng": 8.292548425131258,
      "fuels": {
        "sp95": 1.976,
        "gazole": 2.136
      }
    },
    {
      "id": "11935",
      "cp": "",
      "ville": "Borgosesia",
      "adresse": "Via v. Veneto 56 13011",
      "brand": "q8",
      "lat": 45.71376446489995,
      "lng": 8.28096507472992,
      "fuels": {
        "sp95": 1.989,
        "gazole": 2.129
      }
    },
    {
      "id": "47502",
      "cp": "",
      "ville": "Borgosesia",
      "adresse": "Via Varallo 136 A 13011",
      "brand": "Europam",
      "lat": 45.72624281921695,
      "lng": 8.266592892910122,
      "fuels": {
        "sp95": 1.967,
        "gazole": 2.097
      }
    },
    {
      "id": "51436",
      "cp": "",
      "ville": "Borgosesia",
      "adresse": "Via Vittorio Veneto 104 13011",
      "brand": "Agip Eni",
      "lat": 45.71278858831169,
      "lng": 8.283151499467236,
      "fuels": {
        "sp95": 1.939,
        "gazole": 2.099
      }
    },
    {
      "id": "53057",
      "cp": "",
      "ville": "Caresanablot",
      "adresse": "Vercelli s.n. 13030",
      "brand": "Api-Ip",
      "lat": 45.35078,
      "lng": 8.39416,
      "fuels": {
        "sp95": 1.899,
        "gazole": 2.044
      }
    },
    {
      "id": "11938",
      "cp": "",
      "ville": "Carisio",
      "adresse": "s.p. Torino - Svizzera S/N 13040",
      "brand": "q8",
      "lat": 45.44338964969156,
      "lng": 8.229165131282798,
      "fuels": {
        "sp95": 1.899,
        "gazole": 2.169
      }
    },
    {
      "id": "37508",
      "cp": "",
      "ville": "Carisio",
      "adresse": "Statale 230 Di massazza, km. 17+900, dir. Biella  13040",
      "brand": "Centro Calor",
      "lat": 45.451531427869995,
      "lng": 8.228324577212334,
      "fuels": {
        "sp95": 1.929,
        "gazole": 2.159,
        "gplc": 0.769
      }
    },
    {
      "id": "41680",
      "cp": "",
      "ville": "Cigliano",
      "adresse": "a4 Torino-milano, km. 31,8, Nord - 13043",
      "brand": "Api-Ip",
      "lat": 45.28712735778054,
      "lng": 8.034066259860992,
      "fuels": {
        "sp95": 2.039,
        "gazole": 2.179
      }
    },
    {
      "id": "61977",
      "cp": "",
      "ville": "Cigliano",
      "adresse": "s.regionale n.11 Km 38+655 Sn 13043",
      "brand": "Agip Eni",
      "lat": 45.293814,
      "lng": 8.0017328,
      "fuels": {
        "sp95": 1.95,
        "gazole": 2.099,
        "gplc": 0.714
      }
    },
    {
      "id": "56688",
      "cp": "",
      "ville": "Crescentino",
      "adresse": "Giotto 32 13044",
      "brand": "Agip Eni",
      "lat": 45.19314779904249,
      "lng": 8.095642318956642,
      "fuels": {
        "sp95": 1.954,
        "gazole": 2.114
      }
    },
    {
      "id": "54660",
      "cp": "",
      "ville": "Crescentino",
      "adresse": "Giotto 45 13044",
      "brand": "Esso",
      "lat": 45.1932617,
      "lng": 8.093053,
      "fuels": {
        "sp95": 1.899,
        "gazole": 2.099
      }
    },
    {
      "id": "61797",
      "cp": "",
      "ville": "Crescentino",
      "adresse": "Provinciale 31 Bis-Km 12 Snc 13044",
      "brand": "Itala Petroli",
      "lat": 45.19357108673267,
      "lng": 8.068959520908905,
      "fuels": {
        "sp95": 1.999,
        "gazole": 2.149,
        "e85": 1.449,
        "gplc": 0.695
      }
    },
    {
      "id": "52570",
      "cp": "",
      "ville": "Desana",
      "adresse": "Provinciale 455 km9+176 - 13034",
      "brand": "Tamoil",
      "lat": 45.252425558830794,
      "lng": 8.344687457672135,
      "fuels": {
        "sp95": 1.889,
        "gazole": 2.079
      }
    },
    {
      "id": "11936",
      "cp": "",
      "ville": "Gattinara",
      "adresse": "c.s Valsesia 299 13045",
      "brand": "q8",
      "lat": 45.63411500401757,
      "lng": 8.371957084655833,
      "fuels": {
        "sp95": 1.899,
        "gazole": 2.109
      }
    },
    {
      "id": "59423",
      "cp": "",
      "ville": "Gattinara",
      "adresse": "Corso Vercelli 286  13045",
      "brand": "Europam",
      "lat": 45.6010662,
      "lng": 8.3681607,
      "fuels": {
        "sp95": 1.927,
        "gazole": 2.077
      }
    },
    {
      "id": "39893",
      "cp": "",
      "ville": "Gattinara",
      "adresse": "g. Marconi 26 13045",
      "brand": "Agip Eni",
      "lat": 45.61465577695121,
      "lng": 8.365809144180275,
      "fuels": {
        "sp95": 1.949,
        "gazole": 2.079
      }
    },
    {
      "id": "46061",
      "cp": "",
      "ville": "Ghislarengo",
      "adresse": "Via Via Per Carpignano Sn 13030, Ghislarengo (vc) Sn 13030",
      "brand": "Gnp",
      "lat": 45.530478000123,
      "lng": 8.399355000123,
      "fuels": {
        "sp95": 1.917,
        "gazole": 2.097
      }
    },
    {
      "id": "52978",
      "cp": "",
      "ville": "Greggio",
      "adresse": "s.p. Destra Sesia km. 17.1 - 13030",
      "brand": "Tamoil",
      "lat": 45.468791,
      "lng": 8.386298,
      "fuels": {
        "sp95": 1.939,
        "gazole": 2.079
      }
    },
    {
      "id": "35693",
      "cp": "",
      "ville": "Lenta",
      "adresse": "Statale 594 Destra sesia, km. 6+700 2, dir. Gattinara - 13035",
      "brand": "Api-Ip",
      "lat": 45.55973531590041,
      "lng": 8.380469530820847,
      "fuels": {
        "sp95": 1.949,
        "gazole": 2.119
      }
    },
    {
      "id": "11937",
      "cp": "",
      "ville": "Livorno Ferraris",
      "adresse": "Bivio Crescentino-Saluggia S/N 13046",
      "brand": "q8",
      "lat": 45.277705630412775,
      "lng": 8.07974099140165,
      "fuels": {
        "sp95": 1.979,
        "gazole": 2.159
      }
    },
    {
      "id": "54254",
      "cp": "",
      "ville": "Livorno Ferraris",
      "adresse": "Piemonte 40 13046",
      "brand": "Api-Ip",
      "lat": 45.27314694187899,
      "lng": 8.079270857231133,
      "fuels": {
        "sp95": 1.959,
        "gazole": 2.149
      }
    },
    {
      "id": "62904",
      "cp": "",
      "ville": "Livorno Ferraris",
      "adresse": "Strada Provinciale Delle Grange  13046",
      "brand": "Economysrl",
      "lat": 45.24141891902875,
      "lng": 8.180505643589997,
      "fuels": {
        "sp95": 1.929,
        "gazole": 2.098
      }
    },
    {
      "id": "31837",
      "cp": "",
      "ville": "Livorno Ferraris",
      "adresse": "Via Saluggia 54 13046",
      "brand": "Conad",
      "lat": 45.27445311554681,
      "lng": 8.075787580009433,
      "fuels": {
        "sp95": 1.928,
        "gazole": 2.098,
        "gplc": 0.698
      }
    },
    {
      "id": "52804",
      "cp": "",
      "ville": "Livorno Ferraris",
      "adresse": "Via Via Strada Provinciale Km 2+546 123 13046, Livorno Ferraris (vc) 123 13046",
      "brand": "Dis-Car",
      "lat": 45.2906787309769,
      "lng": 8.055682182312012,
      "fuels": {
        "sp95": 1.949,
        "gazole": 2.139,
        "gplc": 0.699
      }
    },
    {
      "id": "35690",
      "cp": "",
      "ville": "Moncrivello",
      "adresse": "Statale 593 Di Borgo D'ale, km. 12+706, dir. Borgo D'Ale - 13040",
      "brand": "Agip Eni",
      "lat": 45.32130490443171,
      "lng": 8.031240552663803,
      "fuels": {
        "sp95": 1.945,
        "gazole": 2.094,
        "gplc": 0.709
      }
    },
    {
      "id": "60347",
      "cp": "",
      "ville": "Oldenico",
      "adresse": "Strada Provinciale 594 Snc 13030",
      "brand": "Pompe Bianche",
      "lat": 45.402755,
      "lng": 8.3803269,
      "fuels": {
        "sp95": 1.895,
        "gazole": 2.085
      }
    },
    {
      "id": "43441",
      "cp": "",
      "ville": "Prarolo",
      "adresse": "a26 (ge) Voltri-Gravellona t., km. 108+200, Nord - 13012",
      "brand": "Sarni Oil",
      "lat": 45.28698464502032,
      "lng": 8.472145644180273,
      "fuels": {
        "sp95": 2.048,
        "gazole": 2.198,
        "gplc": 0.889
      }
    },
    {
      "id": "62770",
      "cp": "",
      "ville": "Prarolo",
      "adresse": "a26 (ge) Voltri-Gravellona t., km. 108+200, Nord - 13012",
      "brand": "Sarni Oil",
      "lat": 45.28698464502032,
      "lng": 8.472145644180273,
      "fuels": {
        "gazole": 2.169
      }
    },
    {
      "id": "38312",
      "cp": "",
      "ville": "Prarolo",
      "adresse": "Autostrada a26 (ge) Voltri-Gravellona t., km. 108+200, dir. Sud - 13012",
      "brand": "Sarni Oil",
      "lat": 45.28549029234382,
      "lng": 8.470694348216057,
      "fuels": {
        "sp95": 2.098,
        "gazole": 2.248,
        "gplc": 0.899
      }
    },
    {
      "id": "62771",
      "cp": "",
      "ville": "Prarolo",
      "adresse": "Autostrada a26 (ge) Voltri-Gravellona t., km. 108+200, dir. Sud - 13012",
      "brand": "Sarni Oil",
      "lat": 45.28549029234382,
      "lng": 8.470694348216057,
      "fuels": {
        "gazole": 2.199
      }
    },
    {
      "id": "43912",
      "cp": "",
      "ville": "Prarolo",
      "adresse": "Statale 31 km. 6 + 052 Snc 13012",
      "brand": "Agip Eni",
      "lat": 45.278478887367626,
      "lng": 8.463600693865828,
      "fuels": {
        "sp95": 1.909,
        "gazole": 2.044
      }
    },
    {
      "id": "52984",
      "cp": "",
      "ville": "Quarona",
      "adresse": "Corso Pietro Rolandi 15 13017",
      "brand": "Cler Carburanti",
      "lat": 45.755702378210735,
      "lng": 8.266940840197744,
      "fuels": {
        "sp95": 1.969,
        "gazole": 2.129
      }
    },
    {
      "id": "27522",
      "cp": "",
      "ville": "Quarona",
      "adresse": "Corso Valsesia 7 13017",
      "brand": "Keropetrol",
      "lat": 45.765313603616015,
      "lng": 8.260061144828796,
      "fuels": {
        "sp95": 1.989,
        "gazole": 2.189
      }
    },
    {
      "id": "23383",
      "cp": "",
      "ville": "Riva Valdobbia",
      "adresse": "Localita' Miniere Sn 13020",
      "brand": "Pompe Bianche",
      "lat": 45.84306742632645,
      "lng": 7.941881418228149,
      "fuels": {
        "sp95": 1.87,
        "gazole": 2.03
      }
    },
    {
      "id": "12632",
      "cp": "",
      "ville": "Saluggia",
      "adresse": "Crescentino 31 13040",
      "brand": "Pompe Bianche",
      "lat": 45.23191425646079,
      "lng": 8.02081514945985,
      "fuels": {
        "sp95": 1.919,
        "gazole": 2.119
      }
    },
    {
      "id": "47480",
      "cp": "",
      "ville": "San Germano Vercellese",
      "adresse": "Strada Provinciale 11 Km 61+366 - 13047, San Germano Vercellese (vc)  13047",
      "brand": "Gnp",
      "lat": 45.344704380191345,
      "lng": 8.269383437753204,
      "fuels": {
        "sp95": 1.937,
        "gazole": 2.097
      }
    },
    {
      "id": "17973",
      "cp": "",
      "ville": "Santhià",
      "adresse": "143 km. 9+595 Snc 13048",
      "brand": "Agip Eni",
      "lat": 45.386982838654,
      "lng": 8.133682832121849,
      "fuels": {
        "sp95": 1.95,
        "gazole": 2.079,
        "gplc": 0.726
      }
    },
    {
      "id": "3512",
      "cp": "",
      "ville": "Santhià",
      "adresse": "Autostrada a26 (ge) Voltri-Gravellona Collegamento Con santhia, km. 29+300, dir. Nord - 13048",
      "brand": "Sarni Oil",
      "lat": 45.368091953339494,
      "lng": 8.14344737895965,
      "fuels": {
        "sp95": 2.098,
        "gazole": 2.098
      }
    },
    {
      "id": "62769",
      "cp": "",
      "ville": "Santhià",
      "adresse": "Autostrada a26 (ge) Voltri-Gravellona Collegamento Con santhia, km. 29+300, dir. Nord - 13048",
      "brand": "Sarni Oil",
      "lat": 45.368091953339494,
      "lng": 8.14344737895965,
      "fuels": {
        "gazole": 2.199
      }
    },
    {
      "id": "51934",
      "cp": "",
      "ville": "Santhià",
      "adresse": "Corso Aosta 1 loc. Piagera  13048",
      "brand": "Api-Ip",
      "lat": 45.37415027963355,
      "lng": 8.150774918836055,
      "fuels": {
        "sp95": 1.939,
        "gazole": 2.099,
        "gplc": 0.689
      }
    },
    {
      "id": "10633",
      "cp": "",
      "ville": "Santhià",
      "adresse": "Corso Santo Ignazio Da Santhia' 88 13048",
      "brand": "Api-Ip",
      "lat": 45.36941849080319,
      "lng": 8.161213684281066,
      "fuels": {
        "sp95": 1.949,
        "gazole": 2.129
      }
    },
    {
      "id": "57718",
      "cp": "",
      "ville": "Santhià",
      "adresse": "Corso Xxv Aprile 43 13048",
      "brand": "Europam",
      "lat": 45.3786174,
      "lng": 8.1469063,
      "fuels": {
        "sp95": 1.937,
        "gazole": 2.097,
        "gplc": 0.697
      }
    },
    {
      "id": "36387",
      "cp": "",
      "ville": "Santhià",
      "adresse": "Due Giugno Snc 13048",
      "brand": "Agip Eni",
      "lat": 45.36251811735457,
      "lng": 8.17144364118576,
      "fuels": {
        "sp95": 1.959,
        "gazole": 2.119
      }
    },
    {
      "id": "47137",
      "cp": "",
      "ville": "Santhià",
      "adresse": "Santo Ignazio 43 13048",
      "brand": "Tamoil",
      "lat": 45.368085524924105,
      "lng": 8.16581099883606,
      "fuels": {
        "sp95": 1.939,
        "gazole": 2.099
      }
    },
    {
      "id": "25216",
      "cp": "",
      "ville": "Scopa",
      "adresse": "Via Silvestro Pianazzi 18 13027",
      "brand": "Pompe Bianche",
      "lat": 45.79277169225308,
      "lng": 8.113296031951904,
      "fuels": {
        "sp95": 1.949,
        "gazole": 2.079
      }
    },
    {
      "id": "61458",
      "cp": "",
      "ville": "Serravalle Sesia",
      "adresse": "Corso Xxv Aprile 90/A 13037",
      "brand": "Agip Eni",
      "lat": 45.682955902095316,
      "lng": 8.311977488087104,
      "fuels": {
        "sp95": 1.949,
        "gazole": 2.119
      }
    },
    {
      "id": "26850",
      "cp": "",
      "ville": "Serravalle Sesia",
      "adresse": "Via Per Crevacuore 1 13037",
      "brand": "Esso",
      "lat": 45.6973578399154,
      "lng": 8.28647956252098,
      "fuels": {
        "sp95": 1.989,
        "gazole": 2.119
      }
    },
    {
      "id": "52034",
      "cp": "",
      "ville": "Serravalle Sesia",
      "adresse": "Xxv Aprile 8 13037",
      "brand": "Tamoil",
      "lat": 45.69235506322406,
      "lng": 8.299306752149572,
      "fuels": {
        "sp95": 1.989,
        "gazole": 2.139,
        "e85": 1.559,
        "gplc": 0.749
      }
    },
    {
      "id": "46317",
      "cp": "",
      "ville": "Stroppiana",
      "adresse": "a26 (ge) Voltri-Gravellona Collegamento Con santhia, km. 1+700, Sud - 13010",
      "brand": "Sarni Oil",
      "lat": 45.25239073387933,
      "lng": 8.447856211415,
      "fuels": {
        "sp95": 2.098,
        "gazole": 2.299,
        "gplc": 0.899
      }
    },
    {
      "id": "62768",
      "cp": "",
      "ville": "Stroppiana",
      "adresse": "a26 (ge) Voltri-Gravellona Collegamento Con santhia, km. 1+700, Sud - 13010",
      "brand": "Sarni Oil",
      "lat": 45.25239073387933,
      "lng": 8.447856211415,
      "fuels": {
        "gazole": 2.199
      }
    },
    {
      "id": "11934",
      "cp": "",
      "ville": "Trino",
      "adresse": "Corso Italia 2 13039",
      "brand": "q8",
      "lat": 45.19819402588238,
      "lng": 8.297412246465683,
      "fuels": {
        "sp95": 1.969,
        "gazole": 2.119
      }
    },
    {
      "id": "59600",
      "cp": "",
      "ville": "Trino",
      "adresse": "Vercelli Sn 13039",
      "brand": "Agip Eni",
      "lat": 45.2044059,
      "lng": 8.30075296,
      "fuels": {
        "sp95": 1.919,
        "gazole": 2.064
      }
    },
    {
      "id": "6412",
      "cp": "",
      "ville": "Trino",
      "adresse": "Via Casale distr. q8 36 13039",
      "brand": "q8",
      "lat": 45.19126590205032,
      "lng": 8.304775844180313,
      "fuels": {
        "sp95": 1.899,
        "gazole": 2.099
      }
    },
    {
      "id": "46063",
      "cp": "",
      "ville": "Trino",
      "adresse": "Via s.s. 31 Al km. 32+175 s.n. 13039, Trino (vc)  13039",
      "brand": "Gnp",
      "lat": 45.18261913046881,
      "lng": 8.321526646614075,
      "fuels": {
        "sp95": 1.897,
        "gazole": 2.097
      }
    },
    {
      "id": "46250",
      "cp": "",
      "ville": "Tronzano Vercellese",
      "adresse": "s.p. Tronzano-Santhia'  13049",
      "brand": "Europam",
      "lat": 45.34459013625024,
      "lng": 8.165527052475682,
      "fuels": {
        "sp95": 1.937,
        "gazole": 2.097
      }
    },
    {
      "id": "47096",
      "cp": "",
      "ville": "Valduggia",
      "adresse": "Monte Fenera 30 13018",
      "brand": "Pompe Bianche",
      "lat": 45.68329076949886,
      "lng": 8.324762165181662,
      "fuels": {
        "sp95": 1.92,
        "gazole": 2.08
      }
    },
    {
      "id": "5657",
      "cp": "",
      "ville": "Valduggia",
      "adresse": "Via g.ferrari (via Della cremosina) 120 13018",
      "brand": "Tamoil",
      "lat": 45.72306300443579,
      "lng": 8.323331773281097,
      "fuels": {
        "sp95": 1.999,
        "gazole": 2.099
      }
    },
    {
      "id": "56805",
      "cp": "",
      "ville": "Varallo",
      "adresse": "Via c. Battisti 98  13019",
      "brand": "q8",
      "lat": 45.8099998,
      "lng": 8.2694443,
      "fuels": {
        "sp95": 1.989,
        "gazole": 2.129
      }
    },
    {
      "id": "60181",
      "cp": "",
      "ville": "Varallo",
      "adresse": "Via m. t. Rossi  17/3",
      "brand": "Agip Eni",
      "lat": 45.816353,
      "lng": 8.245779,
      "fuels": {
        "sp95": 1.949,
        "gazole": 2.099,
        "gplc": 0.754
      }
    },
    {
      "id": "50223",
      "cp": "",
      "ville": "Vercelli",
      "adresse": "Corso a. Di Quaregna Snc 13100",
      "brand": "Esso",
      "lat": 45.31487200511368,
      "lng": 8.41557378150636,
      "fuels": {
        "sp95": 1.909,
        "gazole": 2.109
      }
    },
    {
      "id": "10100",
      "cp": "",
      "ville": "Vercelli",
      "adresse": "Corso De Rege   13100",
      "brand": "Api-Ip",
      "lat": 45.317867858483226,
      "lng": 8.430920541286469,
      "fuels": {
        "sp95": 1.889,
        "gazole": 2.049
      }
    },
    {
      "id": "43201",
      "cp": "",
      "ville": "Vercelli",
      "adresse": "Corso Matteotti  13100",
      "brand": "Api-Ip",
      "lat": 45.325166436411436,
      "lng": 8.433970009192649,
      "fuels": {
        "sp95": 1.899,
        "gazole": 2.039
      }
    },
    {
      "id": "30738",
      "cp": "",
      "ville": "Vercelli",
      "adresse": "Corso Papa Giovanni Paolo Ii 42 13100",
      "brand": "Api-Ip",
      "lat": 45.312052815039024,
      "lng": 8.438794635581985,
      "fuels": {
        "sp95": 1.889,
        "gazole": 2.049
      }
    },
    {
      "id": "11933",
      "cp": "",
      "ville": "Vercelli",
      "adresse": "Corso Prestinari 168 13100",
      "brand": "q8",
      "lat": 45.32392446659073,
      "lng": 8.405681982803344,
      "fuels": {
        "sp95": 1.919,
        "gazole": 2.089
      }
    },
    {
      "id": "6830",
      "cp": "",
      "ville": "Vercelli",
      "adresse": "Corso Prestinari 191 13100",
      "brand": "q8",
      "lat": 45.323642482663296,
      "lng": 8.407752127647427,
      "fuels": {
        "sp95": 1.879,
        "gazole": 2.089
      }
    },
    {
      "id": "58002",
      "cp": "",
      "ville": "Vercelli",
      "adresse": "Piazza  Baldo Mazzucchelli 2 13100",
      "brand": "Tamoil",
      "lat": 45.323553666147674,
      "lng": 8.415352140934544,
      "fuels": {
        "sp95": 1.919,
        "gazole": 2.069
      }
    },
    {
      "id": "33292",
      "cp": "",
      "ville": "Vercelli",
      "adresse": "Piazza Modesto Cugnolio  13100",
      "brand": "Api-Ip",
      "lat": 45.325125458513384,
      "lng": 8.431146938657776,
      "fuels": {
        "sp95": 1.899,
        "gazole": 2.059
      }
    },
    {
      "id": "60728",
      "cp": "",
      "ville": "Vercelli",
      "adresse": "Piazza Modesto Cugnolio Snc 13100",
      "brand": "Esso",
      "lat": 45.32483377027491,
      "lng": 8.431237041950226,
      "fuels": {
        "sp95": 1.719,
        "gazole": 1.799
      }
    },
    {
      "id": "6413",
      "cp": "",
      "ville": "Vercelli",
      "adresse": "Piazza Sardegna Snc 13100",
      "brand": "q8",
      "lat": 45.31460273813581,
      "lng": 8.426893438028742,
      "fuels": {
        "sp95": 1.879,
        "gazole": 2.089
      }
    },
    {
      "id": "59818",
      "cp": "",
      "ville": "Vercelli",
      "adresse": "Piazza Solferino s.n. Sn 13100",
      "brand": "Agip Eni",
      "lat": 45.321316875082665,
      "lng": 8.425733881545252,
      "fuels": {
        "sp95": 1.909,
        "gazole": 2.044
      }
    },
    {
      "id": "46519",
      "cp": "",
      "ville": "Vercelli",
      "adresse": "s.s.230 Km 37+730 Di Massazza 37+730 13100",
      "brand": "Pompe Bianche",
      "lat": 45.338979,
      "lng": 8.392957,
      "fuels": {
        "sp95": 1.889,
        "gazole": 2.099,
        "gplc": 0.667
      }
    },
    {
      "id": "37946",
      "cp": "",
      "ville": "Vercelli",
      "adresse": "sp455 Pontestura Via Trino  13100",
      "brand": "Api-Ip",
      "lat": 45.3002863335823,
      "lng": 8.391966908598306,
      "fuels": {
        "sp95": 1.889,
        "gazole": 2.049,
        "gplc": 0.688
      }
    },
    {
      "id": "25396",
      "cp": "",
      "ville": "Vercelli",
      "adresse": "Strada Statale 11/31 km. 0+550 Sn 13100",
      "brand": "Tamoil",
      "lat": 45.321154028854515,
      "lng": 8.390297144651413,
      "fuels": {
        "sp95": 1.919,
        "gazole": 2.069,
        "gplc": 0.669
      }
    },
    {
      "id": "48450",
      "cp": "",
      "ville": "Vercelli",
      "adresse": "Strada statale, km. 3+870, Nord - 13100",
      "brand": "Agip Eni",
      "lat": 45.30206829650761,
      "lng": 8.420332380905963,
      "fuels": {
        "sp95": 1.919,
        "gazole": 2.064
      }
    },
    {
      "id": "25121",
      "cp": "",
      "ville": "Vercelli",
      "adresse": "Tangenziale Sud Km 1,320  13100",
      "brand": "Api-Ip",
      "lat": 45.31629863734204,
      "lng": 8.395105004310608,
      "fuels": {
        "sp95": 1.889,
        "gazole": 2.049
      }
    },
    {
      "id": "39480",
      "cp": "",
      "ville": "Vercelli",
      "adresse": "Trino Sn 13100",
      "brand": "Tamoil",
      "lat": 45.315854438033575,
      "lng": 8.409305289387703,
      "fuels": {
        "sp95": 1.899,
        "gazole": 2.049
      }
    },
    {
      "id": "39961",
      "cp": "",
      "ville": "Vercelli",
      "adresse": "Via Famiglia Iona 14a 13100",
      "brand": "Pompe Bianche",
      "lat": 45.299825352653066,
      "lng": 8.405570806082096,
      "fuels": {
        "sp95": 1.863,
        "gazole": 2.085
      }
    },
    {
      "id": "34041",
      "cp": "",
      "ville": "Vercelli",
      "adresse": "Via Leonardo Walter Manzone Sn 13100",
      "brand": "Api-Ip",
      "lat": 45.33837765530884,
      "lng": 8.405241072177887,
      "fuels": {
        "sp95": 1.999,
        "gazole": 2.099
      }
    },
    {
      "id": "41197",
      "cp": "",
      "ville": "Vercelli",
      "adresse": "Via Nelson Mandela 6a 13100",
      "brand": "Enercoop",
      "lat": 45.29512348391858,
      "lng": 8.392733931541443,
      "fuels": {
        "sp95": 1.879,
        "gazole": 2.099,
        "e85": 1.69,
        "gplc": 0.669
      }
    },
    {
      "id": "42162",
      "cp": "",
      "ville": "Vercelli",
      "adresse": "Via Torino 6 13100",
      "brand": "Agip Eni",
      "lat": 45.324115533617906,
      "lng": 8.403383291401724,
      "fuels": {
        "sp95": 1.919,
        "gazole": 2.064
      }
    },
    {
      "id": "51374",
      "cp": "",
      "ville": "Villarboit",
      "adresse": "a4 Torino-milano, km. 64.2, Ovest - 13030",
      "brand": "q8",
      "lat": 45.45719082767641,
      "lng": 8.345960974693298,
      "fuels": {
        "sp95": 2.059,
        "gazole": 2.199,
        "gplc": 0.869
      }
    },
    {
      "id": "43638",
      "cp": "",
      "ville": "Villarboit",
      "adresse": "a4 Torino-milano, km. 64+200, Milano - 13100",
      "brand": "Api-Ip",
      "lat": 45.45573459443261,
      "lng": 8.347522020339966,
      "fuels": {
        "sp95": 1.999,
        "gazole": 2.119,
        "e85": 1.419,
        "gplc": 0.839
      }
    }
  ]
}