{
  "code": "VE",
  "name": "Venezia",
  "regionCode": "VEN",
  "regionName": "Veneto",
  "asOf": "2026-06-29T19:04:19.952Z",
  "source": "https://www.mimit.gov.it/it/open-data/elenco-dataset/2032336-dataset-prezzi-carburanti",
  "stationCount": 273,
  "fuels": {
    "gazole": {
      "count": 266,
      "mean": 1.8785,
      "median": 1.862,
      "min": 1.488,
      "max": 2.34
    },
    "sp95": {
      "count": 268,
      "mean": 1.7973,
      "median": 1.779,
      "min": 1.689,
      "max": 2.289
    },
    "sp98": {
      "count": 1,
      "mean": 1.879,
      "median": 1.879,
      "min": 1.879,
      "max": 1.879
    },
    "e85": {
      "count": 20,
      "mean": 1.4553,
      "median": 1.459,
      "min": 1.169,
      "max": 1.642
    },
    "gplc": {
      "count": 70,
      "mean": 0.7854,
      "median": 0.7845,
      "min": 0.659,
      "max": 0.885
    }
  },
  "stations": [
    {
      "id": "16889",
      "cp": "",
      "ville": "Annone Veneto",
      "adresse": "Via Postumia 40 30020",
      "brand": "Api-Ip",
      "lat": 45.79554256834902,
      "lng": 12.681949478048637,
      "fuels": {
        "sp95": 1.799,
        "gazole": 1.859
      }
    },
    {
      "id": "41257",
      "cp": "",
      "ville": "Campagna Lupia",
      "adresse": "s.p. Brentone - Via Bressanin 34 30010",
      "brand": "Tamoil",
      "lat": 45.35450054241865,
      "lng": 12.091540622090179,
      "fuels": {
        "sp95": 1.789,
        "gazole": 1.869
      }
    },
    {
      "id": "33074",
      "cp": "",
      "ville": "Campagna Lupia",
      "adresse": "Statale 309 romea, km. 108,987, dir. Dx - 30010",
      "brand": "Pompe Bianche",
      "lat": 45.332131443281696,
      "lng": 12.134632095694542,
      "fuels": {
        "sp95": 1.729,
        "gazole": 1.829
      }
    },
    {
      "id": "28878",
      "cp": "",
      "ville": "Campagna Lupia",
      "adresse": "Via Roma 15 30010",
      "brand": "Pompe Bianche",
      "lat": 45.354494946978974,
      "lng": 12.091564701991274,
      "fuels": {
        "sp95": 1.789,
        "gazole": 1.869
      }
    },
    {
      "id": "61732",
      "cp": "",
      "ville": "Campolongo Maggiore",
      "adresse": "Via Iv Novembre 1 30010",
      "brand": "San Marco Petroli",
      "lat": 45.33609555243098,
      "lng": 12.081968262791634,
      "fuels": {
        "sp95": 1.789,
        "gazole": 1.869
      }
    },
    {
      "id": "61758",
      "cp": "",
      "ville": "Campolongo Maggiore",
      "adresse": "Via Roma 31  30010",
      "brand": "San Marco Petroli",
      "lat": 45.327702,
      "lng": 12.046,
      "fuels": {
        "sp95": 1.729,
        "gazole": 1.799
      }
    },
    {
      "id": "35598",
      "cp": "",
      "ville": "Campolongo Maggiore",
      "adresse": "Via Trentino 30/B 30010",
      "brand": "Loro",
      "lat": 45.35497229199863,
      "lng": 12.030169116857905,
      "fuels": {
        "sp95": 1.769,
        "gazole": 1.859,
        "gplc": 0.769
      }
    },
    {
      "id": "25907",
      "cp": "",
      "ville": "Camponogara",
      "adresse": "Via Arzerini 29/A 30010",
      "brand": "Agip Eni",
      "lat": 45.392653787198306,
      "lng": 12.076790928840637,
      "fuels": {
        "sp95": 1.789,
        "gazole": 1.824
      }
    },
    {
      "id": "5981",
      "cp": "",
      "ville": "Camponogara",
      "adresse": "Via Cavour 85 30010",
      "brand": "Api-Ip",
      "lat": 45.38346109030607,
      "lng": 12.097036271163915,
      "fuels": {
        "sp95": 1.779,
        "gazole": 1.869
      }
    },
    {
      "id": "61259",
      "cp": "",
      "ville": "Camponogara",
      "adresse": "Via Cesare Battisti 3  30010",
      "brand": "Agip Eni",
      "lat": 45.362988712110784,
      "lng": 12.092865668801762,
      "fuels": {
        "sp95": 1.814,
        "gazole": 1.899
      }
    },
    {
      "id": "54355",
      "cp": "",
      "ville": "Camponogara",
      "adresse": "Via Papa Giovanni Xxiii 43c  30010",
      "brand": "Pompe Bianche",
      "lat": 45.3895259,
      "lng": 12.0685372,
      "fuels": {
        "sp95": 1.839,
        "gazole": 1.929
      }
    },
    {
      "id": "25135",
      "cp": "",
      "ville": "Caorle",
      "adresse": "Corso Chiggiato 3 30021",
      "brand": "Api-Ip",
      "lat": 45.602506876559495,
      "lng": 12.884171000000038,
      "fuels": {
        "sp95": 1.799,
        "gazole": 1.869
      }
    },
    {
      "id": "59657",
      "cp": "",
      "ville": "Caorle",
      "adresse": "loc. Porto Santa Margherita - c.so  Venezia  Senza",
      "brand": "Agip Eni",
      "lat": 45.590893,
      "lng": 12.853421,
      "fuels": {
        "sp95": 1.799,
        "gazole": 1.869
      }
    },
    {
      "id": "11945",
      "cp": "",
      "ville": "Caorle",
      "adresse": "sp. 54 vl. Panama 49 30021",
      "brand": "q8",
      "lat": 45.60169342801975,
      "lng": 12.871005447885182,
      "fuels": {
        "sp95": 1.799,
        "gazole": 1.869
      }
    },
    {
      "id": "43894",
      "cp": "",
      "ville": "Cavallino-Treporti",
      "adresse": "Via Fausta 186/C 30013",
      "brand": "Agip Eni",
      "lat": 45.45665387947507,
      "lng": 12.474130641410284,
      "fuels": {
        "sp95": 1.83,
        "gazole": 1.919,
        "gplc": 0.85
      }
    },
    {
      "id": "26158",
      "cp": "",
      "ville": "Cavallino-Treporti",
      "adresse": "Via Fausta 207 30013",
      "brand": "Sia Fuel",
      "lat": 45.46530100950308,
      "lng": 12.515963762998581,
      "fuels": {
        "sp95": 1.805,
        "gazole": 1.885
      }
    },
    {
      "id": "53799",
      "cp": "",
      "ville": "Cavallino-Treporti",
      "adresse": "Via Fausta 299 30013",
      "brand": "Oil Italia",
      "lat": 45.46923547170534,
      "lng": 12.53491759300232,
      "fuels": {
        "sp95": 1.729,
        "gazole": 1.819
      }
    },
    {
      "id": "57631",
      "cp": "",
      "ville": "Cavallino-Treporti",
      "adresse": "Via Fausta 400 30013",
      "brand": "q8",
      "lat": 45.445481,
      "lng": 12.477722,
      "fuels": {
        "sp95": 1.739,
        "gazole": 1.829
      }
    },
    {
      "id": "56660",
      "cp": "",
      "ville": "Cavarzere",
      "adresse": "Circonvallazione 76 30014",
      "brand": "Agip Eni",
      "lat": 45.13676,
      "lng": 12.07599,
      "fuels": {
        "sp95": 1.824,
        "gazole": 1.894
      }
    },
    {
      "id": "61631",
      "cp": "",
      "ville": "Cavarzere",
      "adresse": "Giuseppe Mazzini 35 30014",
      "brand": "Loro",
      "lat": 45.13140076577674,
      "lng": 12.073565783802657,
      "fuels": {
        "sp95": 1.789,
        "gazole": 1.879
      }
    },
    {
      "id": "48736",
      "cp": "",
      "ville": "Cavarzere",
      "adresse": "Localita' Ca'Venier 74 30014",
      "brand": "Agip Eni",
      "lat": 45.143580228620046,
      "lng": 12.068723324079196,
      "fuels": {
        "sp95": 1.824,
        "gazole": 1.894,
        "gplc": 0.739
      }
    },
    {
      "id": "20768",
      "cp": "",
      "ville": "Cavarzere",
      "adresse": "Localita' San Pietro s.p. 85 - Corte Dolfina 92 30014",
      "brand": "Pompe Bianche",
      "lat": 45.115109414771396,
      "lng": 12.188142020316263,
      "fuels": {
        "sp95": 1.776,
        "gazole": 1.902
      }
    },
    {
      "id": "25903",
      "cp": "",
      "ville": "Cavarzere",
      "adresse": "s.s.516 km39+599  30014",
      "brand": "Agip Eni",
      "lat": 45.12083487092114,
      "lng": 12.075342535972595,
      "fuels": {
        "sp95": 1.789,
        "gazole": 1.824
      }
    },
    {
      "id": "30024",
      "cp": "",
      "ville": "Cavarzere",
      "adresse": "Via Via Martinelle 62 30014, Cavarzere (ve) 76 30014",
      "brand": "Costantin",
      "lat": 45.13960350094932,
      "lng": 12.119444811947687,
      "fuels": {
        "sp95": 1.765,
        "gazole": 1.845
      }
    },
    {
      "id": "36482",
      "cp": "",
      "ville": "Ceggia",
      "adresse": "s.s. 14 Via Venezia 798 30022",
      "brand": "Agip Eni",
      "lat": 45.67901618023392,
      "lng": 12.630185633897781,
      "fuels": {
        "sp95": 1.789,
        "gazole": 1.854
      }
    },
    {
      "id": "50673",
      "cp": "",
      "ville": "Chioggia",
      "adresse": "309 romea, km. 78+200, Venezia  30015",
      "brand": "Coil",
      "lat": 45.120634589088176,
      "lng": 12.254369205372774,
      "fuels": {
        "sp95": 1.735,
        "gazole": 1.815
      }
    },
    {
      "id": "51511",
      "cp": "",
      "ville": "Chioggia",
      "adresse": "309 romea, km. 82+930 442, Venezia - 30015",
      "brand": "q8",
      "lat": 45.15619532924443,
      "lng": 12.271933878104427,
      "fuels": {
        "sp95": 1.769,
        "gazole": 1.849
      }
    },
    {
      "id": "48571",
      "cp": "",
      "ville": "Chioggia",
      "adresse": "309 romea, km. 86+300 snc, Ravenna - 30015",
      "brand": "Enercoop",
      "lat": 45.19111417703704,
      "lng": 12.277697364418025,
      "fuels": {
        "sp95": 1.739,
        "gazole": 1.819,
        "e85": 1.499,
        "gplc": 0.769
      }
    },
    {
      "id": "10605",
      "cp": "",
      "ville": "Chioggia",
      "adresse": "309 romea, km. 95+200, Chioggia - 30015",
      "brand": "Bc",
      "lat": 45.22722657632611,
      "lng": 12.180063703930728,
      "fuels": {
        "sp95": 1.738,
        "gazole": 1.818
      }
    },
    {
      "id": "9405",
      "cp": "",
      "ville": "Chioggia",
      "adresse": "Borgo San Giovanni 156 30015",
      "brand": "q8",
      "lat": 45.2044265783193,
      "lng": 12.276368418610446,
      "fuels": {
        "sp95": 1.809,
        "gazole": 1.909
      }
    },
    {
      "id": "59810",
      "cp": "",
      "ville": "Chioggia",
      "adresse": "Isola Buon Castello 70 30015",
      "brand": "Pompe Bianche",
      "lat": 45.216488,
      "lng": 12.294207,
      "fuels": {
        "gazole": 1.999
      }
    },
    {
      "id": "6476",
      "cp": "",
      "ville": "Chioggia",
      "adresse": "Padre Erminio Venturini 43 30015",
      "brand": "q8",
      "lat": 45.19431217548432,
      "lng": 12.282079791401657,
      "fuels": {
        "sp95": 1.749,
        "gazole": 1.829
      }
    },
    {
      "id": "52910",
      "cp": "",
      "ville": "Chioggia",
      "adresse": "s.s. 309 Romea Km 84+700 Snc 30015",
      "brand": "Bc",
      "lat": 45.177937927586285,
      "lng": 12.27672815322876,
      "fuels": {
        "sp95": 1.749,
        "gazole": 1.829,
        "e85": 1.419,
        "gplc": 0.769
      }
    },
    {
      "id": "58863",
      "cp": "",
      "ville": "Chioggia",
      "adresse": "s.s. Romea Km 93+768 - loc. Valli - Chioggia (ve)  30015",
      "brand": "Agip Eni",
      "lat": 45.22394215,
      "lng": 12.19738516,
      "fuels": {
        "sp95": 1.824,
        "gazole": 1.889
      }
    },
    {
      "id": "25900",
      "cp": "",
      "ville": "Chioggia",
      "adresse": "s.s.309 Romea -Km 94+395 Snc 30015",
      "brand": "Agip Eni",
      "lat": 45.22498049342693,
      "lng": 12.189781665802002,
      "fuels": {
        "sp95": 1.789,
        "gazole": 1.824
      }
    },
    {
      "id": "59959",
      "cp": "",
      "ville": "Chioggia",
      "adresse": "Saloni 32/D 30015",
      "brand": "Gianni Petroli",
      "lat": 45.22294470846533,
      "lng": 12.277905441802988,
      "fuels": {
        "sp95": 1.875,
        "gazole": 1.949
      }
    },
    {
      "id": "14467",
      "cp": "",
      "ville": "Chioggia",
      "adresse": "Statale 309 romea, km. 94,700, dir. Ravenna-Venezia  30020",
      "brand": "Vallicarburanti",
      "lat": 45.16819237989503,
      "lng": 12.274249792098999,
      "fuels": {
        "sp95": 1.747,
        "gazole": 1.827,
        "gplc": 0.779
      }
    },
    {
      "id": "60582",
      "cp": "",
      "ville": "Chioggia",
      "adresse": "str. Madonna Marina 406  30015",
      "brand": "Vega",
      "lat": 45.20069564883146,
      "lng": 12.285876345136574,
      "fuels": {
        "sp95": 1.739,
        "gazole": 1.819
      }
    },
    {
      "id": "52077",
      "cp": "",
      "ville": "Chioggia",
      "adresse": "Via Rebosola 4 30015",
      "brand": "Agip Eni",
      "lat": 45.20726126013963,
      "lng": 12.27569692313801,
      "fuels": {
        "sp95": 1.789,
        "gazole": 1.834
      }
    },
    {
      "id": "46695",
      "cp": "",
      "ville": "Chioggia",
      "adresse": "Viale Mediterraneo  362 30015",
      "brand": "Agip Eni",
      "lat": 45.19738836349243,
      "lng": 12.291291109262147,
      "fuels": {
        "sp95": 1.829,
        "gazole": 1.909
      }
    },
    {
      "id": "18950",
      "cp": "",
      "ville": "Chioggia",
      "adresse": "Viale Mediterraneo 438 30015",
      "brand": "Coil",
      "lat": 45.19721970386989,
      "lng": 12.289095148444176,
      "fuels": {
        "sp95": 1.745,
        "gazole": 1.825
      }
    },
    {
      "id": "16297",
      "cp": "",
      "ville": "Chioggia",
      "adresse": "Viale Mediterraneo 500 30015, Chioggia (ve) 500 30015",
      "brand": "Esso",
      "lat": 45.19705507864671,
      "lng": 12.286795824766159,
      "fuels": {
        "sp95": 1.799,
        "gazole": 1.869
      }
    },
    {
      "id": "46322",
      "cp": "",
      "ville": "Chioggia",
      "adresse": "Viale Padova 1946 30015",
      "brand": "Esso",
      "lat": 45.21074798159049,
      "lng": 12.290795743465424,
      "fuels": {
        "sp95": 1.789,
        "gazole": 1.859
      }
    },
    {
      "id": "55637",
      "cp": "",
      "ville": "Cinto Caomaggiore",
      "adresse": "Roma 36 30020",
      "brand": "Agip Eni",
      "lat": 45.82847840287769,
      "lng": 12.781874917724627,
      "fuels": {
        "sp95": 1.825,
        "gazole": 1.894
      }
    },
    {
      "id": "61020",
      "cp": "",
      "ville": "Cona",
      "adresse": "Via g. Verdi 13 30010",
      "brand": "San Marco Petroli",
      "lat": 45.18556483961184,
      "lng": 12.018975053073117,
      "fuels": {
        "sp95": 1.741,
        "gazole": 1.812
      }
    },
    {
      "id": "54651",
      "cp": "",
      "ville": "Concordia Sagittaria",
      "adresse": "Levada 42 30023",
      "brand": "Esso",
      "lat": 45.7653894538416,
      "lng": 12.826885034295076,
      "fuels": {
        "sp95": 1.879,
        "gazole": 1.99
      }
    },
    {
      "id": "63106",
      "cp": "",
      "ville": "Concordia Sagittaria",
      "adresse": "Via Levada 42  30023",
      "brand": "Esso",
      "lat": 45.7651989,
      "lng": 12.8263753,
      "fuels": {
        "sp95": 1.779,
        "gazole": 1.829
      }
    },
    {
      "id": "61738",
      "cp": "",
      "ville": "Concordia Sagittaria",
      "adresse": "Via Via Levada - km. 59+320 - s.s. 14 Sn 30023, Concordia Sagittaria (ve)  30023",
      "brand": "San Marco Petroli",
      "lat": 45.755081115561026,
      "lng": 12.79615732628622,
      "fuels": {
        "sp95": 1.789,
        "gazole": 1.859
      }
    },
    {
      "id": "57202",
      "cp": "",
      "ville": "Dolo",
      "adresse": "Autostrada a4 Venezia-padova, dir. Ve/Pd Direzione Ovest",
      "brand": "Agip Eni",
      "lat": 45.44213,
      "lng": 12.051161,
      "fuels": {
        "sp95": 1.859,
        "gazole": 1.919,
        "e85": 1.642,
        "gplc": 0.885
      }
    },
    {
      "id": "24829",
      "cp": "",
      "ville": "Dolo",
      "adresse": "Autostrada a4 Venezia-padova, km. 247+400, dir. Est - 30031",
      "brand": "Agip Eni",
      "lat": 45.44165308890792,
      "lng": 12.053447663784027,
      "fuels": {
        "sp95": 1.859,
        "gazole": 1.919,
        "e85": 1.642,
        "gplc": 0.885
      }
    },
    {
      "id": "26046",
      "cp": "",
      "ville": "Dolo",
      "adresse": "Borsellino 2 30031",
      "brand": "Agip Eni",
      "lat": 45.44618963199842,
      "lng": 12.043011675513474,
      "fuels": {
        "sp95": 1.759,
        "gazole": 1.839,
        "gplc": 0.799
      }
    },
    {
      "id": "39123",
      "cp": "",
      "ville": "Dolo",
      "adresse": "Via Argine Sinistro 29 30031",
      "brand": "Bc",
      "lat": 45.421317592808336,
      "lng": 12.080565467476845,
      "fuels": {
        "sp95": 1.768,
        "gazole": 1.858
      }
    },
    {
      "id": "43429",
      "cp": "",
      "ville": "Dolo",
      "adresse": "Via Argine Sinistro 89 30031",
      "brand": "Pompe Bianche",
      "lat": 45.4179182,
      "lng": 12.0890357,
      "fuels": {
        "sp95": 1.768,
        "gazole": 1.858
      }
    },
    {
      "id": "31449",
      "cp": "",
      "ville": "Dolo",
      "adresse": "Via Borsellino 1 30031",
      "brand": "Vega",
      "lat": 45.44574802509738,
      "lng": 12.042710781097412,
      "fuels": {
        "sp95": 1.759,
        "gazole": 1.839
      }
    },
    {
      "id": "4484",
      "cp": "",
      "ville": "Dolo",
      "adresse": "Via borsellino, Arino Di Dolo 3 30031",
      "brand": "Noaloil",
      "lat": 45.43214853006007,
      "lng": 12.047613859176636,
      "fuels": {
        "sp95": 1.789,
        "gazole": 1.859,
        "gplc": 0.809
      }
    },
    {
      "id": "31543",
      "cp": "",
      "ville": "Dolo",
      "adresse": "Via Martiri Della Liberta' 8 30031",
      "brand": "Vega",
      "lat": 45.42874343824223,
      "lng": 12.107566595077515,
      "fuels": {
        "sp95": 1.759,
        "gazole": 1.849,
        "e85": 1.499,
        "gplc": 0.779
      }
    },
    {
      "id": "52838",
      "cp": "",
      "ville": "Eraclea",
      "adresse": "Dei Fiori 1 30020",
      "brand": "Costantin",
      "lat": 45.549166874767934,
      "lng": 12.746447324752808,
      "fuels": {
        "sp95": 1.847,
        "gazole": 1.897
      }
    },
    {
      "id": "50358",
      "cp": "",
      "ville": "Eraclea",
      "adresse": "Piave 42 30020",
      "brand": "Agip Eni",
      "lat": 45.57610672552268,
      "lng": 12.66898371484285,
      "fuels": {
        "sp95": 1.789,
        "gazole": 1.844
      }
    },
    {
      "id": "24365",
      "cp": "",
      "ville": "Eraclea",
      "adresse": "Via Cadorna 53 30020",
      "brand": "Xoil",
      "lat": 45.636721273697034,
      "lng": 12.680970191540496,
      "fuels": {
        "sp95": 1.759,
        "gazole": 1.859,
        "gplc": 0.749
      }
    },
    {
      "id": "56083",
      "cp": "",
      "ville": "Eraclea",
      "adresse": "Via Fausta 73  30020",
      "brand": "Trivengas",
      "lat": 45.583945,
      "lng": 12.68195,
      "fuels": {
        "sp95": 1.779,
        "gazole": 1.869,
        "gplc": 0.789
      }
    },
    {
      "id": "46321",
      "cp": "",
      "ville": "Eraclea",
      "adresse": "Via Fausta 8 30020",
      "brand": "Esso",
      "lat": 45.57566762084672,
      "lng": 12.67564982175827,
      "fuels": {
        "sp95": 1.779,
        "gazole": 1.849
      }
    },
    {
      "id": "31090",
      "cp": "",
      "ville": "Eraclea",
      "adresse": "Via Triestina Bassa 18 30020",
      "brand": "Sia Fuel",
      "lat": 45.59009420140186,
      "lng": 12.68846869468689,
      "fuels": {
        "sp95": 1.805,
        "gazole": 1.899
      }
    },
    {
      "id": "44613",
      "cp": "",
      "ville": "Fiesso D'Artico",
      "adresse": "Riviera Del Brenta 147 30032",
      "brand": "Tamoil",
      "lat": 45.417114431003284,
      "lng": 12.036791128836057,
      "fuels": {
        "sp95": 1.759,
        "gazole": 1.839
      }
    },
    {
      "id": "52078",
      "cp": "",
      "ville": "Fiesso D'Artico",
      "adresse": "Riviera Del Brenta 312 30032",
      "brand": "Agip Eni",
      "lat": 45.41887841790327,
      "lng": 12.059569339662449,
      "fuels": {
        "sp95": 1.789,
        "gazole": 1.834
      }
    },
    {
      "id": "31541",
      "cp": "",
      "ville": "Fiesso D'Artico",
      "adresse": "Via Riviera Del Brenta  256/A 30032",
      "brand": "Vega",
      "lat": 45.4178265601309,
      "lng": 12.048284411430359,
      "fuels": {
        "sp95": 1.759,
        "gazole": 1.829
      }
    },
    {
      "id": "56727",
      "cp": "",
      "ville": "Fiesso D'Artico",
      "adresse": "Via Riviera Del Brenta 13 30032",
      "brand": "Vega",
      "lat": 45.416467904326325,
      "lng": 12.025243909068633,
      "fuels": {
        "sp95": 1.759,
        "gazole": 1.829
      }
    },
    {
      "id": "57440",
      "cp": "",
      "ville": "Fossalta Di Piave",
      "adresse": "Luigi Cadorna 61/A 30020",
      "brand": "Agip Eni",
      "lat": 45.644560069807454,
      "lng": 12.512523017120367,
      "fuels": {
        "sp95": 1.819,
        "gazole": 1.899
      }
    },
    {
      "id": "37105",
      "cp": "",
      "ville": "Fossalta Di Portogruaro",
      "adresse": "Autostrada a4 Venezia-trieste, km. 456,5, dir. Trieste - 30026",
      "brand": "Esso",
      "lat": 45.80450848297513,
      "lng": 12.888183295726776,
      "fuels": {
        "sp95": 1.799,
        "gazole": 1.887,
        "gplc": 0.885
      }
    },
    {
      "id": "28748",
      "cp": "",
      "ville": "Fossalta Di Portogruaro",
      "adresse": "Piazza Marzotto 1 30025",
      "brand": "Europam",
      "lat": 45.76697624387181,
      "lng": 12.896455228328705,
      "fuels": {
        "sp95": 1.757,
        "gazole": 1.857
      }
    },
    {
      "id": "25845",
      "cp": "",
      "ville": "Fossalta Di Portogruaro",
      "adresse": "s.s. 14 Km 71+776  30025",
      "brand": "Api-Ip",
      "lat": 45.77455789912691,
      "lng": 12.944158271163928,
      "fuels": {
        "sp95": 1.769,
        "gazole": 1.869
      }
    },
    {
      "id": "31520",
      "cp": "",
      "ville": "Fossalta Di Portogruaro",
      "adresse": "Viale Kennedy 12 30025",
      "brand": "Vega",
      "lat": 45.781039946949385,
      "lng": 12.890622809509296,
      "fuels": {
        "sp95": 1.779,
        "gazole": 1.879,
        "gplc": 0.789
      }
    },
    {
      "id": "59844",
      "cp": "",
      "ville": "Fossò",
      "adresse": "Via Pava 15/1  30030",
      "brand": "Agip Eni",
      "lat": 45.3836447,
      "lng": 12.0379739,
      "fuels": {
        "sp95": 1.825,
        "gazole": 1.904,
        "gplc": 0.792
      }
    },
    {
      "id": "61733",
      "cp": "",
      "ville": "Fossò",
      "adresse": "Via Provinciale Sud 181  30030",
      "brand": "San Marco Petroli",
      "lat": 45.37069316891112,
      "lng": 12.045191824436188,
      "fuels": {
        "sp95": 1.825,
        "gazole": 1.905,
        "gplc": 0.775
      }
    },
    {
      "id": "57735",
      "cp": "",
      "ville": "Gruaro",
      "adresse": "Autostrada a28 Portogruaro-conegliano,  km. 1, dir. Conegliano 30020",
      "brand": "Kerotris",
      "lat": 45.80552045052035,
      "lng": 12.818432060675038,
      "fuels": {
        "sp95": 2.289,
        "gazole": 2.272
      }
    },
    {
      "id": "57733",
      "cp": "",
      "ville": "Gruaro",
      "adresse": "Autostrada a28 Portogruaro-conegliano, dir. Portogruaro 30020",
      "brand": "Kerotris",
      "lat": 45.80368057901072,
      "lng": 12.81813165326537,
      "fuels": {
        "sp95": 2.289,
        "gazole": 2.272
      }
    },
    {
      "id": "52235",
      "cp": "",
      "ville": "Gruaro",
      "adresse": "Via De Gasperi 33 30020",
      "brand": "Api-Ip",
      "lat": 45.80130257908414,
      "lng": 12.813655994537339,
      "fuels": {
        "sp95": 1.789,
        "gazole": 1.879
      }
    },
    {
      "id": "58078",
      "cp": "",
      "ville": "Gruaro",
      "adresse": "Via g. Volpi Di Misurata 65 30020",
      "brand": "Esso",
      "lat": 45.83729122987311,
      "lng": 12.853478193283081,
      "fuels": {
        "sp95": 1.779,
        "gazole": 1.849
      }
    },
    {
      "id": "55491",
      "cp": "",
      "ville": "Jesolo",
      "adresse": "Piazza Del Granatiere 36  30016",
      "brand": "Sia Fuel",
      "lat": 45.53581,
      "lng": 12.71936,
      "fuels": {
        "sp95": 1.805,
        "gazole": 1.899
      }
    },
    {
      "id": "60054",
      "cp": "",
      "ville": "Jesolo",
      "adresse": "Roma Destra 215 30016",
      "brand": "Api-Ip",
      "lat": 45.52075539808097,
      "lng": 12.639086544513702,
      "fuels": {
        "sp95": 1.779,
        "gazole": 1.869
      }
    },
    {
      "id": "56216",
      "cp": "",
      "ville": "Jesolo",
      "adresse": "Roma Destra 92 30016",
      "brand": "Api-Ip",
      "lat": 45.505347427138275,
      "lng": 12.626313023499966,
      "fuels": {
        "sp95": 1.699,
        "gazole": 1.799
      }
    },
    {
      "id": "35743",
      "cp": "",
      "ville": "Jesolo",
      "adresse": "Via Adriatico  10 30016",
      "brand": "Costantin",
      "lat": 45.517670805750775,
      "lng": 12.635473880178779,
      "fuels": {
        "sp95": 1.819,
        "gazole": 1.899,
        "gplc": 0.799
      }
    },
    {
      "id": "61706",
      "cp": "",
      "ville": "Jesolo",
      "adresse": "Via Adriatico 22  30016",
      "brand": "San Marco Petroli",
      "lat": 45.548324619504626,
      "lng": 12.601903080940247,
      "fuels": {
        "sp95": 1.819,
        "gazole": 1.899
      }
    },
    {
      "id": "6477",
      "cp": "",
      "ville": "Jesolo",
      "adresse": "Via Aquileia 196 30017",
      "brand": "q8",
      "lat": 45.499038079603714,
      "lng": 12.620494232540864,
      "fuels": {
        "sp95": 1.699,
        "gazole": 1.799
      }
    },
    {
      "id": "21494",
      "cp": "",
      "ville": "Jesolo",
      "adresse": "Via Ca Gamba 41 30016",
      "brand": "Esso",
      "lat": 45.529256296946436,
      "lng": 12.657391279935837,
      "fuels": {
        "sp95": 1.849,
        "gazole": 1.919
      }
    },
    {
      "id": "34901",
      "cp": "",
      "ville": "Jesolo",
      "adresse": "Via Cesare Battisti 107 30016",
      "brand": "Agip Eni",
      "lat": 45.53654092726428,
      "lng": 12.646335884928703,
      "fuels": {
        "sp95": 1.839,
        "gazole": 1.949
      }
    },
    {
      "id": "15872",
      "cp": "",
      "ville": "Jesolo",
      "adresse": "Via Levantina 141 30016",
      "brand": "Esso",
      "lat": 45.51106112812523,
      "lng": 12.656173141664112,
      "fuels": {
        "sp95": 1.859,
        "gazole": 1.929
      }
    },
    {
      "id": "11940",
      "cp": "",
      "ville": "Jesolo",
      "adresse": "Via Mameli 44 30016",
      "brand": "q8",
      "lat": 45.50947368464296,
      "lng": 12.644187347221305,
      "fuels": {
        "sp95": 1.799,
        "gazole": 1.899
      }
    },
    {
      "id": "32882",
      "cp": "",
      "ville": "Jesolo",
      "adresse": "Via Mameli 58 30016",
      "brand": "Agip Eni",
      "lat": 45.51145601508819,
      "lng": 12.643178196958957,
      "fuels": {
        "sp95": 1.804,
        "gazole": 1.904
      }
    },
    {
      "id": "40351",
      "cp": "",
      "ville": "Jesolo",
      "adresse": "Via Roma Destra 231 30016",
      "brand": "Tamoil",
      "lat": 45.501251357192025,
      "lng": 12.614548355340958,
      "fuels": {
        "sp95": 1.729,
        "gazole": 1.819
      }
    },
    {
      "id": "22821",
      "cp": "",
      "ville": "Jesolo",
      "adresse": "Via Roma Destra 235 30016",
      "brand": "Esso",
      "lat": 45.49857613428723,
      "lng": 12.606513798236847,
      "fuels": {
        "sp95": 1.809,
        "gazole": 1.899
      }
    },
    {
      "id": "45513",
      "cp": "",
      "ville": "Jesolo",
      "adresse": "Via Roma Sinistra  (s.p. 42 jesolana) 29 30016",
      "brand": "Energas",
      "lat": 45.54407278513332,
      "lng": 12.651196550926215,
      "fuels": {
        "sp95": 1.775,
        "gazole": 1.865,
        "gplc": 0.789
      }
    },
    {
      "id": "10676",
      "cp": "",
      "ville": "Jesolo",
      "adresse": "Via Roma Sinistra 136 30016",
      "brand": "Af Petroli",
      "lat": 45.55039553325503,
      "lng": 12.660872487238407,
      "fuels": {
        "sp95": 1.775,
        "gazole": 1.865
      }
    },
    {
      "id": "10929",
      "cp": "",
      "ville": "Jesolo",
      "adresse": "Via Via Roma Destra 187 30016, Jesolo (ve) 187 30016",
      "brand": "Api-Ip",
      "lat": 45.52394996697288,
      "lng": 12.640253644180348,
      "fuels": {
        "sp95": 1.779,
        "gazole": 1.859
      }
    },
    {
      "id": "53390",
      "cp": "",
      "ville": "Jesolo",
      "adresse": "Via Via Roma Sx 85 30016, Jesolo (ve) Sx 85 30016",
      "brand": "Europam",
      "lat": 45.55629,
      "lng": 12.66877,
      "fuels": {
        "sp95": 1.767,
        "gazole": 1.857,
        "gplc": 0.877
      }
    },
    {
      "id": "39158",
      "cp": "",
      "ville": "Marcon",
      "adresse": "Via Della Costituzione  30020",
      "brand": "Vega",
      "lat": 45.54983322489029,
      "lng": 12.294860157008316,
      "fuels": {
        "sp95": 1.769,
        "gazole": 1.849,
        "gplc": 0.779
      }
    },
    {
      "id": "48226",
      "cp": "",
      "ville": "Marcon",
      "adresse": "Via Mattei 9/A 30020",
      "brand": "q8",
      "lat": 45.548018296965076,
      "lng": 12.30475570022091,
      "fuels": {
        "sp95": 1.789,
        "gazole": 1.849
      }
    },
    {
      "id": "11944",
      "cp": "",
      "ville": "Marcon",
      "adresse": "Viale San Marco 1 30020",
      "brand": "q8",
      "lat": 45.55483005046449,
      "lng": 12.298438309192647,
      "fuels": {
        "sp95": 1.819,
        "gazole": 1.879
      }
    },
    {
      "id": "25904",
      "cp": "",
      "ville": "Martellago",
      "adresse": "s.s. 245  30030",
      "brand": "Agip Eni",
      "lat": 45.55156208648023,
      "lng": 12.143492102622986,
      "fuels": {
        "sp95": 1.789,
        "gazole": 1.824
      }
    },
    {
      "id": "11947",
      "cp": "",
      "ville": "Martellago",
      "adresse": "Via Olmo  Localita' Olmo 110 30030",
      "brand": "q8",
      "lat": 45.520556776147835,
      "lng": 12.17110997056966,
      "fuels": {
        "sp95": 1.699,
        "gazole": 1.799
      }
    },
    {
      "id": "54669",
      "cp": "",
      "ville": "Martellago",
      "adresse": "Via Roma 42  30030",
      "brand": "Pompe Bianche",
      "lat": 45.534824,
      "lng": 12.1520339,
      "fuels": {
        "sp95": 1.699,
        "gazole": 1.799,
        "e85": 1.549,
        "gplc": 0.735
      }
    },
    {
      "id": "33677",
      "cp": "",
      "ville": "Martellago",
      "adresse": "Via Roma 89/C 30030",
      "brand": "Noaloil",
      "lat": 45.538249637775344,
      "lng": 12.153376042842865,
      "fuels": {
        "sp95": 1.749,
        "gazole": 1.829
      }
    },
    {
      "id": "20967",
      "cp": "",
      "ville": "Martellago",
      "adresse": "Via Via Circonvallazione 31 30030, Martellago (ve) 37 30030",
      "brand": "Api-Ip",
      "lat": 45.520312418478255,
      "lng": 12.15027187076646,
      "fuels": {
        "sp95": 1.739,
        "gazole": 1.819
      }
    },
    {
      "id": "61698",
      "cp": "",
      "ville": "Meolo",
      "adresse": "Via Treviso Mare 26  30020",
      "brand": "San Marco Petroli",
      "lat": 45.623019061430824,
      "lng": 12.472625970840454,
      "fuels": {
        "sp95": 1.759,
        "gazole": 1.865,
        "gplc": 0.785
      }
    },
    {
      "id": "45346",
      "cp": "",
      "ville": "Mira",
      "adresse": "Romea 309 30034",
      "brand": "Tamoil",
      "lat": 45.406235883113396,
      "lng": 12.153695671163973,
      "fuels": {
        "sp95": 1.749,
        "gazole": 1.819
      }
    },
    {
      "id": "50197",
      "cp": "",
      "ville": "Mira",
      "adresse": "s.r 11 Km 410  30034",
      "brand": "Api-Ip",
      "lat": 45.450313836948574,
      "lng": 12.168442262910762,
      "fuels": {
        "sp95": 1.749,
        "gazole": 1.829
      }
    },
    {
      "id": "6479",
      "cp": "",
      "ville": "Mira",
      "adresse": "s.s. 11 km. 408.729 distr.q8 Snc 30034",
      "brand": "q8",
      "lat": 45.44271797602183,
      "lng": 12.14904730185242,
      "fuels": {
        "sp95": 1.719,
        "gazole": 1.859
      }
    },
    {
      "id": "35966",
      "cp": "",
      "ville": "Mira",
      "adresse": "Statale 11 Padana superiore, km. 307, dir. Padova Venezia - 30034",
      "brand": "Esso",
      "lat": 45.43550712653844,
      "lng": 12.129927575588226,
      "fuels": {
        "sp95": 1.799,
        "gazole": 1.869
      }
    },
    {
      "id": "33073",
      "cp": "",
      "ville": "Mira",
      "adresse": "Statale 309 romea, km. 116 -600, dir. Dx - 30034",
      "brand": "Pompe Bianche",
      "lat": 45.399312554514594,
      "lng": 12.14530661702156,
      "fuels": {
        "sp95": 1.729,
        "gazole": 1.829
      }
    },
    {
      "id": "29182",
      "cp": "",
      "ville": "Mira",
      "adresse": "Statale 309 romea, km. 122, dir. Ravenna 18 30034",
      "brand": "Esso",
      "lat": 45.43440153757959,
      "lng": 12.190971225500107,
      "fuels": {
        "sp95": 1.789,
        "gazole": 1.859,
        "gplc": 0.809
      }
    },
    {
      "id": "61551",
      "cp": "",
      "ville": "Mira",
      "adresse": "Statale Romea 309 30034",
      "brand": "Pompe Bianche",
      "lat": 45.42866,
      "lng": 12.183231,
      "fuels": {
        "sp95": 1.729,
        "gazole": 1.819
      }
    },
    {
      "id": "59276",
      "cp": "",
      "ville": "Mira",
      "adresse": "Statale Romea 52 30034",
      "brand": "Ego",
      "lat": 45.42486590712643,
      "lng": 12.176976878393928,
      "fuels": {
        "sp95": 1.959,
        "gazole": 1.999
      }
    },
    {
      "id": "12735",
      "cp": "",
      "ville": "Mira",
      "adresse": "Via Brianza s.p.81  30034",
      "brand": "Api-Ip",
      "lat": 45.46220693267149,
      "lng": 12.16762125492096,
      "fuels": {
        "sp95": 1.739,
        "gazole": 1.819
      }
    },
    {
      "id": "30686",
      "cp": "",
      "ville": "Mira",
      "adresse": "Via Nazionale 270 30034",
      "brand": "Agip Eni",
      "lat": 45.437585993934654,
      "lng": 12.132971933204658,
      "fuels": {
        "sp95": 1.809,
        "gazole": 1.899
      }
    },
    {
      "id": "17593",
      "cp": "",
      "ville": "Mira",
      "adresse": "Via Xxv  Aprile 74/C 30030",
      "brand": "Noaloil",
      "lat": 45.41981430826916,
      "lng": 12.153613418340683,
      "fuels": {
        "sp95": 1.759,
        "gazole": 1.849,
        "gplc": 0.789
      }
    },
    {
      "id": "31532",
      "cp": "",
      "ville": "Mirano",
      "adresse": "s.p. 81 Viale Venezia 3/B 30035",
      "brand": "Vega",
      "lat": 45.48585398916259,
      "lng": 12.122041733204696,
      "fuels": {
        "sp95": 1.779,
        "gazole": 1.879,
        "gplc": 0.779
      }
    },
    {
      "id": "48173",
      "cp": "",
      "ville": "Mirano",
      "adresse": "Via Cavin Di Sala 259 30035",
      "brand": "Agip Eni",
      "lat": 45.50072820636262,
      "lng": 12.054689693609134,
      "fuels": {
        "sp95": 1.809,
        "gazole": 1.889,
        "gplc": 0.749
      }
    },
    {
      "id": "21464",
      "cp": "",
      "ville": "Mirano",
      "adresse": "Via Della Vittoria 116 30035",
      "brand": "Agip Eni",
      "lat": 45.49232216048309,
      "lng": 12.121470899999963,
      "fuels": {
        "sp95": 1.804,
        "gazole": 1.884
      }
    },
    {
      "id": "54442",
      "cp": "",
      "ville": "Mirano",
      "adresse": "Via Della Vittoria 86  30035",
      "brand": "Vega",
      "lat": 45.49132558453663,
      "lng": 12.11775368710127,
      "fuels": {
        "sp95": 1.779,
        "gazole": 1.879
      }
    },
    {
      "id": "40085",
      "cp": "",
      "ville": "Mirano",
      "adresse": "Via Luneo 31/B 30035",
      "brand": "Loro",
      "lat": 45.510496629458174,
      "lng": 12.122344896197319,
      "fuels": {
        "sp95": 1.759,
        "gazole": 1.849
      }
    },
    {
      "id": "52035",
      "cp": "",
      "ville": "Mirano",
      "adresse": "Via Scaltenigo 2 30035",
      "brand": "Trivengas",
      "lat": 45.48834827290236,
      "lng": 12.101349343585959,
      "fuels": {
        "sp95": 1.779,
        "gazole": 1.869,
        "gplc": 0.779
      }
    },
    {
      "id": "7929",
      "cp": "",
      "ville": "Mirano",
      "adresse": "Via Vetrego 24 30035",
      "brand": "Agip Eni",
      "lat": 45.46585707274379,
      "lng": 12.107405662536621,
      "fuels": {
        "sp95": 1.809,
        "gazole": 1.909,
        "e85": 1.399,
        "gplc": 0.779
      }
    },
    {
      "id": "12906",
      "cp": "",
      "ville": "Mirano",
      "adresse": "Via Vittoria 96 30035",
      "brand": "Europam",
      "lat": 45.4918630774028,
      "lng": 12.119456827640533,
      "fuels": {
        "sp95": 1.837,
        "gazole": 1.947
      }
    },
    {
      "id": "58267",
      "cp": "",
      "ville": "Mirano",
      "adresse": "Viale Venezia 2  30035",
      "brand": "Vega",
      "lat": 45.486594075105856,
      "lng": 12.126747261150166,
      "fuels": {
        "sp95": 1.779,
        "gazole": 1.879
      }
    },
    {
      "id": "31540",
      "cp": "",
      "ville": "Musile Di Piave",
      "adresse": "s.s. 14 Via Triestina 2 30024",
      "brand": "Vega",
      "lat": 45.622546880264004,
      "lng": 12.54982535819704,
      "fuels": {
        "sp95": 1.759,
        "gazole": 1.849,
        "gplc": 0.789
      }
    },
    {
      "id": "59180",
      "cp": "",
      "ville": "Musile Di Piave",
      "adresse": "Via Marconi - Ss 14 84",
      "brand": "Agip Eni",
      "lat": 45.622623,
      "lng": 12.55422,
      "fuels": {
        "sp95": 1.779,
        "gazole": 1.869
      }
    },
    {
      "id": "45670",
      "cp": "",
      "ville": "Musile Di Piave",
      "adresse": "Via Variante Treviso Mare 1 30024",
      "brand": "Pompe Bianche",
      "lat": 45.60332814798706,
      "lng": 12.520718368053409,
      "fuels": {
        "sp95": 1.759,
        "gazole": 1.849,
        "gplc": 0.798
      }
    },
    {
      "id": "55130",
      "cp": "",
      "ville": "Noale",
      "adresse": "Bregolini 80 30033",
      "brand": "Agip Eni",
      "lat": 45.53280857784136,
      "lng": 12.050531792423046,
      "fuels": {
        "sp95": 1.829,
        "gazole": 1.919
      }
    },
    {
      "id": "31214",
      "cp": "",
      "ville": "Noale",
      "adresse": "Via Capitelmozzo  30033",
      "brand": "Sia Fuel",
      "lat": 45.56144989422905,
      "lng": 12.07670509815216,
      "fuels": {
        "sp95": 1.789,
        "gazole": 1.859
      }
    },
    {
      "id": "4481",
      "cp": "",
      "ville": "Noale",
      "adresse": "Via Crosarona 99 30033",
      "brand": "Noaloil",
      "lat": 45.575480771152556,
      "lng": 12.073034003179941,
      "fuels": {
        "sp95": 1.789,
        "gazole": 1.859,
        "gplc": 0.809
      }
    },
    {
      "id": "60992",
      "cp": "",
      "ville": "Noale",
      "adresse": "Via Guecello g. Tempesta 29 30033",
      "brand": "Esso",
      "lat": 45.551850867665394,
      "lng": 12.072077784763188,
      "fuels": {
        "sp95": 1.799,
        "gazole": 1.859
      }
    },
    {
      "id": "23909",
      "cp": "",
      "ville": "Noale",
      "adresse": "Via Noalese Sud 24 30033",
      "brand": "q8",
      "lat": 45.539894661798854,
      "lng": 12.064339478504166,
      "fuels": {
        "sp95": 1.869,
        "gazole": 1.989
      }
    },
    {
      "id": "10477",
      "cp": "",
      "ville": "Noventa Di Piave",
      "adresse": "Via Calnova 61 30020",
      "brand": "Agip Eni",
      "lat": 45.66683376782839,
      "lng": 12.534380321426397,
      "fuels": {
        "sp95": 1.859,
        "gazole": 1.954
      }
    },
    {
      "id": "31184",
      "cp": "",
      "ville": "Noventa Di Piave",
      "adresse": "Via Roma  68 30020",
      "brand": "q8",
      "lat": 45.658886283103975,
      "lng": 12.531731128692627,
      "fuels": {
        "sp95": 1.779,
        "gazole": 1.819
      }
    },
    {
      "id": "20117",
      "cp": "",
      "ville": "Noventa Di Piave",
      "adresse": "Via Roma 154 30020",
      "brand": "Api-Ip",
      "lat": 45.656113198459494,
      "lng": 12.535303831100464,
      "fuels": {
        "sp95": 1.759,
        "gazole": 1.839
      }
    },
    {
      "id": "49724",
      "cp": "",
      "ville": "Noventa Di Piave",
      "adresse": "Via Roma 188 30020",
      "brand": "Esso",
      "lat": 45.65369958383239,
      "lng": 12.538194656372065,
      "fuels": {
        "sp95": 1.779,
        "gazole": 1.849
      }
    },
    {
      "id": "57691",
      "cp": "",
      "ville": "Pianiga",
      "adresse": "s.s. 515 Noalese Nord 13 30030",
      "brand": "Agip Eni",
      "lat": 45.46025749904923,
      "lng": 11.994511748001292,
      "fuels": {
        "sp95": 1.809,
        "gazole": 1.904
      }
    },
    {
      "id": "47666",
      "cp": "",
      "ville": "Pianiga",
      "adresse": "Strada statale, km. 5, Treviso - 30030",
      "brand": "Tamoil",
      "lat": 45.468572000123,
      "lng": 11.998034000123,
      "fuels": {
        "sp95": 1.759,
        "gazole": 1.829,
        "gplc": 0.769
      }
    },
    {
      "id": "61656",
      "cp": "",
      "ville": "Pianiga",
      "adresse": "Via Accoppè 3 30030",
      "brand": "Toil",
      "lat": 45.45475358065874,
      "lng": 12.04864650964737,
      "fuels": {
        "sp95": 1.805,
        "gazole": 1.894,
        "gplc": 0.779
      }
    },
    {
      "id": "55432",
      "cp": "",
      "ville": "Pianiga",
      "adresse": "Via Marinoni 130 30030",
      "brand": "Agip Eni",
      "lat": 45.7094917,
      "lng": 11.3621406,
      "fuels": {
        "sp95": 1.814,
        "gazole": 1.909,
        "e85": 1.318,
        "gplc": 0.782
      }
    },
    {
      "id": "15474",
      "cp": "",
      "ville": "Pianiga",
      "adresse": "Via Noalese Sud 55 30030",
      "brand": "Agip Eni",
      "lat": 45.457278770231206,
      "lng": 11.993375626983607,
      "fuels": {
        "sp95": 1.814,
        "gazole": 1.919
      }
    },
    {
      "id": "38608",
      "cp": "",
      "ville": "Pianiga",
      "adresse": "Via Stazione 2 30030",
      "brand": "Agip Eni",
      "lat": 45.45010195609574,
      "lng": 12.077631801366806,
      "fuels": {
        "sp95": 1.809,
        "gazole": 1.919
      }
    },
    {
      "id": "47013",
      "cp": "",
      "ville": "Portogruaro",
      "adresse": "14 Della Venezia giulia, km. 63 + 350, Trieste - 30026",
      "brand": "Esso",
      "lat": 45.776920297514465,
      "lng": 12.863217874983093,
      "fuels": {
        "sp95": 1.779,
        "gazole": 1.849
      }
    },
    {
      "id": "43243",
      "cp": "",
      "ville": "Portogruaro",
      "adresse": "Majorana 4 30026",
      "brand": "Pompe Bianche",
      "lat": 45.76406125770358,
      "lng": 12.80807281349189,
      "fuels": {
        "sp95": 1.855,
        "gazole": 1.955
      }
    },
    {
      "id": "59515",
      "cp": "",
      "ville": "Portogruaro",
      "adresse": "Odorico Da Pordenone 10 30026",
      "brand": "Beyfin",
      "lat": 45.785455692656186,
      "lng": 12.81846836776733,
      "fuels": {
        "sp95": 1.779,
        "gazole": 1.849,
        "gplc": 0.779
      }
    },
    {
      "id": "8622",
      "cp": "",
      "ville": "Portogruaro",
      "adresse": "Ss 14 Km 64,200  30026",
      "brand": "Api-Ip",
      "lat": 45.77494274156673,
      "lng": 12.848509728836007,
      "fuels": {
        "sp95": 1.799,
        "gazole": 1.869
      }
    },
    {
      "id": "35918",
      "cp": "",
      "ville": "Portogruaro",
      "adresse": "Statale 251 Della Val Di Zoldo E Val cellina, km. 251+1, dir. Portogruaro - 30026",
      "brand": "Tamoil",
      "lat": 45.78484415902903,
      "lng": 12.831355333328247,
      "fuels": {
        "sp95": 1.779,
        "gazole": 1.879
      }
    },
    {
      "id": "51300",
      "cp": "",
      "ville": "Portogruaro",
      "adresse": "Trieste 193 30026",
      "brand": "Europam",
      "lat": 45.78010578062291,
      "lng": 12.87640739597009,
      "fuels": {
        "sp95": 1.757,
        "gazole": 1.857,
        "gplc": 0.789
      }
    },
    {
      "id": "60899",
      "cp": "",
      "ville": "Portogruaro",
      "adresse": "Venezia 40 30026",
      "brand": "Beyfin",
      "lat": 45.76819,
      "lng": 12.83323,
      "fuels": {
        "sp95": 1.779,
        "gazole": 1.849
      }
    },
    {
      "id": "4007",
      "cp": "",
      "ville": "Portogruaro",
      "adresse": "Via Casalonga 52 30026",
      "brand": "Agip Eni",
      "lat": 45.775438363414864,
      "lng": 12.879675328731537,
      "fuels": {
        "e85": 1.399
      }
    },
    {
      "id": "49878",
      "cp": "",
      "ville": "Portogruaro",
      "adresse": "Via Fausta 133 30026",
      "brand": "Esso",
      "lat": 45.72146984979191,
      "lng": 12.915125489234919,
      "fuels": {
        "sp95": 1.779,
        "gazole": 1.849
      }
    },
    {
      "id": "52103",
      "cp": "",
      "ville": "Portogruaro",
      "adresse": "Via Prati Guori 29 30026",
      "brand": "Conad",
      "lat": 45.792524486037664,
      "lng": 12.817790080186468,
      "fuels": {
        "sp95": 1.758,
        "gazole": 1.848
      }
    },
    {
      "id": "31536",
      "cp": "",
      "ville": "Portogruaro",
      "adresse": "Viale Cadorna 66 30026",
      "brand": "Vega",
      "lat": 45.774378002810884,
      "lng": 12.824510335922241,
      "fuels": {
        "sp95": 1.779,
        "gazole": 1.879,
        "gplc": 0.789
      }
    },
    {
      "id": "54633",
      "cp": "",
      "ville": "Portogruaro",
      "adresse": "Viale Pordenone 78 30026",
      "brand": "Agip Eni",
      "lat": 45.796906,
      "lng": 12.818943,
      "fuels": {
        "sp95": 1.829,
        "gazole": 1.889
      }
    },
    {
      "id": "41686",
      "cp": "",
      "ville": "Portogruaro",
      "adresse": "Viale Treviso 154 30026",
      "brand": "gabogas2",
      "lat": 45.788681364569385,
      "lng": 12.750698087033015,
      "fuels": {
        "sp95": 1.747,
        "gazole": 1.827,
        "e85": 1.397,
        "gplc": 0.687
      }
    },
    {
      "id": "11939",
      "cp": "",
      "ville": "Portogruaro",
      "adresse": "Viale Trieste 27 30026",
      "brand": "q8",
      "lat": 45.775133673994134,
      "lng": 12.84533218650813,
      "fuels": {
        "sp95": 1.799,
        "gazole": 1.889
      }
    },
    {
      "id": "25902",
      "cp": "",
      "ville": "Portogruaro",
      "adresse": "Viale Venezia 19 30026",
      "brand": "Agip Eni",
      "lat": 45.768092191443884,
      "lng": 12.83413293254091,
      "fuels": {
        "sp95": 1.789,
        "gazole": 1.824
      }
    },
    {
      "id": "46981",
      "cp": "",
      "ville": "Pramaggiore",
      "adresse": "53 postumia, km. 106887, Portogruaro 80 30020",
      "brand": "q8",
      "lat": 45.80019669913888,
      "lng": 12.727960869669914,
      "fuels": {
        "sp95": 1.769,
        "gazole": 1.859,
        "gplc": 0.697
      }
    },
    {
      "id": "56404",
      "cp": "",
      "ville": "Quarto D'Altino",
      "adresse": "Trezze 26 30020",
      "brand": "Benza",
      "lat": 45.559858151723994,
      "lng": 12.458843703926563,
      "fuels": {
        "sp95": 1.769,
        "gazole": 1.859,
        "gplc": 0.745
      }
    },
    {
      "id": "16813",
      "cp": "",
      "ville": "Quarto D'Altino",
      "adresse": "Via Roma 32, 30020 32 30020",
      "brand": "Agip Eni",
      "lat": 45.5816103928115,
      "lng": 12.367015043944093,
      "fuels": {
        "sp95": 1.824,
        "gazole": 1.909
      }
    },
    {
      "id": "14227",
      "cp": "",
      "ville": "Salzano",
      "adresse": "Via De Gasperi 62 30030",
      "brand": "Bolgan",
      "lat": 45.51920206343987,
      "lng": 12.11026996627038,
      "fuels": {
        "sp95": 1.777,
        "gazole": 1.867
      }
    },
    {
      "id": "61510",
      "cp": "",
      "ville": "Salzano",
      "adresse": "Via Roma 208  84121",
      "brand": "Esso",
      "lat": 45.51598519176676,
      "lng": 12.017054773773346,
      "fuels": {
        "sp95": 1.779,
        "gazole": 1.869
      }
    },
    {
      "id": "25869",
      "cp": "",
      "ville": "Salzano",
      "adresse": "Via Xxv Aprile 9 30030",
      "brand": "Agip Eni",
      "lat": 45.54234694978554,
      "lng": 12.119770646095276,
      "fuels": {
        "sp95": 1.789,
        "gazole": 1.824
      }
    },
    {
      "id": "60227",
      "cp": "",
      "ville": "San Donà Di Piave",
      "adresse": "Calnova 39 30027",
      "brand": "Api-Ip",
      "lat": 45.6322069,
      "lng": 12.5925859,
      "fuels": {
        "sp95": 1.819,
        "gazole": 1.899
      }
    },
    {
      "id": "51556",
      "cp": "",
      "ville": "San Donà Di Piave",
      "adresse": "Martiri Delle Foibe 1 30027",
      "brand": "Agip Eni",
      "lat": 45.64769542704603,
      "lng": 12.58810894439088,
      "fuels": {
        "sp95": 1.799,
        "gazole": 1.899,
        "gplc": 0.789
      }
    },
    {
      "id": "49209",
      "cp": "",
      "ville": "San Donà Di Piave",
      "adresse": "Via Calvecchia 31 30027",
      "brand": "Trivengas",
      "lat": 45.642078953317565,
      "lng": 12.591876195119172,
      "fuels": {
        "sp95": 1.779,
        "gazole": 1.869,
        "e85": 1.549,
        "gplc": 0.789
      }
    },
    {
      "id": "6478",
      "cp": "",
      "ville": "San Donà Di Piave",
      "adresse": "Via Caposile 37 30024",
      "brand": "q8",
      "lat": 45.55839957582311,
      "lng": 12.576136871163953,
      "fuels": {
        "sp95": 1.779,
        "gazole": 1.879
      }
    },
    {
      "id": "41112",
      "cp": "",
      "ville": "San Donà Di Piave",
      "adresse": "Via Dei Laghi 15 30027",
      "brand": "Vega",
      "lat": 45.640327834214716,
      "lng": 12.600222412303197,
      "fuels": {
        "sp95": 1.759,
        "gazole": 1.849
      }
    },
    {
      "id": "31670",
      "cp": "",
      "ville": "San Donà Di Piave",
      "adresse": "Via Gondulmera 5 30027",
      "brand": "Agip Eni",
      "lat": 45.65586347915801,
      "lng": 12.545965611934662,
      "fuels": {
        "e85": 1.369
      }
    },
    {
      "id": "4485",
      "cp": "",
      "ville": "San Donà Di Piave",
      "adresse": "Via Martiri Delle Foibe 10 30027",
      "brand": "Noaloil",
      "lat": 45.64848234225118,
      "lng": 12.587787079513646,
      "fuels": {
        "sp95": 1.769,
        "gazole": 1.849,
        "e85": 1.459,
        "gplc": 0.799
      }
    },
    {
      "id": "58347",
      "cp": "",
      "ville": "San Donà Di Piave",
      "adresse": "Via Noventa 150",
      "brand": "Agip Eni",
      "lat": 45.650166,
      "lng": 12.543545,
      "fuels": {
        "sp95": 1.809,
        "gazole": 1.889,
        "gplc": 0.754
      }
    },
    {
      "id": "24230",
      "cp": "",
      "ville": "San Donà Di Piave",
      "adresse": "Via Noventa 88 30027",
      "brand": "q8",
      "lat": 45.64451612178344,
      "lng": 12.550498195700811,
      "fuels": {
        "sp95": 1.779,
        "gazole": 1.819
      }
    },
    {
      "id": "11943",
      "cp": "",
      "ville": "San Donà Di Piave",
      "adresse": "Via Vizzotto 42 30027",
      "brand": "q8",
      "lat": 45.63049624875402,
      "lng": 12.578718017196707,
      "fuels": {
        "sp95": 1.779,
        "gazole": 1.849
      }
    },
    {
      "id": "18279",
      "cp": "",
      "ville": "San Donà Di Piave",
      "adresse": "Vizzotto 64 30027",
      "brand": "Agip Eni",
      "lat": 45.63061939705855,
      "lng": 12.5802643597126,
      "fuels": {
        "sp95": 1.779,
        "gazole": 1.849
      }
    },
    {
      "id": "12877",
      "cp": "",
      "ville": "San Michele Al Tagliamento",
      "adresse": "Cesarolo 2 30020",
      "brand": "Agip Eni",
      "lat": 45.71268511562467,
      "lng": 13.012649894008405,
      "fuels": {
        "sp95": 1.869,
        "gazole": 1.959,
        "gplc": 0.799
      }
    },
    {
      "id": "60731",
      "cp": "",
      "ville": "San Michele Al Tagliamento",
      "adresse": "Corso Del Sole",
      "brand": "Agip Eni",
      "lat": 45.63969,
      "lng": 13.0612955,
      "fuels": {
        "sp95": 1.844,
        "gazole": 1.919
      }
    },
    {
      "id": "63033",
      "cp": "",
      "ville": "San Michele Al Tagliamento",
      "adresse": "Corso Del Sole 13 30028",
      "brand": "Esso",
      "lat": 45.64166698394274,
      "lng": 13.061455511822414,
      "fuels": {
        "sp95": 1.779,
        "gazole": 1.849
      }
    },
    {
      "id": "11942",
      "cp": "",
      "ville": "San Michele Al Tagliamento",
      "adresse": "fz.bibione - Via Pineda 21/B 30028",
      "brand": "q8",
      "lat": 45.65047124831579,
      "lng": 13.060966296958895,
      "fuels": {
        "sp95": 1.779,
        "gazole": 1.849
      }
    },
    {
      "id": "7284",
      "cp": "",
      "ville": "San Michele Al Tagliamento",
      "adresse": "loc.case Bruciate Sn 30028",
      "brand": "q8",
      "lat": 45.74573974352555,
      "lng": 12.990383271163978,
      "fuels": {
        "sp95": 1.799,
        "gazole": 1.899,
        "gplc": 0.799
      }
    },
    {
      "id": "56693",
      "cp": "",
      "ville": "San Michele Al Tagliamento",
      "adresse": "Via a. Venudo 58  30028",
      "brand": "Sia Fuel",
      "lat": 45.7720395,
      "lng": 12.9672231,
      "fuels": {
        "sp95": 1.799,
        "gazole": 1.899
      }
    },
    {
      "id": "26159",
      "cp": "",
      "ville": "San Stino Di Livenza",
      "adresse": "Corso Cavour Sp 42 30020",
      "brand": "Sia Fuel",
      "lat": 45.661448527190814,
      "lng": 12.802551090717316,
      "fuels": {
        "sp95": 1.795,
        "gazole": 1.885
      }
    },
    {
      "id": "15360",
      "cp": "",
      "ville": "San Stino Di Livenza",
      "adresse": "Via Caorle 1 30029, San Stino Di Livenza (ve) 1 30029",
      "brand": "Tamoil",
      "lat": 45.72234561764119,
      "lng": 12.702284633274076,
      "fuels": {
        "sp95": 1.689,
        "gazole": 1.649,
        "e85": 1.169,
        "gplc": 0.659
      }
    },
    {
      "id": "63190",
      "cp": "",
      "ville": "San Stino Di Livenza",
      "adresse": "Via Caorle 70 30029",
      "brand": "Loro",
      "lat": 45.72058273530431,
      "lng": 12.718888163366064,
      "fuels": {
        "sp95": 1.779,
        "gazole": 1.879,
        "sp98": 1.879
      }
    },
    {
      "id": "10826",
      "cp": "",
      "ville": "San Stino Di Livenza",
      "adresse": "Via s.pellico 15 30020",
      "brand": "Agip Eni",
      "lat": 45.647984492662324,
      "lng": 12.794631982803367,
      "fuels": {
        "sp95": 1.809,
        "gazole": 1.909
      }
    },
    {
      "id": "53751",
      "cp": "",
      "ville": "San Stino Di Livenza",
      "adresse": "Via Triestina 27  30173",
      "brand": "Agip Eni",
      "lat": 45.72409,
      "lng": 12.702181,
      "fuels": {
        "sp95": 1.799,
        "gazole": 1.879
      }
    },
    {
      "id": "37293",
      "cp": "",
      "ville": "San Stino Di Livenza",
      "adresse": "Via Volta La Salute Di Livenza 8 30029",
      "brand": "Sia Fuel",
      "lat": 45.65293931783306,
      "lng": 12.833163812756538,
      "fuels": {
        "sp95": 1.795,
        "gazole": 1.885,
        "gplc": 0.799
      }
    },
    {
      "id": "15964",
      "cp": "",
      "ville": "San Stino Di Livenza",
      "adresse": "Viale Trieste 1 30029",
      "brand": "Api-Ip",
      "lat": 45.72935059946888,
      "lng": 12.683653527668525,
      "fuels": {
        "sp95": 1.787,
        "gazole": 1.887
      }
    },
    {
      "id": "6480",
      "cp": "",
      "ville": "Santa Maria Di Sala",
      "adresse": "s.s.515 Snc 30036",
      "brand": "q8",
      "lat": 45.506951504952035,
      "lng": 12.023563657147179,
      "fuels": {
        "sp95": 1.757,
        "gazole": 1.829
      }
    },
    {
      "id": "19577",
      "cp": "",
      "ville": "Santa Maria Di Sala",
      "adresse": "Via marinoni, 32/D 32/D 30030, Santa Maria Di Sala (ve) 32/D 30036",
      "brand": "q8",
      "lat": 45.47436287743582,
      "lng": 12.027558982372284,
      "fuels": {
        "sp95": 1.819,
        "gazole": 1.919
      }
    },
    {
      "id": "57627",
      "cp": "",
      "ville": "Scorzè",
      "adresse": "Nuova Variante Di Scorzè Noale 200+4 Lato Dx 1 30037",
      "brand": "Sia Fuel",
      "lat": 45.55846210435513,
      "lng": 12.125835873413102,
      "fuels": {
        "sp95": 1.789,
        "gazole": 1.859,
        "gplc": 0.735
      }
    },
    {
      "id": "8613",
      "cp": "",
      "ville": "Scorzè",
      "adresse": "Via a. Cercariolo 23 30037",
      "brand": "Api-Ip",
      "lat": 45.57095987724514,
      "lng": 12.111228480935097,
      "fuels": {
        "sp95": 1.789,
        "gazole": 1.889
      }
    },
    {
      "id": "49387",
      "cp": "",
      "ville": "Scorzè",
      "adresse": "Via Castellana 59/63 30037",
      "brand": "Agip Eni",
      "lat": 45.57753595440216,
      "lng": 12.085009413744947,
      "fuels": {
        "sp95": 1.829,
        "gazole": 1.909,
        "gplc": 0.759
      }
    },
    {
      "id": "24313",
      "cp": "",
      "ville": "Scorzè",
      "adresse": "Via Drizzagno 28 30037",
      "brand": "Api-Ip",
      "lat": 45.58827894987835,
      "lng": 12.137899696826935,
      "fuels": {
        "sp95": 1.779,
        "gazole": 1.879
      }
    },
    {
      "id": "31533",
      "cp": "",
      "ville": "Scorzè",
      "adresse": "Via Nuova Moglianese 5/A 30037",
      "brand": "Vega",
      "lat": 45.56660270407961,
      "lng": 12.171687483787537,
      "fuels": {
        "sp95": 1.779,
        "gazole": 1.839,
        "gplc": 0.769
      }
    },
    {
      "id": "31657",
      "cp": "",
      "ville": "Scorzè",
      "adresse": "Via Venezia 86 30037",
      "brand": "Agip Eni",
      "lat": 45.56867431553918,
      "lng": 12.113564503041061,
      "fuels": {
        "sp95": 1.849,
        "gazole": 1.949
      }
    },
    {
      "id": "43228",
      "cp": "",
      "ville": "Spinea",
      "adresse": "Via Costituzione  105 30038",
      "brand": "Costantin",
      "lat": 45.49927059944073,
      "lng": 12.139547457672052,
      "fuels": {
        "e85": 1.459
      }
    },
    {
      "id": "61708",
      "cp": "",
      "ville": "Spinea",
      "adresse": "Via Della Costituzione 101  30038",
      "brand": "San Marco Petroli",
      "lat": 45.49299291239434,
      "lng": 12.139395028352737,
      "fuels": {
        "sp95": 1.779,
        "gazole": 1.879
      }
    },
    {
      "id": "53683",
      "cp": "",
      "ville": "Spinea",
      "adresse": "Via Della Costituzione 11 30038",
      "brand": "Agip Eni",
      "lat": 45.503719,
      "lng": 12.1454894,
      "fuels": {
        "sp95": 1.804,
        "gazole": 1.904
      }
    },
    {
      "id": "48914",
      "cp": "",
      "ville": "Spinea",
      "adresse": "Via Della Costituzione 130 30038",
      "brand": "Esso",
      "lat": 45.5063756370554,
      "lng": 12.147331969634342,
      "fuels": {
        "sp95": 1.799,
        "gazole": 1.879
      }
    },
    {
      "id": "38209",
      "cp": "",
      "ville": "Spinea",
      "adresse": "Via Della Costituzione 143 30038",
      "brand": "Api-Ip",
      "lat": 45.510467837073044,
      "lng": 12.14903376770053,
      "fuels": {
        "sp95": 1.739,
        "gazole": 1.819,
        "gplc": 0.784
      }
    },
    {
      "id": "28511",
      "cp": "",
      "ville": "Spinea",
      "adresse": "Via Della Costituzione sp81 km2+134  30080",
      "brand": "q8",
      "lat": 45.48018971298912,
      "lng": 12.14949766630616,
      "fuels": {
        "sp95": 1.779,
        "gazole": 1.869
      }
    },
    {
      "id": "3909",
      "cp": "",
      "ville": "Teglio Veneto",
      "adresse": "Autostrada a4 Venezia-trieste, km. 59.665, dir. Ovest - -",
      "brand": "Agip Eni",
      "lat": 45.80459299738234,
      "lng": 12.880589962005615,
      "fuels": {
        "sp95": 1.969,
        "gazole": 2.049,
        "gplc": 0.884
      }
    },
    {
      "id": "21554",
      "cp": "",
      "ville": "Teglio Veneto",
      "adresse": "Via Ippolito Nievo 16 30020",
      "brand": "Api-Ip",
      "lat": 45.81373289502277,
      "lng": 12.886339277029037,
      "fuels": {
        "sp95": 1.839,
        "gazole": 1.919
      }
    },
    {
      "id": "36604",
      "cp": "",
      "ville": "Torre Di Mosto",
      "adresse": "Via Confin 40/C  30020",
      "brand": "q8",
      "lat": 45.68751645915903,
      "lng": 12.695974024467432,
      "fuels": {
        "sp95": 1.799,
        "gazole": 1.899
      }
    },
    {
      "id": "18211",
      "cp": "",
      "ville": "Venezia",
      "adresse": "11 Padana superiore, km. 412, Mira  - 30176",
      "brand": "Tamoil",
      "lat": 45.44871600188506,
      "lng": 12.194125159521946,
      "fuels": {
        "sp95": 1.759,
        "gplc": 0.759
      }
    },
    {
      "id": "24798",
      "cp": "",
      "ville": "Venezia",
      "adresse": "Area Di Servizio Villabona  30175",
      "brand": "Api-Ip",
      "lat": 45.47393668790094,
      "lng": 12.214173078536987,
      "fuels": {
        "sp95": 1.829,
        "gazole": 1.909
      }
    },
    {
      "id": "3588",
      "cp": "",
      "ville": "Venezia",
      "adresse": "Autostrada a57 Tangenziale Di mestre,  km. 18.4, dir. Est -",
      "brand": "Agip Eni",
      "lat": 45.52598132225429,
      "lng": 12.262659966945648,
      "fuels": {
        "sp95": 1.854,
        "gazole": 1.924,
        "gplc": 0.802
      }
    },
    {
      "id": "40134",
      "cp": "",
      "ville": "Venezia",
      "adresse": "Autostrada a57 Tangenziale Di mestre, km. 18, dir. Venezia - 30173",
      "brand": "q8",
      "lat": 45.52548613951412,
      "lng": 12.260113954544067,
      "fuels": {
        "sp95": 1.884,
        "gazole": 1.979,
        "gplc": 0.879
      }
    },
    {
      "id": "16725",
      "cp": "",
      "ville": "Venezia",
      "adresse": "Cannaregio - Fronte Civico 5012/A 30131",
      "brand": "Api-Ip",
      "lat": 45.445038395441614,
      "lng": 12.336953803896904,
      "fuels": {
        "sp95": 2.209,
        "gazole": 2.309
      }
    },
    {
      "id": "18937",
      "cp": "",
      "ville": "Venezia",
      "adresse": "Fiordiligi 22/B 30173",
      "brand": "Api-Ip",
      "lat": 45.47774339960667,
      "lng": 12.232462987303734,
      "fuels": {
        "sp95": 1.739,
        "gazole": 1.819
      }
    },
    {
      "id": "11946",
      "cp": "",
      "ville": "Venezia",
      "adresse": "fz. Marghera Via Brunacci 19 30175",
      "brand": "q8",
      "lat": 45.467148303337275,
      "lng": 12.21546548213962,
      "fuels": {
        "sp95": 1.739,
        "gazole": 1.819
      }
    },
    {
      "id": "11941",
      "cp": "",
      "ville": "Venezia",
      "adresse": "fz.mestre Via Miranese 100 30174",
      "brand": "q8",
      "lat": 45.49120529570999,
      "lng": 12.22808775463102,
      "fuels": {
        "sp95": 1.749,
        "gazole": 1.814
      }
    },
    {
      "id": "46104",
      "cp": "",
      "ville": "Venezia",
      "adresse": "Galilei Tessera 64a 30173",
      "brand": "Tamoil",
      "lat": 45.50449331934095,
      "lng": 12.33558385767219,
      "fuels": {
        "sp95": 1.779
      }
    },
    {
      "id": "59849",
      "cp": "",
      "ville": "Venezia",
      "adresse": "Miranese 326/A 30174",
      "brand": "Agip Eni",
      "lat": 45.4850754,
      "lng": 12.2017249,
      "fuels": {
        "sp95": 1.804,
        "gazole": 1.914
      }
    },
    {
      "id": "56191",
      "cp": "",
      "ville": "Venezia",
      "adresse": "Orlanda -loc. San Giuliano 6/E 30173",
      "brand": "Shell",
      "lat": 45.4808145449566,
      "lng": 12.2723172605037,
      "fuels": {
        "sp95": 1.749,
        "gazole": 1.829
      }
    },
    {
      "id": "18476",
      "cp": "",
      "ville": "Venezia",
      "adresse": "Paolucci 12 30175",
      "brand": "Api-Ip",
      "lat": 45.479243260326676,
      "lng": 12.227987721562386,
      "fuels": {
        "sp95": 1.739,
        "gazole": 1.819
      }
    },
    {
      "id": "6475",
      "cp": "",
      "ville": "Venezia",
      "adresse": "Piazzale sirtori, Marghera- Rione Di Venezia Snc 30175",
      "brand": "q8",
      "lat": 45.48001925786204,
      "lng": 12.222185223942574,
      "fuels": {
        "sp95": 1.727,
        "gazole": 1.857
      }
    },
    {
      "id": "49937",
      "cp": "",
      "ville": "Venezia",
      "adresse": "Riviera s.m. Elisabetta 15 30126",
      "brand": "Api-Ip",
      "lat": 45.41816955580655,
      "lng": 12.369902729988098,
      "fuels": {
        "sp95": 1.897,
        "gazole": 1.97
      }
    },
    {
      "id": "49938",
      "cp": "",
      "ville": "Venezia",
      "adresse": "Riviera San Nicolo' s.n.c. 30126",
      "brand": "Api-Ip",
      "lat": 45.41992274370922,
      "lng": 12.375304698944092,
      "fuels": {
        "sp95": 2.062,
        "gazole": 2.246
      }
    },
    {
      "id": "31539",
      "cp": "",
      "ville": "Venezia",
      "adresse": "s.r. 245 Via Castellana  260/L 30174",
      "brand": "Vega",
      "lat": 45.53409130031824,
      "lng": 12.181397080421448,
      "fuels": {
        "sp95": 1.759,
        "gazole": 1.819,
        "e85": 1.549
      }
    },
    {
      "id": "32531",
      "cp": "",
      "ville": "Venezia",
      "adresse": "s.s. 14 km. 5,878  30030",
      "brand": "Api-Ip",
      "lat": 45.489330085470094,
      "lng": 12.301783906745868,
      "fuels": {
        "sp95": 1.769,
        "gazole": 1.849
      }
    },
    {
      "id": "31542",
      "cp": "",
      "ville": "Venezia",
      "adresse": "s.s. 309 Romea  13 30176",
      "brand": "Vega",
      "lat": 45.445770606641965,
      "lng": 12.205971479415894,
      "fuels": {
        "sp95": 1.759,
        "gazole": 1.849
      }
    },
    {
      "id": "37740",
      "cp": "",
      "ville": "Venezia",
      "adresse": "Sestiere Cannareggio - Sacca San Girolamo  30124",
      "brand": "Api-Ip",
      "lat": 45.44778929272681,
      "lng": 12.3205521229238,
      "fuels": {
        "sp95": 2.209,
        "gazole": 2.309
      }
    },
    {
      "id": "61709",
      "cp": "",
      "ville": "Venezia",
      "adresse": "sp81 30  30176",
      "brand": "San Marco Petroli",
      "lat": 45.4545427774717,
      "lng": 12.196363588954906,
      "fuels": {
        "sp95": 1.759,
        "gazole": 1.855
      }
    },
    {
      "id": "31659",
      "cp": "",
      "ville": "Venezia",
      "adresse": "Statale 11 Padana superiore, km. 426, dir. Padova  30175",
      "brand": "Agip Eni",
      "lat": 45.441442312090324,
      "lng": 12.315643653273582,
      "fuels": {
        "sp95": 1.854,
        "gazole": 1.939
      }
    },
    {
      "id": "55712",
      "cp": "",
      "ville": "Venezia",
      "adresse": "Trieste 179/D 30175",
      "brand": "Esso",
      "lat": 45.47705958854602,
      "lng": 12.207775852584852,
      "fuels": {
        "sp95": 1.799,
        "gazole": 1.889
      }
    },
    {
      "id": "59537",
      "cp": "",
      "ville": "Venezia",
      "adresse": "Trieste 205 30175",
      "brand": "Agip Eni",
      "lat": 45.4773341,
      "lng": 12.198932,
      "fuels": {
        "sp95": 1.789,
        "gazole": 1.824
      }
    },
    {
      "id": "59913",
      "cp": "",
      "ville": "Venezia",
      "adresse": "v. Forte Marghera 8 30175",
      "brand": "Api-Ip",
      "lat": 45.4832143,
      "lng": 12.2548596,
      "fuels": {
        "sp95": 1.769,
        "gazole": 1.849
      }
    },
    {
      "id": "23321",
      "cp": "",
      "ville": "Venezia",
      "adresse": "v.miranese - loc.chirignago 480 30174",
      "brand": "q8",
      "lat": 45.48515938529047,
      "lng": 12.184732565641411,
      "fuels": {
        "sp95": 1.749,
        "gazole": 1.839
      }
    },
    {
      "id": "49249",
      "cp": "",
      "ville": "Venezia",
      "adresse": "Via Altinia 114-C 30173",
      "brand": "Api-Ip",
      "lat": 45.509390923508015,
      "lng": 12.28264644742012,
      "fuels": {
        "sp95": 1.839,
        "gazole": 2.019
      }
    },
    {
      "id": "52081",
      "cp": "",
      "ville": "Venezia",
      "adresse": "Via Altinia Favaro Veneto 282v 30173",
      "brand": "Agip Eni",
      "lat": 45.53864094967987,
      "lng": 12.301306246777868,
      "fuels": {
        "sp95": 1.799,
        "gazole": 1.859,
        "e85": 1.393,
        "gplc": 0.724
      }
    },
    {
      "id": "31451",
      "cp": "",
      "ville": "Venezia",
      "adresse": "Via Bacchion 6 30174",
      "brand": "Vega",
      "lat": 45.51836488786498,
      "lng": 12.233995199203491,
      "fuels": {
        "sp95": 1.709,
        "gazole": 1.789
      }
    },
    {
      "id": "22616",
      "cp": "",
      "ville": "Venezia",
      "adresse": "Via Bottenigo 107 30030",
      "brand": "Pompe Bianche",
      "lat": 45.469590201289016,
      "lng": 12.19912514090538,
      "fuels": {
        "e85": 1.479
      }
    },
    {
      "id": "51662",
      "cp": "",
      "ville": "Venezia",
      "adresse": "Via Bottenigo Marghera  30100",
      "brand": "Noaloil",
      "lat": 45.461755653145524,
      "lng": 12.209087823322301,
      "fuels": {
        "sp95": 1.779,
        "gazole": 1.849,
        "e85": 1.459,
        "gplc": 0.799
      }
    },
    {
      "id": "52505",
      "cp": "",
      "ville": "Venezia",
      "adresse": "Via Busetti 1 30126",
      "brand": "Agip Eni",
      "lat": 45.26372581523431,
      "lng": 12.300744238906987,
      "fuels": {
        "sp95": 1.823,
        "gazole": 1.909
      }
    },
    {
      "id": "26157",
      "cp": "",
      "ville": "Venezia",
      "adresse": "Via Castellana 109/A 30174",
      "brand": "Sia Fuel",
      "lat": 45.51431763714947,
      "lng": 12.208593468717254,
      "fuels": {
        "sp95": 1.789,
        "gazole": 1.835
      }
    },
    {
      "id": "54737",
      "cp": "",
      "ville": "Venezia",
      "adresse": "Via Castellana 177/D 30174",
      "brand": "Vega",
      "lat": 45.52539300486336,
      "lng": 12.192011149669012,
      "fuels": {
        "sp95": 1.759,
        "gazole": 1.819,
        "gplc": 0.779
      }
    },
    {
      "id": "25913",
      "cp": "",
      "ville": "Venezia",
      "adresse": "Via Castellana 62/B 30174",
      "brand": "Agip Eni",
      "lat": 45.509990380847384,
      "lng": 12.215365983992001,
      "fuels": {
        "sp95": 1.789,
        "gazole": 1.824
      }
    },
    {
      "id": "31538",
      "cp": "",
      "ville": "Venezia",
      "adresse": "Via Ceccherini Lato Nord 4 30174",
      "brand": "Vega",
      "lat": 45.50362398372917,
      "lng": 12.235807031393051,
      "fuels": {
        "sp95": 1.759,
        "gazole": 1.819
      }
    },
    {
      "id": "31537",
      "cp": "",
      "ville": "Venezia",
      "adresse": "Via Ceccherini Lato Sud 7 30174",
      "brand": "Vega",
      "lat": 45.50313991663203,
      "lng": 12.235609889030457,
      "fuels": {
        "sp95": 1.759,
        "gazole": 1.819,
        "gplc": 0.779
      }
    },
    {
      "id": "25901",
      "cp": "",
      "ville": "Venezia",
      "adresse": "Via Circonvallazione - Mestre 60 30171",
      "brand": "Agip Eni",
      "lat": 45.49722700662713,
      "lng": 12.236733734607697,
      "fuels": {
        "sp95": 1.789,
        "gazole": 1.824
      }
    },
    {
      "id": "28688",
      "cp": "",
      "ville": "Venezia",
      "adresse": "Via De Le Motte 106 30141",
      "brand": "Api-Ip",
      "lat": 45.458743454852126,
      "lng": 12.408436849290752,
      "fuels": {
        "sp95": 2.239,
        "gazole": 2.34
      }
    },
    {
      "id": "50308",
      "cp": "",
      "ville": "Venezia",
      "adresse": "Via Eugenio Bacchion Snc 30174",
      "brand": "Auchan",
      "lat": 45.516870605872754,
      "lng": 12.236237246263286,
      "fuels": {
        "sp95": 1.699,
        "gazole": 1.784
      }
    },
    {
      "id": "21358",
      "cp": "",
      "ville": "Venezia",
      "adresse": "Via f.lli Bandiera  102 30175",
      "brand": "Pompe Bianche",
      "lat": 45.471946009686604,
      "lng": 12.229190076148598,
      "fuels": {
        "sp95": 1.812,
        "gazole": 1.869
      }
    },
    {
      "id": "22086",
      "cp": "",
      "ville": "Venezia",
      "adresse": "Via Fratelli Bandiera 178/A 30175",
      "brand": "Trivengas",
      "lat": 45.463358507460974,
      "lng": 12.224045544862747,
      "fuels": {
        "sp95": 1.779,
        "gazole": 1.869,
        "gplc": 0.789
      }
    },
    {
      "id": "61724",
      "cp": "",
      "ville": "Venezia",
      "adresse": "Via Fratelli Bandiera 44  30175",
      "brand": "San Marco Petroli",
      "lat": 45.477163756209364,
      "lng": 12.232169285416603,
      "fuels": {
        "sp95": 1.779,
        "gazole": 1.869
      }
    },
    {
      "id": "55549",
      "cp": "",
      "ville": "Venezia",
      "adresse": "Via Guglielmo Pepe 46 30172",
      "brand": "Api-Ip",
      "lat": 45.49076087919554,
      "lng": 12.247150051515483,
      "fuels": {
        "sp95": 1.769,
        "gazole": 1.849
      }
    },
    {
      "id": "55964",
      "cp": "",
      "ville": "Venezia",
      "adresse": "Via Martiri Della Libertà 400 30173",
      "brand": "Esso",
      "lat": 45.48493597336379,
      "lng": 12.27347195148468,
      "fuels": {
        "sp95": 1.779,
        "gazole": 1.849
      }
    },
    {
      "id": "38120",
      "cp": "",
      "ville": "Venezia",
      "adresse": "Via Martiri Della Libertà Snc 30170",
      "brand": "Api-Ip",
      "lat": 45.50889356020374,
      "lng": 12.266385555267334,
      "fuels": {
        "sp95": 1.739,
        "gazole": 1.819,
        "gplc": 0.789
      }
    },
    {
      "id": "51862",
      "cp": "",
      "ville": "Venezia",
      "adresse": "Via Mazzorbo Rotonda Marghera  30175",
      "brand": "Agip Eni",
      "lat": 45.47501105203366,
      "lng": 12.21137045114656,
      "fuels": {
        "sp95": 1.829,
        "gazole": 1.889
      }
    },
    {
      "id": "30485",
      "cp": "",
      "ville": "Venezia",
      "adresse": "Via Miranese 165 30174",
      "brand": "Api-Ip",
      "lat": 45.48499375263348,
      "lng": 12.210651428241704,
      "fuels": {
        "sp95": 1.739,
        "gazole": 1.819
      }
    },
    {
      "id": "30629",
      "cp": "",
      "ville": "Venezia",
      "adresse": "Via Miranese 254 30170",
      "brand": "Api-Ip",
      "lat": 45.48518495616398,
      "lng": 12.209426822090109,
      "fuels": {
        "sp95": 1.739,
        "gazole": 1.819
      }
    },
    {
      "id": "57908",
      "cp": "",
      "ville": "Venezia",
      "adresse": "Via Miranese 342  30174",
      "brand": "Esso",
      "lat": 45.48509017317407,
      "lng": 12.200387120246887,
      "fuels": {
        "sp95": 1.779,
        "gazole": 1.869
      }
    },
    {
      "id": "26981",
      "cp": "",
      "ville": "Venezia",
      "adresse": "Via Moranzani 92 30176",
      "brand": "Pompe Bianche",
      "lat": 45.41834401057597,
      "lng": 12.257879935204983,
      "fuels": {
        "sp95": 1.999,
        "gazole": 1.488
      }
    },
    {
      "id": "59892",
      "cp": "",
      "ville": "Venezia",
      "adresse": "Via Orlanda - Mestre  6 6  30173",
      "brand": "Agip Eni",
      "lat": 45.479477,
      "lng": 12.27063,
      "fuels": {
        "sp95": 1.809,
        "gazole": 1.889
      }
    },
    {
      "id": "62302",
      "cp": "",
      "ville": "Venezia",
      "adresse": "Via Orlanda 12 30173",
      "brand": "Itala Petroli",
      "lat": 45.4872548,
      "lng": 12.2977439,
      "fuels": {
        "sp95": 1.759,
        "gazole": 1.829
      }
    },
    {
      "id": "58833",
      "cp": "",
      "ville": "Venezia",
      "adresse": "Via Orlanda 2  30173",
      "brand": "Api-Ip",
      "lat": 45.474811215401424,
      "lng": 12.268629507647724,
      "fuels": {
        "sp95": 1.749,
        "gazole": 1.829,
        "gplc": 0.819
      }
    },
    {
      "id": "57127",
      "cp": "",
      "ville": "Venezia",
      "adresse": "Via Orlanda 40 30173",
      "brand": "Beyfin",
      "lat": 45.4870035,
      "lng": 12.295911,
      "fuels": {
        "sp95": 1.849,
        "gazole": 1.969,
        "gplc": 0.849
      }
    },
    {
      "id": "31535",
      "cp": "",
      "ville": "Venezia",
      "adresse": "Via Paccagnella 12 30174",
      "brand": "Vega",
      "lat": 45.510335638518434,
      "lng": 12.221992313861847,
      "fuels": {
        "sp95": 1.759,
        "gazole": 1.819
      }
    },
    {
      "id": "62174",
      "cp": "",
      "ville": "Venezia",
      "adresse": "Via Padana  52 30176",
      "brand": "q8",
      "lat": 45.44929509857888,
      "lng": 12.202857434749562,
      "fuels": {
        "sp95": 1.779,
        "gazole": 1.875
      }
    },
    {
      "id": "31450",
      "cp": "",
      "ville": "Venezia",
      "adresse": "Via Romea 12 30176",
      "brand": "Vega",
      "lat": 45.44505175636951,
      "lng": 12.20480740070343,
      "fuels": {
        "sp95": 1.759,
        "gazole": 1.849,
        "e85": 1.459,
        "gplc": 0.779
      }
    },
    {
      "id": "33464",
      "cp": "",
      "ville": "Venezia",
      "adresse": "Via San Donà  287/C 30173",
      "brand": "Sia Fuel",
      "lat": 45.50290353136229,
      "lng": 12.268662794859324,
      "fuels": {
        "sp95": 1.785,
        "gazole": 1.835
      }
    },
    {
      "id": "40539",
      "cp": "",
      "ville": "Venezia",
      "adresse": "Via San Dona'  296 30173",
      "brand": "Tamoil",
      "lat": 45.5025644823188,
      "lng": 12.27027341723442,
      "fuels": {
        "sp95": 1.739
      }
    },
    {
      "id": "50917",
      "cp": "",
      "ville": "Venezia",
      "adresse": "Via San Dona' 330 30173",
      "brand": "Agip Eni",
      "lat": 45.50239984169346,
      "lng": 12.27415108602841,
      "fuels": {
        "sp95": 1.859,
        "gazole": 1.944
      }
    },
    {
      "id": "16235",
      "cp": "",
      "ville": "Venezia",
      "adresse": "Via San Mauro 545 30142",
      "brand": "Api-Ip",
      "lat": 45.4869374,
      "lng": 12.4162692,
      "fuels": {
        "sp95": 2.034,
        "gazole": 2.256
      }
    },
    {
      "id": "21531",
      "cp": "",
      "ville": "Venezia",
      "adresse": "Via Sandro Gallo 161/l, 30126 161/L 30126",
      "brand": "Agip Eni",
      "lat": 45.40043442281949,
      "lng": 12.360578468719496,
      "fuels": {
        "sp95": 1.829,
        "gazole": 1.919
      }
    },
    {
      "id": "26949",
      "cp": "",
      "ville": "Venezia",
      "adresse": "Via Terraglio 25 30174",
      "brand": "Loro",
      "lat": 45.51733272746833,
      "lng": 12.238050699234009,
      "fuels": {
        "sp95": 1.769,
        "gazole": 1.849
      }
    },
    {
      "id": "25905",
      "cp": "",
      "ville": "Venezia",
      "adresse": "Via Terraglio Mestre 242 30174",
      "brand": "Agip Eni",
      "lat": 45.5281609397236,
      "lng": 12.23900020122528,
      "fuels": {
        "sp95": 1.789,
        "gazole": 1.824
      }
    },
    {
      "id": "62884",
      "cp": "",
      "ville": "Venezia",
      "adresse": "Via Triestina - loc. Favaro 234  30173",
      "brand": "Shell",
      "lat": 45.526719,
      "lng": 12.379413,
      "fuels": {
        "sp95": 1.789,
        "gazole": 1.849,
        "gplc": 0.729
      }
    },
    {
      "id": "36981",
      "cp": "",
      "ville": "Venezia",
      "adresse": "Via Triestina 234 30173",
      "brand": "Shell",
      "lat": 45.52673367219533,
      "lng": 12.379411160945892,
      "fuels": {
        "sp95": 1.799,
        "gazole": 2.249,
        "gplc": 0.799
      }
    },
    {
      "id": "41111",
      "cp": "",
      "ville": "Venezia",
      "adresse": "Via Vallenari  150 30173",
      "brand": "Vega",
      "lat": 45.50306434537017,
      "lng": 12.291318029165268,
      "fuels": {
        "sp95": 1.739,
        "gazole": 1.819,
        "gplc": 0.779
      }
    },
    {
      "id": "45911",
      "cp": "",
      "ville": "Venezia",
      "adresse": "Viale San Marco 108 30173",
      "brand": "q8",
      "lat": 45.48727826202622,
      "lng": 12.254393438028728,
      "fuels": {
        "sp95": 1.759,
        "gazole": 1.839
      }
    },
    {
      "id": "38543",
      "cp": "",
      "ville": "Vigonovo",
      "adresse": "Dante sp80 Km 1,08 81 30030",
      "brand": "Pompe Bianche",
      "lat": 45.40025497212001,
      "lng": 12.001685723662376,
      "fuels": {
        "sp95": 1.729,
        "gazole": 1.819,
        "gplc": 0.735
      }
    },
    {
      "id": "56978",
      "cp": "",
      "ville": "Vigonovo",
      "adresse": "Via Padova 104 30030",
      "brand": "Costantin",
      "lat": 45.393852,
      "lng": 11.992028,
      "fuels": {
        "sp95": 1.799,
        "gazole": 1.899
      }
    }
  ]
}