{
  "code": "BEJA",
  "name": "Beja",
  "regionCode": "AL",
  "regionName": "Alentejo",
  "asOf": "2026-06-24T08:18:38.830Z",
  "source": "https://precoscombustiveis.dgeg.gov.pt/",
  "stationCount": 79,
  "fuels": {
    "gazole": {
      "count": 75,
      "mean": 1.8512,
      "median": 1.864,
      "min": 1.709,
      "max": 2.026
    },
    "sp95": {
      "count": 74,
      "mean": 1.9396,
      "median": 1.954,
      "min": 1.81,
      "max": 2.052
    }
  },
  "stations": [
    {
      "id": "65066",
      "cp": "7600-000",
      "ville": "Aljustrel",
      "adresse": "a.e.2 Km 148",
      "brand": "Galp",
      "lat": 37.923733,
      "lng": -8.243193,
      "fuels": {
        "gazole": 1.919,
        "sp95": 2.009
      }
    },
    {
      "id": "65065",
      "cp": "7600-000",
      "ville": "Aljustrel",
      "adresse": "a2 - Km 148 (s/n)",
      "brand": "Galp",
      "lat": 37.92348,
      "lng": -8.241723,
      "fuels": {
        "gazole": 1.919,
        "sp95": 2.009
      }
    },
    {
      "id": "65068",
      "cp": "7600-204",
      "ville": "Aljustrel",
      "adresse": "En 2 Km 606,465",
      "brand": "Galp",
      "lat": 37.96508,
      "lng": -8.08174,
      "fuels": {
        "gazole": 1.864,
        "sp95": 1.954
      }
    },
    {
      "id": "67543",
      "cp": "7600-078",
      "ville": "Aljustrel",
      "adresse": "En 263 - Rua De Santa Barbara",
      "brand": "Carlos Baltazar",
      "lat": 37.87312,
      "lng": -8.16852,
      "fuels": {
        "gazole": 1.784,
        "sp95": 1.884
      }
    },
    {
      "id": "66114",
      "cp": "7600-091",
      "ville": "Aljustrel",
      "adresse": "En 383 Km 64,35 (rua Dos Montes Velhos nº 16)",
      "brand": "Repsol",
      "lat": 37.88193,
      "lng": -8.16287,
      "fuels": {
        "gazole": 1.834,
        "sp95": 1.919
      }
    },
    {
      "id": "65067",
      "cp": "7600-173",
      "ville": "Aljustrel",
      "adresse": "Estrada Nacional 2, Km 622.700",
      "brand": "Bp",
      "lat": 37.87229,
      "lng": -8.148942,
      "fuels": {
        "gazole": 1.919,
        "sp95": 1.999
      }
    },
    {
      "id": "86482",
      "cp": "7600-411",
      "ville": "Aljustrel",
      "adresse": "Estrada Nacional 383",
      "brand": "Genérico",
      "lat": 37.93585,
      "lng": -8.18283,
      "fuels": {
        "gazole": 1.889
      }
    },
    {
      "id": "67106",
      "cp": "7600-077",
      "ville": "Aljustrel",
      "adresse": "Rua De Olivença",
      "brand": "Beq",
      "lat": 37.87905,
      "lng": -8.1591,
      "fuels": {
        "gazole": 1.709,
        "sp95": 1.81
      }
    },
    {
      "id": "69050",
      "cp": "7700-000",
      "ville": "Almodôvar",
      "adresse": "a2, Km 193, Sub-Lanço Castro Verde/Almodôvar",
      "brand": "Moeve",
      "lat": 37.536385,
      "lng": -8.184828,
      "fuels": {
        "gazole": 2.019,
        "sp95": 2.025
      }
    },
    {
      "id": "93081",
      "cp": "7700-094",
      "ville": "Almodôvar",
      "adresse": "Cerca Da junqueira, Apartado 89",
      "brand": "Bp",
      "lat": 37.515926,
      "lng": -8.045855,
      "fuels": {
        "gazole": 1.909,
        "sp95": 1.999
      }
    },
    {
      "id": "65078",
      "cp": "7700-016",
      "ville": "Almodôvar",
      "adresse": "En 2 (rua Comendador carrilho, nº6) Km 664",
      "brand": "Galp",
      "lat": 37.51856,
      "lng": -8.06111,
      "fuels": {
        "gazole": 1.884,
        "sp95": 1.964
      }
    },
    {
      "id": "93149",
      "cp": "7700-207",
      "ville": "Almodôvar",
      "adresse": "Fontes Ferrenhas",
      "brand": "Genérico",
      "lat": 37.41683,
      "lng": -8.069771,
      "fuels": {
        "gazole": 2.026,
        "sp95": 2.052
      }
    },
    {
      "id": "74642",
      "cp": "7920-355",
      "ville": "Alvito",
      "adresse": "Largo Francisco Manuel fialho,1",
      "brand": "Galp",
      "lat": 38.289394,
      "lng": -8.037483,
      "fuels": {
        "gazole": 1.878,
        "sp95": 1.965
      }
    },
    {
      "id": "94180",
      "cp": "7230-003",
      "ville": "Barrancos",
      "adresse": "Estrada Nacional 258",
      "brand": "Galp",
      "lat": 38.13432,
      "lng": -6.979896,
      "fuels": {
        "gazole": 1.834,
        "sp95": 1.924
      }
    },
    {
      "id": "70436",
      "cp": "7800-671",
      "ville": "Beja",
      "adresse": "av. 25 De Abril",
      "brand": "Galp",
      "lat": 37.93674,
      "lng": -7.77632,
      "fuels": {
        "gazole": 1.77,
        "sp95": 1.868
      }
    },
    {
      "id": "70529",
      "cp": "7800-631",
      "ville": "Beja",
      "adresse": "av. Alonso Gomes",
      "brand": "Carlos Baltazar",
      "lat": 37.92924,
      "lng": -7.79089,
      "fuels": {
        "gazole": 1.784,
        "sp95": 1.884
      }
    },
    {
      "id": "65172",
      "cp": "7800-395",
      "ville": "Beja",
      "adresse": "av. Fialho De Almeida",
      "brand": "Galp",
      "lat": 38.00534,
      "lng": -7.86542,
      "fuels": {
        "gazole": 1.864,
        "sp95": 1.954
      }
    },
    {
      "id": "65850",
      "cp": "7800-000",
      "ville": "Beja",
      "adresse": "av. Fialho De Almeida",
      "brand": "Bp",
      "lat": 38.01025,
      "lng": -7.86412,
      "fuels": {
        "gazole": 1.909,
        "sp95": 1.994
      }
    },
    {
      "id": "65035",
      "cp": "7800-395",
      "ville": "Beja",
      "adresse": "av. Fialho De Almeida nº 78",
      "brand": "Intermarché",
      "lat": 38.004242,
      "lng": -7.865718,
      "fuels": {
        "gazole": 1.719,
        "sp95": 1.819
      }
    },
    {
      "id": "93810",
      "cp": "7800-847",
      "ville": "Beja",
      "adresse": "Em Beringel - Trigaches",
      "brand": "Genérico",
      "lat": 38.06249,
      "lng": -7.982961,
      "fuels": {
        "gazole": 1.799
      }
    },
    {
      "id": "89780",
      "cp": "7800-098",
      "ville": "Beja",
      "adresse": "Estrada Das Apolinárias/en260; União Das Freguesias De Salvador E Santa Maria Da Feira",
      "brand": "Cepsa",
      "lat": 38.020836,
      "lng": -7.847322,
      "fuels": {
        "gazole": 1.806,
        "sp95": 1.893
      }
    },
    {
      "id": "85869",
      "cp": "7800-103",
      "ville": "Beja",
      "adresse": "Estrada De Acesso Ao Bairro Da Esperança S/N",
      "brand": "Repsol",
      "lat": 38.0226,
      "lng": -7.8493,
      "fuels": {
        "gazole": 1.854,
        "sp95": 1.939
      }
    },
    {
      "id": "93660",
      "cp": "7800-006",
      "ville": "Beja",
      "adresse": "Estrada Nacional 121, Km 71,100, Monte Olival Do Outeiro",
      "brand": "Alves Bandeira",
      "lat": 38.035454,
      "lng": -7.902474,
      "fuels": {
        "gazole": 1.884
      }
    },
    {
      "id": "66472",
      "cp": "7800-421",
      "ville": "Beja",
      "adresse": "Largo Escritor Manuel Ribeiro nº 12",
      "brand": "Repsol",
      "lat": 38.01159,
      "lng": -7.86404,
      "fuels": {
        "gazole": 1.854,
        "sp95": 1.939
      }
    },
    {
      "id": "65852",
      "cp": "7800-000",
      "ville": "Beja",
      "adresse": "Rua António Sardinha",
      "brand": "Bp",
      "lat": 38.00986,
      "lng": -7.87449,
      "fuels": {
        "gazole": 1.909,
        "sp95": 1.994
      }
    },
    {
      "id": "65851",
      "cp": "7800-000",
      "ville": "Beja",
      "adresse": "Rua d. Afonso Iii nº 43",
      "brand": "Bp",
      "lat": 38.01913,
      "lng": -7.8532,
      "fuels": {
        "gazole": 1.999,
        "sp95": 1.994
      }
    },
    {
      "id": "72519",
      "cp": "7800-050",
      "ville": "Beja",
      "adresse": "Rua d.afonso Iii",
      "brand": "Prio",
      "lat": 38.02016,
      "lng": -7.84903,
      "fuels": {
        "sp95": 1.968
      }
    },
    {
      "id": "65803",
      "cp": "7800-000",
      "ville": "Beja",
      "adresse": "Rua De Lisboa",
      "brand": "Galp",
      "lat": 38.02075,
      "lng": -7.87145,
      "fuels": {
        "gazole": 1.864,
        "sp95": 1.954
      }
    },
    {
      "id": "70928",
      "cp": "7780-171",
      "ville": "Castro Verde",
      "adresse": "En 2",
      "brand": "Alves Bandeira",
      "lat": 37.686544,
      "lng": -8.084354,
      "fuels": {
        "gazole": 1.884,
        "sp95": 1.984
      }
    },
    {
      "id": "67471",
      "cp": "7780-909",
      "ville": "Castro Verde",
      "adresse": "Estrada serrana, Apartado 121",
      "brand": "Intermarché",
      "lat": 37.70544,
      "lng": -8.0849901,
      "fuels": {
        "gazole": 1.799,
        "sp95": 1.899
      }
    },
    {
      "id": "75097",
      "cp": "7780-486",
      "ville": "Castro Verde",
      "adresse": "Largo 1ª De Maio  nº10",
      "brand": "Genérico",
      "lat": 37.63712,
      "lng": -7.98713,
      "fuels": {
        "gazole": 1.864,
        "sp95": 1.954
      }
    },
    {
      "id": "90000",
      "cp": "7780-171",
      "ville": "Castro Verde",
      "adresse": "r. almodôvar, 92",
      "brand": "Carlos Baltazar",
      "lat": 37.690643,
      "lng": -8.084091,
      "fuels": {
        "gazole": 1.784,
        "sp95": 1.884
      }
    },
    {
      "id": "66473",
      "cp": "7780-323",
      "ville": "Castro Verde",
      "adresse": "Rua Da Lavoura",
      "brand": "Repsol",
      "lat": 37.77887,
      "lng": -8.0103,
      "fuels": {
        "gazole": 1.844,
        "sp95": 1.929
      }
    },
    {
      "id": "65226",
      "cp": "7780-163",
      "ville": "Castro Verde",
      "adresse": "Rua Da Seara Nova 30 (e.n.2 - Km 641,1)",
      "brand": "Galp",
      "lat": 37.701307,
      "lng": -8.085287,
      "fuels": {
        "gazole": 1.864,
        "sp95": 1.954
      }
    },
    {
      "id": "65257",
      "cp": "7940-028",
      "ville": "Cuba",
      "adresse": "En 258 Km 10,2",
      "brand": "Galp",
      "lat": 38.16204,
      "lng": -7.89119,
      "fuels": {
        "gazole": 1.864,
        "sp95": 1.954
      }
    },
    {
      "id": "93105",
      "cp": "7940-148",
      "ville": "Cuba",
      "adresse": "Estrada Nacional 258-1, Edifício Intermarché",
      "brand": "Intermarché",
      "lat": 38.17056,
      "lng": -7.894024,
      "fuels": {
        "gazole": 1.734,
        "sp95": 1.831
      }
    },
    {
      "id": "70516",
      "cp": "7900-233",
      "ville": "Ferreira Do Alentejo",
      "adresse": "Bairro Das Amarelas",
      "brand": "Carlos Baltazar",
      "lat": 38.09285,
      "lng": -8.19976,
      "fuels": {
        "gazole": 1.784,
        "sp95": 1.884
      }
    },
    {
      "id": "93582",
      "cp": "7900-000",
      "ville": "Ferreira Do Alentejo",
      "adresse": "En 121",
      "brand": "Intermarché",
      "lat": 38.059094,
      "lng": -8.108497,
      "fuels": {
        "gazole": 1.745,
        "sp95": 1.845
      }
    },
    {
      "id": "90102",
      "cp": "7900-199",
      "ville": "Ferreira Do Alentejo",
      "adresse": "En 259 Km 42, Lado Sul",
      "brand": "Prio",
      "lat": 38.06871,
      "lng": -8.126368,
      "fuels": {
        "sp95": 1.914
      }
    },
    {
      "id": "90101",
      "cp": "7900-199",
      "ville": "Ferreira Do Alentejo",
      "adresse": "En 259 Km 42,000",
      "brand": "Prio",
      "lat": 38.06914,
      "lng": -8.125965,
      "fuels": {
        "sp95": 1.914
      }
    },
    {
      "id": "93192",
      "cp": "7900-116",
      "ville": "Ferreira Do Alentejo",
      "adresse": "Espada E espada, Lda",
      "brand": "Genérico",
      "lat": 38.06354,
      "lng": -8.12096,
      "fuels": {
        "gazole": 1.789
      }
    },
    {
      "id": "70413",
      "cp": "7900-113",
      "ville": "Ferreira Do Alentejo",
      "adresse": "Rua Comendador José Joaquim De Vilhena",
      "brand": "Carlos Baltazar",
      "lat": 38.03628,
      "lng": -8.24079,
      "fuels": {
        "gazole": 1.784,
        "sp95": 1.884
      }
    },
    {
      "id": "70375",
      "cp": "7900-648",
      "ville": "Ferreira Do Alentejo",
      "adresse": "Rua Irene lisboa, n.º 1-A",
      "brand": "Carlos Baltazar",
      "lat": 38.0568,
      "lng": -8.11228,
      "fuels": {
        "gazole": 1.784,
        "sp95": 1.884
      }
    },
    {
      "id": "70481",
      "cp": "7900-452",
      "ville": "Ferreira Do Alentejo",
      "adresse": "Variante Para Alfundão",
      "brand": "Carlos Baltazar",
      "lat": 38.09346,
      "lng": -8.04825,
      "fuels": {
        "gazole": 1.784,
        "sp95": 1.884
      }
    },
    {
      "id": "66434",
      "cp": "7750-056",
      "ville": "Mértola",
      "adresse": "En 122 - Km 26,040 - Vale De Açor De Cima",
      "brand": "Bp",
      "lat": 37.79028,
      "lng": -7.849986,
      "fuels": {
        "gazole": 1.919,
        "sp95": 1.989
      }
    },
    {
      "id": "65435",
      "cp": "7750-909",
      "ville": "Mértola",
      "adresse": "En 122 Km 51,45",
      "brand": "Galp",
      "lat": 37.643336,
      "lng": -7.658937,
      "fuels": {
        "gazole": 1.874,
        "sp95": 1.964
      }
    },
    {
      "id": "88872",
      "cp": "7860-107",
      "ville": "Moura",
      "adresse": "av. Dos Bombeiros Voluntários - Apartado 136",
      "brand": "Intermarché",
      "lat": 38.139748,
      "lng": -7.460113,
      "fuels": {
        "gazole": 1.798,
        "sp95": 1.895
      }
    },
    {
      "id": "77675",
      "cp": "7860-355",
      "ville": "Moura",
      "adresse": "e.n. 255 Km 95-96",
      "brand": "Bp",
      "lat": 38.14576,
      "lng": -7.44427,
      "fuels": {
        "gazole": 1.919,
        "sp95": 1.999
      }
    },
    {
      "id": "93534",
      "cp": "7885-013",
      "ville": "Moura",
      "adresse": "En 386",
      "brand": "Bp",
      "lat": 38.21192,
      "lng": -7.23104,
      "fuels": {
        "gazole": 1.869,
        "sp95": 1.954
      }
    },
    {
      "id": "94720",
      "cp": "7875-018",
      "ville": "Moura",
      "adresse": "Estrada Nacional 258 Km 77",
      "brand": "Genérico",
      "lat": 38.10837,
      "lng": -7.221854,
      "fuels": {
        "gazole": 1.839,
        "sp95": 1.969
      }
    },
    {
      "id": "94492",
      "cp": "7875-064",
      "ville": "Moura",
      "adresse": "Largo Das Ameias S/N",
      "brand": "Genérico",
      "lat": 38.108067,
      "lng": -7.221868,
      "fuels": {
        "gazole": 1.83,
        "sp95": 1.929
      }
    },
    {
      "id": "65462",
      "cp": "7860-008",
      "ville": "Moura",
      "adresse": "Largo José Maria Santos nº 42",
      "brand": "Galp",
      "lat": 38.13757,
      "lng": -7.447143,
      "fuels": {
        "gazole": 1.864,
        "sp95": 1.954
      }
    },
    {
      "id": "69490",
      "cp": "7860-004",
      "ville": "Moura",
      "adresse": "Rua eng. Almeida mansos, Lote 1",
      "brand": "Genérico",
      "lat": 38.138897,
      "lng": -7.445416,
      "fuels": {
        "gazole": 1.884,
        "sp95": 1.969
      }
    },
    {
      "id": "66474",
      "cp": "7630-000",
      "ville": "Odemira",
      "adresse": "av. Poole Da Costa nº 49",
      "brand": "Repsol",
      "lat": 37.59879,
      "lng": -8.64547,
      "fuels": {
        "gazole": 1.854,
        "sp95": 1.939
      }
    },
    {
      "id": "65472",
      "cp": "7630-122",
      "ville": "Odemira",
      "adresse": "En 120 (av. Poole Da costa) Km 102,845",
      "brand": "Galp",
      "lat": 37.5982,
      "lng": -8.64541,
      "fuels": {
        "gazole": 1.864,
        "sp95": 1.954
      }
    },
    {
      "id": "65471",
      "cp": "7630-000",
      "ville": "Odemira",
      "adresse": "En 120 Km 115,4",
      "brand": "Galp",
      "lat": 37.515121,
      "lng": -8.710743,
      "fuels": {
        "gazole": 1.864,
        "sp95": 1.954
      }
    },
    {
      "id": "65473",
      "cp": "7645-000",
      "ville": "Odemira",
      "adresse": "En 390 Km 39,4",
      "brand": "Galp",
      "lat": 37.738866,
      "lng": -8.767119,
      "fuels": {
        "gazole": 1.874,
        "sp95": 1.964
      }
    },
    {
      "id": "94790",
      "cp": "7630-496",
      "ville": "Odemira",
      "adresse": "Estrada Municipal 532 - Corte Pinheiro",
      "brand": "Moeve",
      "lat": 37.71869,
      "lng": -8.66728,
      "fuels": {
        "gazole": 1.806,
        "sp95": 1.893
      }
    },
    {
      "id": "70387",
      "cp": "7630-711",
      "ville": "Odemira",
      "adresse": "Estrada Nacional 262 nº 5apartado 3243 - Bicos",
      "brand": "Genérico",
      "lat": 37.81323,
      "lng": -8.49809,
      "fuels": {
        "gazole": 1.745,
        "sp95": 1.864
      }
    },
    {
      "id": "79153",
      "cp": "7630-244",
      "ville": "Odemira",
      "adresse": "Horta Dos reis, Vale Passos",
      "brand": "Intermarché",
      "lat": 37.599804,
      "lng": -8.631363,
      "fuels": {
        "gazole": 1.764,
        "sp95": 1.854
      }
    },
    {
      "id": "66905",
      "cp": "7665-880",
      "ville": "Odemira",
      "adresse": "Largo De gôa, n.º 1 - 1.º",
      "brand": "Petrin",
      "lat": 37.5134,
      "lng": -8.4768,
      "fuels": {
        "gazole": 1.909,
        "sp95": 1.999
      }
    },
    {
      "id": "71909",
      "cp": "7630-614",
      "ville": "Odemira",
      "adresse": "Loteamento Industrial Da bemposta, Lote 7",
      "brand": "Cepsa",
      "lat": 37.50998,
      "lng": -8.71566,
      "fuels": {
        "gazole": 1.906,
        "sp95": 1.943
      }
    },
    {
      "id": "94105",
      "cp": "7630-711",
      "ville": "Odemira",
      "adresse": "Rua 4 De Outubro",
      "brand": "Genérico",
      "lat": 37.813126,
      "lng": -8.494673,
      "fuels": {
        "gazole": 1.889,
        "sp95": 1.977
      }
    },
    {
      "id": "66304",
      "cp": "7630-329",
      "ville": "Odemira",
      "adresse": "Rua nova, nº.2",
      "brand": "Cepsa",
      "lat": 37.73454,
      "lng": -8.46329,
      "fuels": {
        "gazole": 1.856,
        "sp95": 1.943
      }
    },
    {
      "id": "93828",
      "cp": "7630-033",
      "ville": "Odemira",
      "adresse": "Zona Industrial Lote 24/25",
      "brand": "Genérico",
      "lat": 37.576244,
      "lng": -8.665181,
      "fuels": {
        "gazole": 1.889,
        "sp95": 1.989
      }
    },
    {
      "id": "71507",
      "cp": "7670-216",
      "ville": "Ourique",
      "adresse": "Cruzamento Do Monte Da Volta",
      "brand": "Tfuel",
      "lat": 37.661766,
      "lng": -8.223362,
      "fuels": {
        "gazole": 1.779,
        "sp95": 1.849
      }
    },
    {
      "id": "65515",
      "cp": "7670-202",
      "ville": "Ourique",
      "adresse": "En 264 (ic 1 Km 674) Km 43,9",
      "brand": "Galp",
      "lat": 37.612423,
      "lng": -8.246112,
      "fuels": {
        "gazole": 1.864,
        "sp95": 1.954
      }
    },
    {
      "id": "72432",
      "cp": "7670-368",
      "ville": "Ourique",
      "adresse": "Loteamento Rosal Sul - Lote 1",
      "brand": "Bp",
      "lat": 37.65317,
      "lng": -8.23355,
      "fuels": {
        "gazole": 1.909,
        "sp95": 1.999
      }
    },
    {
      "id": "65627",
      "cp": "7830-299",
      "ville": "Serpa",
      "adresse": "En 260 Km 26,66",
      "brand": "Galp",
      "lat": 37.95297,
      "lng": -7.60284,
      "fuels": {
        "gazole": 1.864,
        "sp95": 1.954
      }
    },
    {
      "id": "67663",
      "cp": "7830-389",
      "ville": "Serpa",
      "adresse": "Hortinha",
      "brand": "Intermarché",
      "lat": 37.938972,
      "lng": -7.603837,
      "fuels": {
        "gazole": 1.798,
        "sp95": 1.895
      }
    },
    {
      "id": "68491",
      "cp": "7830-117",
      "ville": "Serpa",
      "adresse": "Monte Acima",
      "brand": "Repsol",
      "lat": 38.03849,
      "lng": -7.59766,
      "fuels": {
        "sp95": 1.959
      }
    },
    {
      "id": "93836",
      "cp": "7830-500",
      "ville": "Serpa",
      "adresse": "O Gasolinas",
      "brand": "Bp",
      "lat": 37.77302,
      "lng": -7.523446,
      "fuels": {
        "gazole": 1.899,
        "sp95": 1.994
      }
    },
    {
      "id": "93036",
      "cp": "7830-348",
      "ville": "Serpa",
      "adresse": "Rua Da Eira De s. Pedro 7830-348 Serpa",
      "brand": "Bp",
      "lat": 37.938505,
      "lng": -7.606757,
      "fuels": {
        "gazole": 1.909,
        "sp95": 1.999
      }
    },
    {
      "id": "73550",
      "cp": "7830-100",
      "ville": "Serpa",
      "adresse": "Rua De Paimogo",
      "brand": "Tfuel",
      "lat": 37.92147,
      "lng": -7.40571,
      "fuels": {
        "gazole": 1.869,
        "sp95": 1.959
      }
    },
    {
      "id": "93824",
      "cp": "7830-654",
      "ville": "Serpa",
      "adresse": "Rua Do Outeiro nº 54",
      "brand": "Alves Bandeira",
      "lat": 37.946495,
      "lng": -7.307253,
      "fuels": {
        "gazole": 1.969,
        "sp95": 2.024
      }
    },
    {
      "id": "93812",
      "cp": "7830-257",
      "ville": "Serpa",
      "adresse": "Rua João Tiago Coelho n. 176",
      "brand": "Repsol",
      "lat": 38.02342,
      "lng": -7.479854,
      "fuels": {
        "gazole": 1.884,
        "sp95": 1.959
      }
    },
    {
      "id": "89545",
      "cp": "7960-305",
      "ville": "Vidigueira",
      "adresse": "Bairro Industrial",
      "brand": "Tfuel",
      "lat": 38.20628,
      "lng": -7.79868,
      "fuels": {
        "gazole": 1.779
      }
    },
    {
      "id": "93314",
      "cp": "7960-305",
      "ville": "Vidigueira",
      "adresse": "Estrada Nacional n.º 18",
      "brand": "Carlos Baltazar",
      "lat": 38.20619,
      "lng": -7.801643,
      "fuels": {
        "gazole": 1.784,
        "sp95": 1.884
      }
    },
    {
      "id": "94629",
      "cp": "7960-220",
      "ville": "Vidigueira",
      "adresse": "Largo Frei Antonio Das chagas, S/N",
      "brand": "Cepsa",
      "lat": 38.211456,
      "lng": -7.802411,
      "fuels": {
        "gazole": 1.806,
        "sp95": 1.893
      }
    }
  ]
}