{
  "code": "BRAGANCA",
  "name": "Bragança",
  "regionCode": "N",
  "regionName": "Norte",
  "asOf": "2026-06-16T10:02:48.216Z",
  "source": "https://precoscombustiveis.dgeg.gov.pt/",
  "stationCount": 72,
  "fuels": {
    "gazole": {
      "count": 71,
      "mean": 1.9368,
      "median": 1.953,
      "min": 1.799,
      "max": 1.999
    },
    "sp95": {
      "count": 70,
      "mean": 1.9782,
      "median": 1.994,
      "min": 1.839,
      "max": 2.139
    }
  },
  "stations": [
    {
      "id": "69568",
      "cp": "5350-005",
      "ville": "Alfândega Da Fé",
      "adresse": "av. dr. Francisco Sá carneiro, Lugar Do Sobreiro",
      "brand": "Tuacar",
      "lat": 41.33605,
      "lng": -6.96372,
      "fuels": {
        "gazole": 1.899,
        "sp95": 1.929
      }
    },
    {
      "id": "67735",
      "cp": "5350-005",
      "ville": "Alfândega Da Fé",
      "adresse": "Rua  flores,",
      "brand": "Gaspe",
      "lat": 41.34926,
      "lng": -6.96046,
      "fuels": {
        "gazole": 1.893,
        "sp95": 1.945
      }
    },
    {
      "id": "81192",
      "cp": "5350-051",
      "ville": "Alfândega Da Fé",
      "adresse": "Zona industrial, Lote 27",
      "brand": "Alves Bandeira",
      "lat": 41.33214,
      "lng": -6.96885,
      "fuels": {
        "gazole": 1.949,
        "sp95": 2.004
      }
    },
    {
      "id": "65861",
      "cp": "5300-107",
      "ville": "Bragança",
      "adresse": "Alto Das Cantarias",
      "brand": "Prio",
      "lat": 41.78112,
      "lng": -6.77907,
      "fuels": {
        "gazole": 1.954,
        "sp95": 1.939
      }
    },
    {
      "id": "93326",
      "cp": "5300-851",
      "ville": "Bragança",
      "adresse": "Alto Das Cantarias",
      "brand": "Galp",
      "lat": 41.786639,
      "lng": -6.77449,
      "fuels": {
        "gazole": 1.969,
        "sp95": 2.009
      }
    },
    {
      "id": "66132",
      "cp": "5300-111",
      "ville": "Bragança",
      "adresse": "av. Cidade Da Zamora",
      "brand": "Cepsa",
      "lat": 41.807056,
      "lng": -6.754673,
      "fuels": {
        "gazole": 1.926,
        "sp95": 1.953
      }
    },
    {
      "id": "93125",
      "cp": "5300-107",
      "ville": "Bragança",
      "adresse": "av. Das cantarias, n.º 97",
      "brand": "Genérico",
      "lat": 41.786457,
      "lng": -6.774001,
      "fuels": {
        "gazole": 1.926,
        "sp95": 1.943
      }
    },
    {
      "id": "65862",
      "cp": "5300-000",
      "ville": "Bragança",
      "adresse": "av. Do Sabor",
      "brand": "Bp",
      "lat": 41.812238,
      "lng": -6.742117,
      "fuels": {
        "gazole": 1.999,
        "sp95": 2.039
      }
    },
    {
      "id": "66494",
      "cp": "5300-000",
      "ville": "Bragança",
      "adresse": "av. João Cruz",
      "brand": "Repsol",
      "lat": 41.81003,
      "lng": -6.75995,
      "fuels": {
        "gazole": 1.969,
        "sp95": 2.009
      }
    },
    {
      "id": "66495",
      "cp": "5300-000",
      "ville": "Bragança",
      "adresse": "av. Sá Carneiro",
      "brand": "Repsol",
      "lat": 41.79912,
      "lng": -6.77079,
      "fuels": {
        "gazole": 1.969,
        "sp95": 2.009
      }
    },
    {
      "id": "86173",
      "cp": "5300-484",
      "ville": "Bragança",
      "adresse": "Avenida Abade De Baçal (en103) Estrada De vinhais, Cruzamento De Donai",
      "brand": "Bp",
      "lat": 41.8082,
      "lng": -6.792596,
      "fuels": {
        "gazole": 1.989,
        "sp95": 2.039
      }
    },
    {
      "id": "65185",
      "cp": "5300-861",
      "ville": "Bragança",
      "adresse": "Estrada De Rebordainhos (m537)",
      "brand": "Galp",
      "lat": 41.665543,
      "lng": -6.834273,
      "fuels": {
        "gazole": 1.969,
        "sp95": 2.013
      }
    },
    {
      "id": "67680",
      "cp": "5300-274",
      "ville": "Bragança",
      "adresse": "Estrada Vale De Álvaro",
      "brand": "Gaspe",
      "lat": 41.81918,
      "lng": -6.75501,
      "fuels": {
        "gazole": 1.953,
        "sp95": 2.005
      }
    },
    {
      "id": "93307",
      "cp": "5300-598",
      "ville": "Bragança",
      "adresse": "r. Central S/N",
      "brand": "Cepsa",
      "lat": 41.56198,
      "lng": -6.72663,
      "fuels": {
        "gazole": 1.979,
        "sp95": 2.019
      }
    },
    {
      "id": "65186",
      "cp": "5300-075",
      "ville": "Bragança",
      "adresse": "Rua Alexandre Herculano",
      "brand": "Galp",
      "lat": 41.80268,
      "lng": -6.75939,
      "fuels": {
        "gazole": 1.969,
        "sp95": 2.009
      }
    },
    {
      "id": "80622",
      "cp": "5140-080",
      "ville": "Carrazeda De Ansiães",
      "adresse": "av. Bombeiros voluntáiros. S/N",
      "brand": "Cepsa",
      "lat": 41.24179,
      "lng": -7.30679,
      "fuels": {
        "gazole": 1.916,
        "sp95": 1.988
      }
    },
    {
      "id": "67772",
      "cp": "5140-031",
      "ville": "Carrazeda De Ansiães",
      "adresse": "Belver",
      "brand": "Gaspe",
      "lat": 41.26413,
      "lng": -7.25504,
      "fuels": {
        "gazole": 1.953,
        "sp95": 2.005
      }
    },
    {
      "id": "66500",
      "cp": "5140-000",
      "ville": "Carrazeda De Ansiães",
      "adresse": "Rua Luis De Camões",
      "brand": "Repsol",
      "lat": 41.245579,
      "lng": -7.301582,
      "fuels": {
        "gazole": 1.855,
        "sp95": 1.998
      }
    },
    {
      "id": "67774",
      "cp": "5180-104",
      "ville": "Freixo De Espada À Cinta",
      "adresse": "av. Guerra junqueiro, 19",
      "brand": "Gaspe",
      "lat": 41.09042,
      "lng": -6.80857,
      "fuels": {
        "gazole": 1.953,
        "sp95": 2.005
      }
    },
    {
      "id": "69605",
      "cp": "5180-104",
      "ville": "Freixo De Espada À Cinta",
      "adresse": "av.guerra Junqueiro (en 221), Lugar Da Faceira",
      "brand": "Tuacar",
      "lat": 41.08595,
      "lng": -6.80836,
      "fuels": {
        "gazole": 1.899,
        "sp95": 1.929
      }
    },
    {
      "id": "72981",
      "cp": "5340-092",
      "ville": "Macedo De Cavaleiros",
      "adresse": "av. António Maria Da Costa nº14 (en 216)",
      "brand": "Gaspe",
      "lat": 41.46851,
      "lng": -6.8994,
      "fuels": {
        "gazole": 1.953,
        "sp95": 2.005
      }
    },
    {
      "id": "65394",
      "cp": "5340-289",
      "ville": "Macedo De Cavaleiros",
      "adresse": "av. Comendador António Joaquim Ferreira",
      "brand": "Galp",
      "lat": 41.53372,
      "lng": -6.96248,
      "fuels": {
        "gazole": 1.949,
        "sp95": 1.994
      }
    },
    {
      "id": "67689",
      "cp": "5340-289",
      "ville": "Macedo De Cavaleiros",
      "adresse": "av. Comendador Joaquim António Ferreira",
      "brand": "Gaspe",
      "lat": 41.52921,
      "lng": -6.96355,
      "fuels": {
        "gazole": 1.953,
        "sp95": 2.005
      }
    },
    {
      "id": "67687",
      "cp": "5340-040",
      "ville": "Macedo De Cavaleiros",
      "adresse": "Bagueixe",
      "brand": "Gaspe",
      "lat": 41.5658,
      "lng": -6.80092,
      "fuels": {
        "gazole": 1.953,
        "sp95": 2.005
      }
    },
    {
      "id": "70523",
      "cp": "5340-292",
      "ville": "Macedo De Cavaleiros",
      "adresse": "En 102 Km 3,85",
      "brand": "Alves Bandeira",
      "lat": 41.551348,
      "lng": -6.952464,
      "fuels": {
        "gazole": 1.969,
        "sp95": 2.024
      }
    },
    {
      "id": "67582",
      "cp": "5340-211",
      "ville": "Macedo De Cavaleiros",
      "adresse": "Lugar Do prado, Rua Camilo Castelo Branco",
      "brand": "Intermarché",
      "lat": 41.53225,
      "lng": -6.95185,
      "fuels": {
        "gazole": 1.799,
        "sp95": 1.839
      }
    },
    {
      "id": "92154",
      "cp": "5340-244",
      "ville": "Macedo De Cavaleiros",
      "adresse": "Rua Damião De Gois",
      "brand": "Prio",
      "lat": 41.540478,
      "lng": -6.966334,
      "fuels": {
        "sp95": 1.949
      }
    },
    {
      "id": "88270",
      "cp": "5340-296",
      "ville": "Macedo De Cavaleiros",
      "adresse": "Zona Industrial Da amendoeira, Rotunda ip2.m15 (a4)",
      "brand": "Cepsa",
      "lat": 41.57081,
      "lng": -6.99394,
      "fuels": {
        "gazole": 1.926,
        "sp95": 1.963
      }
    },
    {
      "id": "66391",
      "cp": "5210-000",
      "ville": "Miranda Do Douro",
      "adresse": "En 128 Km 84,36",
      "brand": "Cepsa",
      "lat": 41.499283,
      "lng": -6.273413,
      "fuels": {
        "gazole": 1.879,
        "sp95": 1.881
      }
    },
    {
      "id": "93163",
      "cp": "5210-206",
      "ville": "Miranda Do Douro",
      "adresse": "Estrada  Nacional 218, Choupo",
      "brand": "Intermarché",
      "lat": 41.505103,
      "lng": -6.285527,
      "fuels": {
        "gazole": 1.849,
        "sp95": 1.865
      }
    },
    {
      "id": "93213",
      "cp": "5210-065",
      "ville": "Miranda Do Douro",
      "adresse": "Estrada Nacional 221",
      "brand": "Genérico",
      "lat": 41.470486,
      "lng": -6.366352,
      "fuels": {
        "gazole": 1.869,
        "sp95": 1.879
      }
    },
    {
      "id": "69752",
      "cp": "5225-103",
      "ville": "Miranda Do Douro",
      "adresse": "Estrada Nacional 221",
      "brand": "Gaspe",
      "lat": 41.392876,
      "lng": -6.424159,
      "fuels": {
        "gazole": 1.933,
        "sp95": 1.985
      }
    },
    {
      "id": "67785",
      "cp": "5225-103",
      "ville": "Miranda Do Douro",
      "adresse": "Estrada nacional, 221",
      "brand": "Galp",
      "lat": 41.392117,
      "lng": -6.425022,
      "fuels": {
        "gazole": 1.949,
        "sp95": 1.994
      }
    },
    {
      "id": "86940",
      "cp": "5225-032",
      "ville": "Miranda Do Douro",
      "adresse": "r. Da Indústria",
      "brand": "Alves Bandeira",
      "lat": 41.45514,
      "lng": -6.4435,
      "fuels": {
        "gazole": 1.969,
        "sp95": 2.024
      }
    },
    {
      "id": "65441",
      "cp": "5210-150",
      "ville": "Miranda Do Douro",
      "adresse": "Rua Vale De angueira, nº 5",
      "brand": "Galp",
      "lat": 41.54472,
      "lng": -6.328176,
      "fuels": {
        "gazole": 1.949,
        "sp95": 1.994
      }
    },
    {
      "id": "93197",
      "cp": "5210-175",
      "ville": "Miranda Do Douro",
      "adresse": "Zona Industrial (en 218)",
      "brand": "Bp",
      "lat": 41.506668,
      "lng": -6.28645,
      "fuels": {
        "gazole": 1.999,
        "sp95": 2.039
      }
    },
    {
      "id": "93491",
      "cp": "5370-223",
      "ville": "Mirandela",
      "adresse": "Av 25 De Abril",
      "brand": "Tuacar",
      "lat": 41.47586,
      "lng": -7.177532,
      "fuels": {
        "gazole": 1.899,
        "sp95": 1.929
      }
    },
    {
      "id": "66498",
      "cp": "5370-000",
      "ville": "Mirandela",
      "adresse": "av. Comunidades Europeias",
      "brand": "Repsol",
      "lat": 41.493044,
      "lng": -7.176502,
      "fuels": {
        "gazole": 1.969,
        "sp95": 2.009
      }
    },
    {
      "id": "65444",
      "cp": "5370-205",
      "ville": "Mirandela",
      "adresse": "av. Das Comunidades Europeias",
      "brand": "Galp",
      "lat": 41.49177,
      "lng": -7.17704,
      "fuels": {
        "gazole": 1.929,
        "sp95": 1.973
      }
    },
    {
      "id": "66497",
      "cp": "5370-000",
      "ville": "Mirandela",
      "adresse": "av. Das Comunidades Europeias",
      "brand": "Repsol",
      "lat": 41.49318,
      "lng": -7.17624,
      "fuels": {
        "gazole": 1.969,
        "sp95": 2.009
      }
    },
    {
      "id": "93076",
      "cp": "5370-179",
      "ville": "Mirandela",
      "adresse": "avª São João (variante Dos castanheiros) Lugar Do Prado - Zona Industrial",
      "brand": "Cepsa",
      "lat": 41.49203,
      "lng": -7.169556,
      "fuels": {
        "gazole": 1.926,
        "sp95": 1.943
      }
    },
    {
      "id": "69749",
      "cp": "5370-552",
      "ville": "Mirandela",
      "adresse": "en15 - Lugar Do Espinheiral - Saida Mirandela Oeste",
      "brand": "Gaspe",
      "lat": 41.47887,
      "lng": -7.20499,
      "fuels": {
        "gazole": 1.943,
        "sp95": 1.957
      }
    },
    {
      "id": "65928",
      "cp": "5370-152",
      "ville": "Mirandela",
      "adresse": "Ip 4 Km 143",
      "brand": "Bp",
      "lat": 41.442681,
      "lng": -7.303342,
      "fuels": {
        "gazole": 1.999,
        "sp95": 2.049
      }
    },
    {
      "id": "65929",
      "cp": "5370-152",
      "ville": "Mirandela",
      "adresse": "Ip 4 Km 143",
      "brand": "Bp",
      "lat": 41.442142,
      "lng": -7.3029,
      "fuels": {
        "gazole": 1.999,
        "sp95": 2.049
      }
    },
    {
      "id": "66865",
      "cp": "5370-000",
      "ville": "Mirandela",
      "adresse": "Lugar De Telheiras",
      "brand": "Pingo Doce",
      "lat": 41.49678,
      "lng": -7.17842,
      "fuels": {
        "gazole": 1.834,
        "sp95": 1.867
      }
    },
    {
      "id": "77558",
      "cp": "5370-520",
      "ville": "Mirandela",
      "adresse": "Lugar De Vale De Cerdeira - Golfeiras",
      "brand": "Intermarché",
      "lat": 41.4828,
      "lng": -7.19477,
      "fuels": {
        "gazole": 1.809,
        "sp95": 1.845
      }
    },
    {
      "id": "95146",
      "cp": "5370-552",
      "ville": "Mirandela",
      "adresse": "Lugar Do espinheiral, en15, Saída Mirandela Oeste",
      "brand": "Tuacar",
      "lat": 41.479393,
      "lng": -7.205275,
      "fuels": {
        "gazole": 1.899,
        "sp95": 1.929
      }
    },
    {
      "id": "66499",
      "cp": "5385-000",
      "ville": "Mirandela",
      "adresse": "Rua Da Mimosa",
      "brand": "Repsol",
      "lat": 41.657558,
      "lng": -7.124381,
      "fuels": {
        "gazole": 1.939,
        "sp95": 1.979
      }
    },
    {
      "id": "65443",
      "cp": "5370-440",
      "ville": "Mirandela",
      "adresse": "Rua eng. José Machado vaz, S/N",
      "brand": "Galp",
      "lat": 41.485954,
      "lng": -7.187969,
      "fuels": {
        "gazole": 1.929,
        "sp95": 1.974
      }
    },
    {
      "id": "77747",
      "cp": "5200-203",
      "ville": "Mogadouro",
      "adresse": "av. De Espanha 80",
      "brand": "Gaspe",
      "lat": 41.33873,
      "lng": -6.70552,
      "fuels": {
        "gazole": 1.958,
        "sp95": 1.972
      }
    },
    {
      "id": "68934",
      "cp": "5200-204",
      "ville": "Mogadouro",
      "adresse": "av. Sabor",
      "brand": "Repsol",
      "lat": 41.34324,
      "lng": -6.71055,
      "fuels": {
        "gazole": 1.979
      }
    },
    {
      "id": "93114",
      "cp": "5200-204",
      "ville": "Mogadouro",
      "adresse": "Avenida Do Sabor",
      "brand": "Shell",
      "lat": 41.345251,
      "lng": -6.705865,
      "fuels": {
        "gazole": 1.849,
        "sp95": 1.889
      }
    },
    {
      "id": "93069",
      "cp": "5200-464",
      "ville": "Mogadouro",
      "adresse": "Estrada Nacional 221, Km 26.635",
      "brand": "Gaspe",
      "lat": 41.366333,
      "lng": -6.503364,
      "fuels": {
        "gazole": 1.983,
        "sp95": 1.997
      }
    },
    {
      "id": "65445",
      "cp": "5200-000",
      "ville": "Mogadouro",
      "adresse": "Largo Do Santo Cristo",
      "brand": "Galp",
      "lat": 41.34261,
      "lng": -6.71051,
      "fuels": {
        "gazole": 1.949,
        "sp95": 1.994
      }
    },
    {
      "id": "69606",
      "cp": "5200-208",
      "ville": "Mogadouro",
      "adresse": "Largo Do Santo Cristo (en 221)",
      "brand": "Tuacar",
      "lat": 41.34197,
      "lng": -6.71085,
      "fuels": {
        "gazole": 1.899,
        "sp95": 1.929
      }
    },
    {
      "id": "70138",
      "cp": "5200-216",
      "ville": "Mogadouro",
      "adresse": "Recta De Vale Da Madre",
      "brand": "Bp",
      "lat": 41.353201,
      "lng": -6.707939,
      "fuels": {
        "gazole": 1.949,
        "sp95": 1.999
      }
    },
    {
      "id": "85771",
      "cp": "5160-002",
      "ville": "Torre De Moncorvo",
      "adresse": "En 102",
      "brand": "Bp",
      "lat": 41.2246,
      "lng": -7.0897,
      "fuels": {
        "gazole": 1.989,
        "sp95": 2.039
      }
    },
    {
      "id": "93355",
      "cp": "5160-000",
      "ville": "Torre De Moncorvo",
      "adresse": "En 220",
      "brand": "Gaspe",
      "lat": 41.182906,
      "lng": -6.98249,
      "fuels": {
        "gazole": 1.953,
        "sp95": 2.005
      }
    },
    {
      "id": "67703",
      "cp": "5160-235",
      "ville": "Torre De Moncorvo",
      "adresse": "Largo Da Corredoura",
      "brand": "Gaspe",
      "lat": 41.17567,
      "lng": -7.05505,
      "fuels": {
        "gazole": 1.975,
        "sp95": 1.989
      }
    },
    {
      "id": "93490",
      "cp": "5160-310",
      "ville": "Torre De Moncorvo",
      "adresse": "Rua Tomé Rodrigues Sobral",
      "brand": "Intermarché",
      "lat": 41.18806,
      "lng": -7.004531,
      "fuels": {
        "gazole": 1.819,
        "sp95": 1.859
      }
    },
    {
      "id": "80438",
      "cp": "5360-000",
      "ville": "Vila Flor",
      "adresse": "av. Marechal Carmona",
      "brand": "Bp",
      "lat": 41.308841,
      "lng": -7.156616,
      "fuels": {
        "gazole": 1.989,
        "sp95": 2.039
      }
    },
    {
      "id": "67744",
      "cp": "5360-305",
      "ville": "Vila Flor",
      "adresse": "av. Vasco Da Gama",
      "brand": "Bp",
      "lat": 41.31505,
      "lng": -7.17378,
      "fuels": {
        "gazole": 1.989,
        "sp95": 2.039
      }
    },
    {
      "id": "78588",
      "cp": "5360-305",
      "ville": "Vila Flor",
      "adresse": "Lugar Dos Caseirões",
      "brand": "Intermarché",
      "lat": 41.310218,
      "lng": -7.163259,
      "fuels": {
        "gazole": 1.809,
        "sp95": 1.845
      }
    },
    {
      "id": "70931",
      "cp": "5230-125",
      "ville": "Vimioso",
      "adresse": "En 317",
      "brand": "Bp",
      "lat": 41.59052,
      "lng": -6.59719,
      "fuels": {
        "gazole": 1.969,
        "sp95": 2.139
      }
    },
    {
      "id": "67716",
      "cp": "5230-287",
      "ville": "Vimioso",
      "adresse": "Estrada De Separicos",
      "brand": "Gaspe",
      "lat": 41.59286,
      "lng": -6.51953,
      "fuels": {
        "gazole": 1.953,
        "sp95": 2.005
      }
    },
    {
      "id": "93168",
      "cp": "5230-072",
      "ville": "Vimioso",
      "adresse": "Estrada Nacional 218 Km 37,700",
      "brand": "Genérico",
      "lat": 41.634796,
      "lng": -6.602628,
      "fuels": {
        "gazole": 1.959,
        "sp95": 2.049
      }
    },
    {
      "id": "67788",
      "cp": "5230-048",
      "ville": "Vimioso",
      "adresse": "Rua São Bartolomeu",
      "brand": "Gaspe",
      "lat": 41.65287,
      "lng": -6.6044,
      "fuels": {
        "gazole": 1.953,
        "sp95": 2.005
      }
    },
    {
      "id": "71158",
      "cp": "5335-101",
      "ville": "Vinhais",
      "adresse": "av. São Venâncio",
      "brand": "Genérico",
      "lat": 41.73914,
      "lng": -7.16277,
      "fuels": {
        "gazole": 1.95,
        "sp95": 1.95
      }
    },
    {
      "id": "67732",
      "cp": "5320-316",
      "ville": "Vinhais",
      "adresse": "Bairro Souto Covo",
      "brand": "Gaspe",
      "lat": 41.8373,
      "lng": -6.9958,
      "fuels": {
        "gazole": 1.953,
        "sp95": 2.005
      }
    },
    {
      "id": "93110",
      "cp": "5320-302",
      "ville": "Vinhais",
      "adresse": "Rua Da Gasparona - Portela Da Vila",
      "brand": "Bp",
      "lat": 41.836697,
      "lng": -7.010283,
      "fuels": {
        "gazole": 1.955
      }
    },
    {
      "id": "75228",
      "cp": "5335-011",
      "ville": "Vinhais",
      "adresse": "Rua Do Outeiro n2",
      "brand": "Freitas",
      "lat": 41.697856,
      "lng": -7.031832,
      "fuels": {
        "gazole": 1.949,
        "sp95": 1.989
      }
    },
    {
      "id": "66381",
      "cp": "5320-000",
      "ville": "Vinhais",
      "adresse": "Rua Dos Frades nº 4",
      "brand": "Cepsa",
      "lat": 41.83072,
      "lng": -7.010134,
      "fuels": {
        "gazole": 1.956,
        "sp95": 1.993
      }
    }
  ]
}