{
  "code": "COIMBRA",
  "name": "Coimbra",
  "regionCode": "C",
  "regionName": "Centro",
  "asOf": "2026-06-15T10:51:14.378Z",
  "source": "https://precoscombustiveis.dgeg.gov.pt/",
  "stationCount": 149,
  "fuels": {
    "gazole": {
      "count": 143,
      "mean": 1.9276,
      "median": 1.939,
      "min": 1.768,
      "max": 2.004
    },
    "sp95": {
      "count": 149,
      "mean": 1.9598,
      "median": 1.973,
      "min": 1.828,
      "max": 2.044
    }
  },
  "stations": [
    {
      "id": "66278",
      "cp": "3300-118",
      "ville": "Arganil",
      "adresse": "Estrada Nacional 342-4, Km 1.5",
      "brand": "Moeve",
      "lat": 40.232445,
      "lng": -8.063549,
      "fuels": {
        "gazole": 1.941,
        "sp95": 1.963
      }
    },
    {
      "id": "66279",
      "cp": "3300-118",
      "ville": "Arganil",
      "adresse": "Estrada Nacional 342-4, Km 1.5",
      "brand": "Cepsa",
      "lat": 40.23154,
      "lng": -8.063031,
      "fuels": {
        "gazole": 1.941,
        "sp95": 1.963
      }
    },
    {
      "id": "90720",
      "cp": "3300-109",
      "ville": "Arganil",
      "adresse": "Lugar Da Barrocaem 523",
      "brand": "Intermarché",
      "lat": 40.220066,
      "lng": -8.061898,
      "fuels": {
        "gazole": 1.869,
        "sp95": 1.879
      }
    },
    {
      "id": "92343",
      "cp": "3305-144",
      "ville": "Arganil",
      "adresse": "Lugar Da coutada, En 344",
      "brand": "Cepsa",
      "lat": 40.274547,
      "lng": -7.993033,
      "fuels": {
        "gazole": 1.956,
        "sp95": 1.973
      }
    },
    {
      "id": "68103",
      "cp": "3305-145",
      "ville": "Arganil",
      "adresse": "r.francisco Almeida Filipe",
      "brand": "Alves Bandeira",
      "lat": 40.268345,
      "lng": -7.979317,
      "fuels": {
        "gazole": 1.999,
        "sp95": 2.016
      }
    },
    {
      "id": "65811",
      "cp": "3060-000",
      "ville": "Cantanhede",
      "adresse": "a1 - Km 204 - Enxofães - Murtede",
      "brand": "Bp",
      "lat": 40.333233,
      "lng": -8.492696,
      "fuels": {
        "gazole": 2.004,
        "sp95": 2.044
      }
    },
    {
      "id": "65812",
      "cp": "3060-000",
      "ville": "Cantanhede",
      "adresse": "a1 - Km 204 - Enxofães - Murtede",
      "brand": "Bp",
      "lat": 40.334175,
      "lng": -8.495814,
      "fuels": {
        "gazole": 2.004,
        "sp95": 2.044
      }
    },
    {
      "id": "71933",
      "cp": "3060-803",
      "ville": "Cantanhede",
      "adresse": "e.r. 335 - 1, Km 4,60",
      "brand": "Alves Bandeira",
      "lat": 40.3232,
      "lng": -8.677436,
      "fuels": {
        "gazole": 1.999,
        "sp95": 2.016
      }
    },
    {
      "id": "65199",
      "cp": "3065-000",
      "ville": "Cantanhede",
      "adresse": "En 109",
      "brand": "Galp",
      "lat": 40.31181,
      "lng": -8.75441,
      "fuels": {
        "gazole": 1.909,
        "sp95": 1.954
      }
    },
    {
      "id": "66509",
      "cp": "3060-000",
      "ville": "Cantanhede",
      "adresse": "En 109",
      "brand": "Repsol",
      "lat": 40.303283,
      "lng": -8.75867,
      "fuels": {
        "gazole": 1.909,
        "sp95": 1.949
      }
    },
    {
      "id": "65201",
      "cp": "3065-000",
      "ville": "Cantanhede",
      "adresse": "En 109 Km 97,46",
      "brand": "Galp",
      "lat": 40.311693,
      "lng": -8.754109,
      "fuels": {
        "gazole": 1.909,
        "sp95": 1.954
      }
    },
    {
      "id": "66510",
      "cp": "3060-701",
      "ville": "Cantanhede",
      "adresse": "En 109 Km 98,5 Lugar De Inácios",
      "brand": "Repsol",
      "lat": 40.30343,
      "lng": -8.75902,
      "fuels": {
        "gazole": 1.909,
        "sp95": 1.949
      }
    },
    {
      "id": "66521",
      "cp": "3060-000",
      "ville": "Cantanhede",
      "adresse": "En 234 (av. De portugal)",
      "brand": "Repsol",
      "lat": 40.344141,
      "lng": -8.581877,
      "fuels": {
        "gazole": 1.939,
        "sp95": 1.979
      }
    },
    {
      "id": "65200",
      "cp": "3060-000",
      "ville": "Cantanhede",
      "adresse": "En 234 Km 17,1",
      "brand": "Galp",
      "lat": 40.35054,
      "lng": -8.5794,
      "fuels": {
        "gazole": 1.949,
        "sp95": 1.994
      }
    },
    {
      "id": "66977",
      "cp": "3060-371",
      "ville": "Cantanhede",
      "adresse": "En 234 Km 22",
      "brand": "Bp",
      "lat": 40.3587679927,
      "lng": -8.52622900767,
      "fuels": {
        "gazole": 1.939,
        "sp95": 1.989
      }
    },
    {
      "id": "66515",
      "cp": "3060-000",
      "ville": "Cantanhede",
      "adresse": "En 243 Km 12,190",
      "brand": "Repsol",
      "lat": 40.26845,
      "lng": -8.5086,
      "fuels": {
        "gazole": 1.939,
        "sp95": 1.979
      }
    },
    {
      "id": "93133",
      "cp": "3060-302",
      "ville": "Cantanhede",
      "adresse": "En 335, Km 225, 115 Campanas",
      "brand": "Prio",
      "lat": 40.421738,
      "lng": -8.586275,
      "fuels": {
        "sp95": 1.949
      }
    },
    {
      "id": "68670",
      "cp": "3060-522",
      "ville": "Cantanhede",
      "adresse": "en234-1 - Pena",
      "brand": "Alves Bandeira",
      "lat": 40.30646,
      "lng": -8.546525,
      "fuels": {
        "gazole": 1.978,
        "sp95": 1.985
      }
    },
    {
      "id": "93144",
      "cp": "3060-323",
      "ville": "Cantanhede",
      "adresse": "Estrada Nacional nº234, Km 9,5 Fontinha",
      "brand": "Prio",
      "lat": 40.384474,
      "lng": -8.640268,
      "fuels": {
        "gazole": 1.899,
        "sp95": 1.934
      }
    },
    {
      "id": "67429",
      "cp": "3060-228",
      "ville": "Cantanhede",
      "adresse": "Lugar Do Freixial",
      "brand": "Intermarché",
      "lat": 40.35034,
      "lng": -8.58628,
      "fuels": {
        "gazole": 1.818,
        "sp95": 1.838
      }
    },
    {
      "id": "87665",
      "cp": "3060-354",
      "ville": "Cantanhede",
      "adresse": "r. Doutor Américo De Oliveira",
      "brand": "Genérico",
      "lat": 40.40116,
      "lng": -8.62371,
      "fuels": {
        "gazole": 1.881,
        "sp95": 1.879
      }
    },
    {
      "id": "65872",
      "cp": "3060-124",
      "ville": "Cantanhede",
      "adresse": "Rotunda Da En 234/En 234-1 Km 1,6",
      "brand": "Bp",
      "lat": 40.34788,
      "lng": -8.58496,
      "fuels": {
        "gazole": 1.939,
        "sp95": 1.989
      }
    },
    {
      "id": "93821",
      "cp": "3060-752",
      "ville": "Cantanhede",
      "adresse": "Rua Dos Emigrantes 36",
      "brand": "Genérico",
      "lat": 40.42824,
      "lng": -8.667011,
      "fuels": {
        "gazole": 1.935,
        "sp95": 1.955
      }
    },
    {
      "id": "68892",
      "cp": "3060-780",
      "ville": "Cantanhede",
      "adresse": "Rua dr. João De matos, nº 36",
      "brand": "Genérico",
      "lat": 40.41613,
      "lng": -8.65837,
      "fuels": {
        "gazole": 1.939,
        "sp95": 1.93
      }
    },
    {
      "id": "66317",
      "cp": "3060-318",
      "ville": "Cantanhede",
      "adresse": "Rua Fernando Serra oliveira, nº111",
      "brand": "Prio",
      "lat": 40.39665,
      "lng": -8.643492,
      "fuels": {
        "gazole": 1.899,
        "sp95": 1.919
      }
    },
    {
      "id": "68493",
      "cp": "3064-908",
      "ville": "Cantanhede",
      "adresse": "Rua Manuel Rodrigues Batata",
      "brand": "Genérico",
      "lat": 40.31897,
      "lng": -8.75116,
      "fuels": {
        "gazole": 1.909,
        "sp95": 1.915
      }
    },
    {
      "id": "69104",
      "cp": "3030-327",
      "ville": "Coimbra",
      "adresse": "av. General Humberto Delgado",
      "brand": "Moeve",
      "lat": 40.205124,
      "lng": -8.401936,
      "fuels": {
        "gazole": 1.936,
        "sp95": 1.938
      }
    },
    {
      "id": "69105",
      "cp": "3040-193",
      "ville": "Coimbra",
      "adresse": "av. Guarda Inglesa",
      "brand": "Moeve",
      "lat": 40.21039,
      "lng": -8.439548,
      "fuels": {
        "gazole": 1.906,
        "sp95": 1.943
      }
    },
    {
      "id": "65889",
      "cp": "3040-255",
      "ville": "Coimbra",
      "adresse": "av. Inês De Castro",
      "brand": "Bp",
      "lat": 40.200815,
      "lng": -8.43085,
      "fuels": {
        "gazole": 1.969,
        "sp95": 2.019
      }
    },
    {
      "id": "93486",
      "cp": "3040-193",
      "ville": "Coimbra",
      "adresse": "av. José Bonifácio De Andrade E Silva",
      "brand": "Galp",
      "lat": 40.209553,
      "lng": -8.444831,
      "fuels": {
        "gazole": 1.909,
        "sp95": 1.954
      }
    },
    {
      "id": "65243",
      "cp": "3000-000",
      "ville": "Coimbra",
      "adresse": "av. Vale Das Flores",
      "brand": "Galp",
      "lat": 40.194987,
      "lng": -8.408669,
      "fuels": {
        "gazole": 1.949,
        "sp95": 1.994
      }
    },
    {
      "id": "93364",
      "cp": "3030-486",
      "ville": "Coimbra",
      "adresse": "av.ª Vale Das Flores",
      "brand": "Galp",
      "lat": 40.19554,
      "lng": -8.40888,
      "fuels": {
        "gazole": 1.949,
        "sp95": 1.994
      }
    },
    {
      "id": "94838",
      "cp": "3040-255",
      "ville": "Coimbra",
      "adresse": "Avenida Inês De castro, Santa Clara",
      "brand": "Moeve",
      "lat": 40.202553,
      "lng": -8.431588,
      "fuels": {
        "gazole": 1.856,
        "sp95": 1.893
      }
    },
    {
      "id": "65242",
      "cp": "3000-214",
      "ville": "Coimbra",
      "adresse": "Avenida Lousã 98",
      "brand": "Prio",
      "lat": 40.203365,
      "lng": -8.425216,
      "fuels": {
        "sp95": 1.949
      }
    },
    {
      "id": "69410",
      "cp": "3000-125",
      "ville": "Coimbra",
      "adresse": "Circular Externa De Coimbra",
      "brand": "Galp",
      "lat": 40.22189,
      "lng": -8.43117,
      "fuels": {
        "gazole": 1.949,
        "sp95": 1.994
      }
    },
    {
      "id": "66522",
      "cp": "3000-477",
      "ville": "Coimbra",
      "adresse": "E N 111,1 - stª Cruz (junto À Academia Do choupal)",
      "brand": "Repsol",
      "lat": 40.227688,
      "lng": -8.446369,
      "fuels": {
        "gazole": 1.939,
        "sp95": 1.979
      }
    },
    {
      "id": "66519",
      "cp": "3150-000",
      "ville": "Coimbra",
      "adresse": "En 1",
      "brand": "Repsol",
      "lat": 40.1259,
      "lng": -8.48953,
      "fuels": {
        "gazole": 1.919,
        "sp95": 1.959
      }
    },
    {
      "id": "66520",
      "cp": "3150-000",
      "ville": "Coimbra",
      "adresse": "En 1",
      "brand": "Repsol",
      "lat": 40.12586,
      "lng": -8.48868,
      "fuels": {
        "gazole": 1.919,
        "sp95": 1.959
      }
    },
    {
      "id": "65251",
      "cp": "3020-324",
      "ville": "Coimbra",
      "adresse": "En 1 Ic 2 (ponte Das Eiras adémia)",
      "brand": "Galp",
      "lat": 40.250965,
      "lng": -8.442072,
      "fuels": {
        "gazole": 1.949,
        "sp95": 1.994
      }
    },
    {
      "id": "65431",
      "cp": "3050-106",
      "ville": "Coimbra",
      "adresse": "En 1-Km 201,1 - S",
      "brand": "Galp",
      "lat": 40.30734,
      "lng": -8.44874,
      "fuels": {
        "gazole": 1.949,
        "sp95": 1.994
      }
    },
    {
      "id": "74727",
      "cp": "3045-315",
      "ville": "Coimbra",
      "adresse": "En 341 Km 41,5",
      "brand": "Repsol",
      "lat": 40.193051,
      "lng": -8.521859,
      "fuels": {
        "gazole": 1.909,
        "sp95": 1.949
      }
    },
    {
      "id": "81745",
      "cp": "3025-300",
      "ville": "Coimbra",
      "adresse": "en.111-Km 35,100 - Cidreira",
      "brand": "Cepsa",
      "lat": 40.24117,
      "lng": -8.48303,
      "fuels": {
        "gazole": 1.941,
        "sp95": 1.963
      }
    },
    {
      "id": "68693",
      "cp": "3030-853",
      "ville": "Coimbra",
      "adresse": "Estrada Da Beira - en17",
      "brand": "Alves Bandeira",
      "lat": 40.17415,
      "lng": -8.38569,
      "fuels": {
        "gazole": 1.969,
        "sp95": 1.986
      }
    },
    {
      "id": "65247",
      "cp": "3000-032",
      "ville": "Coimbra",
      "adresse": "Ic 2 Km 183,4",
      "brand": "Galp",
      "lat": 40.167801,
      "lng": -8.456432,
      "fuels": {
        "gazole": 1.949,
        "sp95": 1.994
      }
    },
    {
      "id": "65248",
      "cp": "3000-000",
      "ville": "Coimbra",
      "adresse": "Ic 2 Km 183,4",
      "brand": "Galp",
      "lat": 40.16781,
      "lng": -8.45585,
      "fuels": {
        "gazole": 1.949,
        "sp95": 1.994
      }
    },
    {
      "id": "73760",
      "cp": "3040-881",
      "ville": "Coimbra",
      "adresse": "Lugar De Vale Ou Presa E Telhões (ao Lado Do Retail Park De taveiro)",
      "brand": "Prio",
      "lat": 40.19243,
      "lng": -8.508243,
      "fuels": {
        "sp95": 1.949
      }
    },
    {
      "id": "87319",
      "cp": "3040-197",
      "ville": "Coimbra",
      "adresse": "r. Central Da mesura, nº35",
      "brand": "Intermarché",
      "lat": 40.19675,
      "lng": -8.44575,
      "fuels": {
        "gazole": 1.817,
        "sp95": 1.837
      }
    },
    {
      "id": "80016",
      "cp": "3020-322",
      "ville": "Coimbra",
      "adresse": "Ribeira De Eiras",
      "brand": "Auchan",
      "lat": 40.25461,
      "lng": -8.429237,
      "fuels": {
        "gazole": 1.839,
        "sp95": 1.879
      }
    },
    {
      "id": "65887",
      "cp": "3020-000",
      "ville": "Coimbra",
      "adresse": "Rotunda Da Pedrulha",
      "brand": "Bp",
      "lat": 40.238182,
      "lng": -8.43772,
      "fuels": {
        "gazole": 1.969,
        "sp95": 2.019
      }
    },
    {
      "id": "65796",
      "cp": "3045-016",
      "ville": "Coimbra",
      "adresse": "Rua Da Bayer",
      "brand": "Galp",
      "lat": 40.19881,
      "lng": -8.46112,
      "fuels": {
        "gazole": 1.939,
        "sp95": 1.946
      }
    },
    {
      "id": "68428",
      "cp": "3030-853",
      "ville": "Coimbra",
      "adresse": "Rua Da Beira",
      "brand": "Alves Bandeira",
      "lat": 40.1737,
      "lng": -8.3857,
      "fuels": {
        "gazole": 1.969,
        "sp95": 1.986
      }
    },
    {
      "id": "66372",
      "cp": "3020-886",
      "ville": "Coimbra",
      "adresse": "Rua Dos Troviscais nº 32",
      "brand": "Cepsa",
      "lat": 40.296539,
      "lng": -8.418406,
      "fuels": {
        "gazole": 1.911,
        "sp95": 1.968
      }
    },
    {
      "id": "65245",
      "cp": "3000-000",
      "ville": "Coimbra",
      "adresse": "Rua dr. Manuel Almeida E Sousa",
      "brand": "Galp",
      "lat": 40.228726,
      "lng": -8.438688,
      "fuels": {
        "gazole": 1.949,
        "sp95": 1.994
      }
    },
    {
      "id": "73601",
      "cp": "3030-329",
      "ville": "Coimbra",
      "adresse": "Rua Ferrer Correia (estrada Das beiras)",
      "brand": "Auchan",
      "lat": 40.189957,
      "lng": -8.401005,
      "fuels": {
        "gazole": 1.839,
        "sp95": 1.879
      }
    },
    {
      "id": "70714",
      "cp": "3150-110",
      "ville": "Condeixa-A-Nova",
      "adresse": "Barreira",
      "brand": "Intermarché",
      "lat": 40.12305,
      "lng": -8.50265,
      "fuels": {
        "gazole": 1.817,
        "sp95": 1.837
      }
    },
    {
      "id": "93272",
      "cp": "3150-259",
      "ville": "Condeixa-A-Nova",
      "adresse": "En 342 - Palha Cana",
      "brand": "Bp",
      "lat": 40.107243,
      "lng": -8.51169,
      "fuels": {
        "gazole": 1.959,
        "sp95": 2.009
      }
    },
    {
      "id": "69108",
      "cp": "3041-901",
      "ville": "Condeixa-A-Nova",
      "adresse": "en1 / ic2 Km 185,6",
      "brand": "Cepsa",
      "lat": 40.11471,
      "lng": -8.50334,
      "fuels": {
        "gazole": 1.906,
        "sp95": 1.943
      }
    },
    {
      "id": "69107",
      "cp": "3150-193",
      "ville": "Condeixa-A-Nova",
      "adresse": "ic2 Km 175.5, Travaz",
      "brand": "Cepsa",
      "lat": 40.11466,
      "lng": -8.50294,
      "fuels": {
        "gazole": 1.906,
        "sp95": 1.943
      }
    },
    {
      "id": "68284",
      "cp": "3150-225",
      "ville": "Condeixa-A-Nova",
      "adresse": "Quinta Nova",
      "brand": "Bp",
      "lat": 40.10623,
      "lng": -8.49046,
      "fuels": {
        "gazole": 1.859,
        "sp95": 1.979
      }
    },
    {
      "id": "71491",
      "cp": "3080-513",
      "ville": "Figueira Da Foz",
      "adresse": "A 17,  Sublanço Quiaios / A 14, Km 62",
      "brand": "Repsol",
      "lat": 40.211784,
      "lng": -8.810508,
      "fuels": {
        "gazole": 1.994,
        "sp95": 2.029
      }
    },
    {
      "id": "71490",
      "cp": "3080-513",
      "ville": "Figueira Da Foz",
      "adresse": "A 17,  Sublanço Quiaios / A 14, Km 62",
      "brand": "Repsol",
      "lat": 40.213478,
      "lng": -8.811096,
      "fuels": {
        "gazole": 1.994,
        "sp95": 2.029
      }
    },
    {
      "id": "92974",
      "cp": "3080-604",
      "ville": "Figueira Da Foz",
      "adresse": "av. Dom João Alves",
      "brand": "Bp",
      "lat": 40.162286,
      "lng": -8.848058,
      "fuels": {
        "gazole": 1.919,
        "sp95": 1.965
      }
    },
    {
      "id": "80467",
      "cp": "3080-853",
      "ville": "Figueira Da Foz",
      "adresse": "av. dr. Francisco De Sá carneiro, Vila Robim",
      "brand": "Auchan",
      "lat": 40.163612,
      "lng": -8.841515,
      "fuels": {
        "gazole": 1.799,
        "sp95": 1.859
      }
    },
    {
      "id": "65918",
      "cp": "3080-050",
      "ville": "Figueira Da Foz",
      "adresse": "av. Saraiva De carvalho, 16",
      "brand": "Bp",
      "lat": 40.14816,
      "lng": -8.85024,
      "fuels": {
        "gazole": 1.919,
        "sp95": 1.965
      }
    },
    {
      "id": "66514",
      "cp": "3080-000",
      "ville": "Figueira Da Foz",
      "adresse": "Bairro Da Estação",
      "brand": "Repsol",
      "lat": 40.14918,
      "lng": -8.84704,
      "fuels": {
        "gazole": 1.929,
        "sp95": 1.969
      }
    },
    {
      "id": "65289",
      "cp": "3080-000",
      "ville": "Figueira Da Foz",
      "adresse": "En 109 - Estrada De Aveiro-Ferrugenta",
      "brand": "Galp",
      "lat": 40.179343,
      "lng": -8.828362,
      "fuels": {
        "gazole": 1.929,
        "sp95": 1.973
      }
    },
    {
      "id": "94523",
      "cp": "3090-485",
      "ville": "Figueira Da Foz",
      "adresse": "En 109 - nº 176",
      "brand": "Galp",
      "lat": 40.018032,
      "lng": -8.813965,
      "fuels": {
        "gazole": 1.969,
        "sp95": 2.012
      }
    },
    {
      "id": "65292",
      "cp": "3080-000",
      "ville": "Figueira Da Foz",
      "adresse": "En 109 Km 114,15",
      "brand": "Galp",
      "lat": 40.179479,
      "lng": -8.828932,
      "fuels": {
        "gazole": 1.929,
        "sp95": 1.973
      }
    },
    {
      "id": "88999",
      "cp": "3080-847",
      "ville": "Figueira Da Foz",
      "adresse": "En 109, Châ Tavarede",
      "brand": "Intermarché",
      "lat": 40.16683,
      "lng": -8.83749,
      "fuels": {
        "gazole": 1.768,
        "sp95": 1.828
      }
    },
    {
      "id": "94508",
      "cp": "3080-026",
      "ville": "Figueira Da Foz",
      "adresse": "En 109, Km 117,250 - Estrada De Mira - Casal Da Robala",
      "brand": "Galp",
      "lat": 40.1559,
      "lng": -8.843305,
      "fuels": {
        "gazole": 1.929,
        "sp95": 1.973
      }
    },
    {
      "id": "93566",
      "cp": "3080-511",
      "ville": "Figueira Da Foz",
      "adresse": "Estrada Nacional 109, Km 107.900 E",
      "brand": "Alves Bandeira",
      "lat": 40.2296,
      "lng": -8.800427,
      "fuels": {
        "gazole": 1.959,
        "sp95": 1.976
      }
    },
    {
      "id": "93393",
      "cp": "3080-510",
      "ville": "Figueira Da Foz",
      "adresse": "Lugar Dos Quatro Caminhos",
      "brand": "Leclerc",
      "lat": 40.164868,
      "lng": -8.851725,
      "fuels": {
        "gazole": 1.799,
        "sp95": 1.859
      }
    },
    {
      "id": "68685",
      "cp": "3080-544",
      "ville": "Figueira Da Foz",
      "adresse": "r. Da Figueira Da foz, 23",
      "brand": "Alves Bandeira",
      "lat": 40.20889,
      "lng": -8.84241,
      "fuels": {
        "gazole": 1.999,
        "sp95": 2.016
      }
    },
    {
      "id": "68671",
      "cp": "3090-455",
      "ville": "Figueira Da Foz",
      "adresse": "r. De Santa Bárbara",
      "brand": "Alves Bandeira",
      "lat": 40.07293,
      "lng": -8.81931,
      "fuels": {
        "gazole": 1.999,
        "sp95": 2.016
      }
    },
    {
      "id": "72153",
      "cp": "3080-756",
      "ville": "Figueira Da Foz",
      "adresse": "Rua Da Antena nº 32",
      "brand": "Alves Bandeira",
      "lat": 40.26399,
      "lng": -8.77887,
      "fuels": {
        "gazole": 1.999,
        "sp95": 2.016
      }
    },
    {
      "id": "93798",
      "cp": "3090-431",
      "ville": "Figueira Da Foz",
      "adresse": "Rua Da filarmónica, 24",
      "brand": "Genérico",
      "lat": 40.094643,
      "lng": -8.771996,
      "fuels": {
        "gazole": 1.983,
        "sp95": 1.997
      }
    },
    {
      "id": "71191",
      "cp": "3090-797",
      "ville": "Figueira Da Foz",
      "adresse": "Rua Das cavadas, nº55",
      "brand": "Alves Bandeira",
      "lat": 40.223127,
      "lng": -8.751183,
      "fuels": {
        "gazole": 1.969,
        "sp95": 2.024
      }
    },
    {
      "id": "79109",
      "cp": "3090-452",
      "ville": "Figueira Da Foz",
      "adresse": "Rua Das Flores",
      "brand": "Intermarché",
      "lat": 40.084465,
      "lng": -8.825225,
      "fuels": {
        "gazole": 1.768,
        "sp95": 1.828
      }
    },
    {
      "id": "93306",
      "cp": "3090-380",
      "ville": "Figueira Da Foz",
      "adresse": "Rua Das olaias, 27",
      "brand": "Bp",
      "lat": 40.12184,
      "lng": -8.85278,
      "fuels": {
        "gazole": 1.919,
        "sp95": 1.965
      }
    },
    {
      "id": "88802",
      "cp": "3090-446",
      "ville": "Figueira Da Foz",
      "adresse": "Rua De Santa eulália, n.º 1",
      "brand": "Galp",
      "lat": 40.237877,
      "lng": -8.738884,
      "fuels": {
        "gazole": 1.933,
        "sp95": 1.947
      }
    },
    {
      "id": "70877",
      "cp": "3090-401",
      "ville": "Figueira Da Foz",
      "adresse": "Rua Do Ateneu nº38",
      "brand": "Alves Bandeira",
      "lat": 40.1928,
      "lng": -8.786795,
      "fuels": {
        "gazole": 1.969,
        "sp95": 2.024
      }
    },
    {
      "id": "93560",
      "cp": "3090-707",
      "ville": "Figueira Da Foz",
      "adresse": "Rua Major Humberto Cruz - Morraceira",
      "brand": "Chamagás",
      "lat": 40.13671,
      "lng": -8.847939,
      "fuels": {
        "gazole": 1.869,
        "sp95": 1.889
      }
    },
    {
      "id": "94252",
      "cp": "3080-642",
      "ville": "Figueira Da Foz",
      "adresse": "Rua Várzea S/N",
      "brand": "Prio",
      "lat": 40.15732,
      "lng": -8.849168,
      "fuels": {
        "sp95": 1.949
      }
    },
    {
      "id": "66512",
      "cp": "3080-000",
      "ville": "Figueira Da Foz",
      "adresse": "Variante Da En 109",
      "brand": "Repsol",
      "lat": 40.03005,
      "lng": -8.8342,
      "fuels": {
        "gazole": 1.969,
        "sp95": 2.009
      }
    },
    {
      "id": "66513",
      "cp": "3080-000",
      "ville": "Figueira Da Foz",
      "adresse": "Variante Da En 109",
      "brand": "Repsol",
      "lat": 40.02982,
      "lng": -8.83434,
      "fuels": {
        "gazole": 1.969,
        "sp95": 2.009
      }
    },
    {
      "id": "93677",
      "cp": "3330-221",
      "ville": "Góis",
      "adresse": "Bordeiro",
      "brand": "Alves Bandeira",
      "lat": 40.178173,
      "lng": -8.096597,
      "fuels": {
        "gazole": 1.999,
        "sp95": 2.016
      }
    },
    {
      "id": "78132",
      "cp": "3330-240",
      "ville": "Góis",
      "adresse": "Esporão",
      "brand": "Alves Bandeira",
      "lat": 40.124055,
      "lng": -8.122733,
      "fuels": {
        "gazole": 1.999,
        "sp95": 2.016
      }
    },
    {
      "id": "68534",
      "cp": "3330-304",
      "ville": "Góis",
      "adresse": "Estrada Da Beira - Bairro s. Paulo",
      "brand": "Alves Bandeira",
      "lat": 40.15536,
      "lng": -8.11415,
      "fuels": {
        "gazole": 1.999,
        "sp95": 2.016
      }
    },
    {
      "id": "87136",
      "cp": "3330-460",
      "ville": "Góis",
      "adresse": "Largo Do Adro Da igreja, nº 22",
      "brand": "Galp",
      "lat": 40.181637,
      "lng": -8.152372,
      "fuels": {
        "gazole": 1.933,
        "sp95": 1.985
      }
    },
    {
      "id": "95144",
      "cp": "3200-222",
      "ville": "Lousã",
      "adresse": "av. dr. João Maria Cardoso",
      "brand": "Repsol",
      "lat": 40.11385,
      "lng": -8.24455,
      "fuels": {
        "gazole": 1.954,
        "sp95": 1.994
      }
    },
    {
      "id": "68897",
      "cp": "3200-304",
      "ville": "Lousã",
      "adresse": "Bairro Da Estação",
      "brand": "Prio",
      "lat": 40.1558,
      "lng": -8.21262,
      "fuels": {
        "gazole": 1.889,
        "sp95": 1.904
      }
    },
    {
      "id": "68371",
      "cp": "3200-133",
      "ville": "Lousã",
      "adresse": "En 342 Ao Km 8,75 (variante Lousã-Miranda Do corvo)",
      "brand": "Galp",
      "lat": 40.11746,
      "lng": -8.28732,
      "fuels": {
        "gazole": 1.949,
        "sp95": 1.994
      }
    },
    {
      "id": "93262",
      "cp": "3200-261",
      "ville": "Lousã",
      "adresse": "Rua Cidade De Coimbra  (casa velha)",
      "brand": "Intermarché",
      "lat": 40.12998,
      "lng": -8.25017,
      "fuels": {
        "gazole": 1.817,
        "sp95": 1.837
      }
    },
    {
      "id": "65391",
      "cp": "3200-000",
      "ville": "Lousã",
      "adresse": "Rua De Coimbra",
      "brand": "Galp",
      "lat": 40.11942,
      "lng": -8.24877,
      "fuels": {
        "gazole": 1.949,
        "sp95": 1.994
      }
    },
    {
      "id": "65440",
      "cp": "3070-000",
      "ville": "Mira",
      "adresse": "En 109 (rua Afonso costa)",
      "brand": "Galp",
      "lat": 40.42645,
      "lng": -8.73657,
      "fuels": {
        "gazole": 1.909,
        "sp95": 1.954
      }
    },
    {
      "id": "65437",
      "cp": "3070-000",
      "ville": "Mira",
      "adresse": "En 109 Km 86,74",
      "brand": "Galp",
      "lat": 40.406527,
      "lng": -8.73477,
      "fuels": {
        "gazole": 1.909,
        "sp95": 1.954
      }
    },
    {
      "id": "65438",
      "cp": "3070-000",
      "ville": "Mira",
      "adresse": "En 109 Km 86,74",
      "brand": "Galp",
      "lat": 40.40658,
      "lng": -8.73517,
      "fuels": {
        "gazole": 1.909,
        "sp95": 1.954
      }
    },
    {
      "id": "66953",
      "cp": "3070-212",
      "ville": "Mira",
      "adresse": "En 234 Km 2,1 , Via Do Infante d. Pedro",
      "brand": "Genérico",
      "lat": 40.420692,
      "lng": -8.713302,
      "fuels": {
        "gazole": 1.88,
        "sp95": 1.92
      }
    },
    {
      "id": "65439",
      "cp": "3070-000",
      "ville": "Mira",
      "adresse": "En 334 Km 0,25",
      "brand": "Galp",
      "lat": 40.45561,
      "lng": -8.80012,
      "fuels": {
        "gazole": 1.909,
        "sp95": 1.954
      }
    },
    {
      "id": "93423",
      "cp": "3070-533",
      "ville": "Mira",
      "adresse": "Rua Do cemitério, 207",
      "brand": "Genérico",
      "lat": 40.45344,
      "lng": -8.715679,
      "fuels": {
        "gazole": 1.869,
        "sp95": 1.899
      }
    },
    {
      "id": "78770",
      "cp": "3070-323",
      "ville": "Mira",
      "adresse": "Rua Fernandes Costa",
      "brand": "Intermarché",
      "lat": 40.42665,
      "lng": -8.73057,
      "fuels": {
        "gazole": 1.818,
        "sp95": 1.838
      }
    },
    {
      "id": "66523",
      "cp": "3220-186",
      "ville": "Miranda Do Corvo",
      "adresse": "av. Arménio Da Costa simões, 78",
      "brand": "Repsol",
      "lat": 40.09558,
      "lng": -8.3315,
      "fuels": {
        "gazole": 1.929,
        "sp95": 1.979
      }
    },
    {
      "id": "93261",
      "cp": "3220-115",
      "ville": "Miranda Do Corvo",
      "adresse": "Quinta De s. Pedro - Meâs",
      "brand": "Intermarché",
      "lat": 40.08,
      "lng": -8.32,
      "fuels": {
        "gazole": 1.817,
        "sp95": 1.837
      }
    },
    {
      "id": "70674",
      "cp": "3220-186",
      "ville": "Miranda Do Corvo",
      "adresse": "Rua Casa Do Gaiatoen 342 - Km 54,8",
      "brand": "Repsol",
      "lat": 40.09596,
      "lng": -8.33002,
      "fuels": {
        "gazole": 1.929,
        "sp95": 1.979
      }
    },
    {
      "id": "79572",
      "cp": "3220-423",
      "ville": "Miranda Do Corvo",
      "adresse": "Rua De s. João",
      "brand": "Alves Bandeira",
      "lat": 40.15738,
      "lng": -8.33427,
      "fuels": {
        "gazole": 1.949,
        "sp95": 2.004
      }
    },
    {
      "id": "69908",
      "cp": "3220-115",
      "ville": "Miranda Do Corvo",
      "adresse": "Rua Trás Das Casas 29",
      "brand": "Genérico",
      "lat": 40.083,
      "lng": -8.318,
      "fuels": {
        "gazole": 1.864,
        "sp95": 1.884
      }
    },
    {
      "id": "68654",
      "cp": "3140-563",
      "ville": "Montemor-O-Velho",
      "adresse": "en111",
      "brand": "Alves Bandeira",
      "lat": 40.21795,
      "lng": -8.59735,
      "fuels": {
        "gazole": 1.948,
        "sp95": 1.993
      }
    },
    {
      "id": "68660",
      "cp": "3140-274",
      "ville": "Montemor-O-Velho",
      "adresse": "en111",
      "brand": "Alves Bandeira",
      "lat": 40.18091,
      "lng": -8.676023,
      "fuels": {
        "gazole": 1.959,
        "sp95": 1.976
      }
    },
    {
      "id": "68656",
      "cp": "3140-390",
      "ville": "Montemor-O-Velho",
      "adresse": "en341, n.16",
      "brand": "Alves Bandeira",
      "lat": 40.173036,
      "lng": -8.618255,
      "fuels": {
        "gazole": 1.959,
        "sp95": 1.976
      }
    },
    {
      "id": "68694",
      "cp": "3140-274",
      "ville": "Montemor-O-Velho",
      "adresse": "Estrada Nacional 111",
      "brand": "Alves Bandeira",
      "lat": 40.18119,
      "lng": -8.67621,
      "fuels": {
        "gazole": 1.959,
        "sp95": 1.976
      }
    },
    {
      "id": "65459",
      "cp": "3140-000",
      "ville": "Montemor-O-Velho",
      "adresse": "Largo Do Alhastro",
      "brand": "Galp",
      "lat": 40.20385,
      "lng": -8.64871,
      "fuels": {
        "gazole": 1.949,
        "sp95": 1.994
      }
    },
    {
      "id": "68659",
      "cp": "3140-022",
      "ville": "Montemor-O-Velho",
      "adresse": "r. Da Academia - Arazede",
      "brand": "Alves Bandeira",
      "lat": 40.28086,
      "lng": -8.65274,
      "fuels": {
        "gazole": 1.978,
        "sp95": 1.985
      }
    },
    {
      "id": "71777",
      "cp": "3140-021",
      "ville": "Montemor-O-Velho",
      "adresse": "Rua Da Cooperativa",
      "brand": "Galp",
      "lat": 40.25608,
      "lng": -8.66461,
      "fuels": {
        "gazole": 1.923,
        "sp95": 1.947
      }
    },
    {
      "id": "94540",
      "cp": "3140-166",
      "ville": "Montemor-O-Velho",
      "adresse": "Rua Principal Da coutada, nº484",
      "brand": "Prio",
      "lat": 40.20639,
      "lng": -8.630816,
      "fuels": {
        "sp95": 1.849
      }
    },
    {
      "id": "67422",
      "cp": "3140-249",
      "ville": "Montemor-O-Velho",
      "adresse": "Urbanização Vinha Da parreira,lote nº3",
      "brand": "Intermarché",
      "lat": 40.184727,
      "lng": -8.672047,
      "fuels": {
        "gazole": 1.825,
        "sp95": 1.845
      }
    },
    {
      "id": "70667",
      "cp": "3405-032",
      "ville": "Oliveira Do Hospital",
      "adresse": "av. d. Manuel I nº 75",
      "brand": "Galp",
      "lat": 40.41958,
      "lng": -7.88247,
      "fuels": {
        "gazole": 1.959,
        "sp95": 2.004
      }
    },
    {
      "id": "68609",
      "cp": "3400-058",
      "ville": "Oliveira Do Hospital",
      "adresse": "av. dr. Carlos campos, n.º 3",
      "brand": "Prio",
      "lat": 40.3619,
      "lng": -7.86059,
      "fuels": {
        "sp95": 1.899
      }
    },
    {
      "id": "65509",
      "cp": "3405-033",
      "ville": "Oliveira Do Hospital",
      "adresse": "av. Nova nº 24",
      "brand": "Galp",
      "lat": 40.42341,
      "lng": -7.88569,
      "fuels": {
        "gazole": 1.959,
        "sp95": 2.004
      }
    },
    {
      "id": "65510",
      "cp": "3400-454",
      "ville": "Oliveira Do Hospital",
      "adresse": "En 17",
      "brand": "Galp",
      "lat": 40.31536,
      "lng": -7.89973,
      "fuels": {
        "gazole": 1.969,
        "sp95": 2.012
      }
    },
    {
      "id": "74833",
      "cp": "3405-251",
      "ville": "Oliveira Do Hospital",
      "adresse": "En 17 nº.18 - Chamusca Da Beira",
      "brand": "Freitas",
      "lat": 40.35692,
      "lng": -7.817406,
      "fuels": {
        "gazole": 1.928,
        "sp95": 1.98
      }
    },
    {
      "id": "66511",
      "cp": "3400-909",
      "ville": "Oliveira Do Hospital",
      "adresse": "Lugar De Catraia De São Paio",
      "brand": "Repsol",
      "lat": 40.3451,
      "lng": -7.84552,
      "fuels": {
        "gazole": 1.969,
        "sp95": 2.009
      }
    },
    {
      "id": "69212",
      "cp": "3405-155",
      "ville": "Oliveira Do Hospital",
      "adresse": "Variante De Lagares Da Beira",
      "brand": "Alves Bandeira",
      "lat": 40.39781,
      "lng": -7.84929,
      "fuels": {
        "gazole": 1.961,
        "sp95": 1.984
      }
    },
    {
      "id": "68667",
      "cp": "3400-060",
      "ville": "Oliveira Do Hospital",
      "adresse": "Zona Industrial  Oliveira De Hospital",
      "brand": "Alves Bandeira",
      "lat": 40.35358,
      "lng": -7.82528,
      "fuels": {
        "gazole": 1.949,
        "sp95": 1.966
      }
    },
    {
      "id": "69279",
      "cp": "3320-244",
      "ville": "Pampilhosa Da Serra",
      "adresse": "Alameda dra. Helena Fernandes Barateiro",
      "brand": "Genérico",
      "lat": 40.04459,
      "lng": -7.947893,
      "fuels": {
        "gazole": 1.939,
        "sp95": 1.954
      }
    },
    {
      "id": "79060",
      "cp": "3320-000",
      "ville": "Pampilhosa Da Serra",
      "adresse": "En 112",
      "brand": "Freitas",
      "lat": 40.04343,
      "lng": -7.88857,
      "fuels": {
        "gazole": 1.953,
        "sp95": 2.005
      }
    },
    {
      "id": "86906",
      "cp": "3320-365",
      "ville": "Pampilhosa Da Serra",
      "adresse": "Portela De Unhais",
      "brand": "Freitas",
      "lat": 40.12435,
      "lng": -7.80061,
      "fuels": {
        "gazole": 1.953,
        "sp95": 2.005
      }
    },
    {
      "id": "70485",
      "cp": "3360-259",
      "ville": "Penacova",
      "adresse": "En 2-3, Km 3,400 - Silveirinho",
      "brand": "Genérico",
      "lat": 40.30859,
      "lng": -8.192012,
      "fuels": {
        "gazole": 1.97,
        "sp95": 1.955
      }
    },
    {
      "id": "93298",
      "cp": "3360-172",
      "ville": "Penacova",
      "adresse": "Estrada Nacional nº 2",
      "brand": "Freitas",
      "lat": 40.269733,
      "lng": -8.272324,
      "fuels": {
        "gazole": 1.953,
        "sp95": 2.005
      }
    },
    {
      "id": "88739",
      "cp": "3360-321",
      "ville": "Penacova",
      "adresse": "Largo Dona Amélia",
      "brand": "Alves Bandeira",
      "lat": 40.274047,
      "lng": -8.283875,
      "fuels": {
        "gazole": 1.978,
        "sp95": 1.985
      }
    },
    {
      "id": "94610",
      "cp": "3360-287",
      "ville": "Penacova",
      "adresse": "Lugar De Espinheira",
      "brand": "Galp",
      "lat": 40.304897,
      "lng": -8.321902,
      "fuels": {
        "gazole": 1.913,
        "sp95": 1.965
      }
    },
    {
      "id": "68676",
      "cp": "3360-054",
      "ville": "Penacova",
      "adresse": "r. Da Portela Da Fonte",
      "brand": "Alves Bandeira",
      "lat": 40.2884,
      "lng": -8.32906,
      "fuels": {
        "gazole": 1.999,
        "sp95": 2.016
      }
    },
    {
      "id": "80559",
      "cp": "3360-101",
      "ville": "Penacova",
      "adresse": "Rua Principal nº1",
      "brand": "Genérico",
      "lat": 40.261974,
      "lng": -8.349717,
      "fuels": {
        "gazole": 1.999,
        "sp95": 1.995
      }
    },
    {
      "id": "65538",
      "cp": "3230-000",
      "ville": "Penela",
      "adresse": "En 110 / Ic 3",
      "brand": "Galp",
      "lat": 40.027922,
      "lng": -8.394101,
      "fuels": {
        "gazole": 1.949,
        "sp95": 1.994
      }
    },
    {
      "id": "87979",
      "cp": "3230-347",
      "ville": "Penela",
      "adresse": "Zona Industrial De Penela",
      "brand": "Cepsa",
      "lat": 40.01569,
      "lng": -8.370878,
      "fuels": {
        "gazole": 1.886,
        "sp95": 1.912
      }
    },
    {
      "id": "92977",
      "cp": "3230-292",
      "ville": "Penela",
      "adresse": "Zona Industrial De penela, Lote 1",
      "brand": "Prio",
      "lat": 40.01876,
      "lng": -8.37316,
      "fuels": {
        "gazole": 1.899,
        "sp95": 1.899
      }
    },
    {
      "id": "94619",
      "cp": "3130-200",
      "ville": "Soure",
      "adresse": "Cruz-Nova",
      "brand": "Repsol",
      "lat": 40.064014,
      "lng": -8.618356,
      "fuels": {
        "gazole": 1.939,
        "sp95": 1.945
      }
    },
    {
      "id": "67544",
      "cp": "3130-080",
      "ville": "Soure",
      "adresse": "Estrada Larga",
      "brand": "Genérico",
      "lat": 40.15677,
      "lng": -8.63387,
      "fuels": {
        "gazole": 1.838,
        "sp95": 1.91
      }
    },
    {
      "id": "94620",
      "cp": "3130-581",
      "ville": "Soure",
      "adresse": "Quinta Da Coutada",
      "brand": "Repsol",
      "lat": 40.053387,
      "lng": -8.624198,
      "fuels": {
        "gazole": 1.939,
        "sp95": 1.945
      }
    },
    {
      "id": "72844",
      "cp": "3130-200",
      "ville": "Soure",
      "adresse": "Rua dr. João Esteves Simões",
      "brand": "Intermarché",
      "lat": 40.06335,
      "lng": -8.61887,
      "fuels": {
        "gazole": 1.817,
        "sp95": 1.837
      }
    },
    {
      "id": "70453",
      "cp": "3130-212",
      "ville": "Soure",
      "adresse": "Rua Padre Curado nº4 - Samuel",
      "brand": "Alves Bandeira",
      "lat": 40.09435,
      "lng": -8.716431,
      "fuels": {
        "gazole": 1.969,
        "sp95": 2.024
      }
    },
    {
      "id": "94255",
      "cp": "3420-427",
      "ville": "Tábua",
      "adresse": "Cova Do Barro",
      "brand": "Intermarché",
      "lat": 40.364235,
      "lng": -8.024461,
      "fuels": {
        "gazole": 1.869,
        "sp95": 1.879
      }
    },
    {
      "id": "65672",
      "cp": "3420-164",
      "ville": "Tábua",
      "adresse": "En 17 Km 54,75",
      "brand": "Galp",
      "lat": 40.28895,
      "lng": -8.05773,
      "fuels": {
        "gazole": 1.919,
        "sp95": 1.963
      }
    },
    {
      "id": "93319",
      "cp": "3420-136",
      "ville": "Tábua",
      "adresse": "Estrada De s. Miguel n.º 28",
      "brand": "Freitas",
      "lat": 40.38647,
      "lng": -7.945226,
      "fuels": {
        "gazole": 1.973,
        "sp95": 1.987
      }
    },
    {
      "id": "91875",
      "cp": "3420-316",
      "ville": "Tábua",
      "adresse": "r. Da Ceramica",
      "brand": "Repsol",
      "lat": 40.36283,
      "lng": -8.03134,
      "fuels": {
        "gazole": 1.919,
        "sp95": 1.959
      }
    },
    {
      "id": "68657",
      "cp": "3420-316",
      "ville": "Tábua",
      "adresse": "r. Da Indústria - Zona Industrial De Tábua",
      "brand": "Alves Bandeira",
      "lat": 40.364313,
      "lng": -8.012436,
      "fuels": {
        "gazole": 1.918,
        "sp95": 1.964
      }
    },
    {
      "id": "94314",
      "cp": "3420-325",
      "ville": "Tábua",
      "adresse": "Rua dr. Francisco beirão, 17",
      "brand": "Galp",
      "lat": 40.35999,
      "lng": -8.029334,
      "fuels": {
        "gazole": 1.919,
        "sp95": 1.963
      }
    },
    {
      "id": "65756",
      "cp": "3350-000",
      "ville": "Vila Nova De Poiares",
      "adresse": "av. Manuel Carvalho Coelho",
      "brand": "Galp",
      "lat": 40.205629,
      "lng": -8.248116,
      "fuels": {
        "gazole": 1.949,
        "sp95": 1.994
      }
    },
    {
      "id": "68663",
      "cp": "3350-154",
      "ville": "Vila Nova De Poiares",
      "adresse": "av. Manuel Carvalho Coelho",
      "brand": "Alves Bandeira",
      "lat": 40.20674,
      "lng": -8.24982,
      "fuels": {
        "gazole": 1.978,
        "sp95": 1.985
      }
    },
    {
      "id": "68533",
      "cp": "3350-110",
      "ville": "Vila Nova De Poiares",
      "adresse": "en17 - Vale De Vaz",
      "brand": "Alves Bandeira",
      "lat": 40.18497,
      "lng": -8.25922,
      "fuels": {
        "gazole": 1.948,
        "sp95": 1.993
      }
    }
  ]
}