{
  "code": "COIMBRA",
  "name": "Coimbra",
  "regionCode": "C",
  "regionName": "Centro",
  "asOf": "2026-07-02T18:25:19.167Z",
  "source": "https://precoscombustiveis.dgeg.gov.pt/",
  "stationCount": 94,
  "fuels": {
    "gazole": {
      "count": 88,
      "mean": 1.8248,
      "median": 1.8425,
      "min": 1.679,
      "max": 1.939
    },
    "sp95": {
      "count": 94,
      "mean": 1.9136,
      "median": 1.9195,
      "min": 1.779,
      "max": 2.029
    }
  },
  "stations": [
    {
      "id": "66279",
      "cp": "3300-118",
      "ville": "Arganil",
      "adresse": "Estrada Nacional 342-4, Km 1.5",
      "brand": "Moeve",
      "lat": 40.23154,
      "lng": -8.063031,
      "fuels": {
        "gazole": 1.841,
        "sp95": 1.913
      }
    },
    {
      "id": "66278",
      "cp": "3300-118",
      "ville": "Arganil",
      "adresse": "Estrada Nacional 342-4, Km 1.5",
      "brand": "Cepsa",
      "lat": 40.232445,
      "lng": -8.063549,
      "fuels": {
        "gazole": 1.841,
        "sp95": 1.913
      }
    },
    {
      "id": "90720",
      "cp": "3300-109",
      "ville": "Arganil",
      "adresse": "Lugar Da Barrocaem 523",
      "brand": "Intermarché",
      "lat": 40.220066,
      "lng": -8.061898,
      "fuels": {
        "gazole": 1.759,
        "sp95": 1.829
      }
    },
    {
      "id": "91280",
      "cp": "3300-329",
      "ville": "Arganil",
      "adresse": "Vilarinho Do Alva",
      "brand": "Genérico",
      "lat": 40.235573,
      "lng": -8.167239,
      "fuels": {
        "gazole": 1.84,
        "sp95": 1.92
      }
    },
    {
      "id": "65811",
      "cp": "3060-000",
      "ville": "Cantanhede",
      "adresse": "a1 - Km 204 - Enxofães - Murtede",
      "brand": "Bp",
      "lat": 40.333233,
      "lng": -8.492696,
      "fuels": {
        "gazole": 1.939,
        "sp95": 2.029
      }
    },
    {
      "id": "65812",
      "cp": "3060-000",
      "ville": "Cantanhede",
      "adresse": "a1 - Km 204 - Enxofães - Murtede",
      "brand": "Bp",
      "lat": 40.334175,
      "lng": -8.495814,
      "fuels": {
        "gazole": 1.939,
        "sp95": 2.029
      }
    },
    {
      "id": "71933",
      "cp": "3060-803",
      "ville": "Cantanhede",
      "adresse": "e.r. 335 - 1, Km 4,60",
      "brand": "Alves Bandeira",
      "lat": 40.3232,
      "lng": -8.677436,
      "fuels": {
        "gazole": 1.884,
        "sp95": 1.984
      }
    },
    {
      "id": "66509",
      "cp": "3060-000",
      "ville": "Cantanhede",
      "adresse": "En 109",
      "brand": "Repsol",
      "lat": 40.303283,
      "lng": -8.75867,
      "fuels": {
        "gazole": 1.824,
        "sp95": 1.909
      }
    },
    {
      "id": "65199",
      "cp": "3065-000",
      "ville": "Cantanhede",
      "adresse": "En 109",
      "brand": "Galp",
      "lat": 40.31181,
      "lng": -8.75441,
      "fuels": {
        "gazole": 1.824,
        "sp95": 1.914
      }
    },
    {
      "id": "65201",
      "cp": "3065-000",
      "ville": "Cantanhede",
      "adresse": "En 109 Km 97,46",
      "brand": "Galp",
      "lat": 40.311693,
      "lng": -8.754109,
      "fuels": {
        "gazole": 1.824,
        "sp95": 1.914
      }
    },
    {
      "id": "66510",
      "cp": "3060-701",
      "ville": "Cantanhede",
      "adresse": "En 109 Km 98,5 Lugar De Inácios",
      "brand": "Repsol",
      "lat": 40.30343,
      "lng": -8.75902,
      "fuels": {
        "gazole": 1.824,
        "sp95": 1.909
      }
    },
    {
      "id": "66521",
      "cp": "3060-000",
      "ville": "Cantanhede",
      "adresse": "En 234 (av. De portugal)",
      "brand": "Repsol",
      "lat": 40.344141,
      "lng": -8.581877,
      "fuels": {
        "gazole": 1.854,
        "sp95": 1.939
      }
    },
    {
      "id": "66515",
      "cp": "3060-000",
      "ville": "Cantanhede",
      "adresse": "En 243 Km 12,190",
      "brand": "Repsol",
      "lat": 40.26845,
      "lng": -8.5086,
      "fuels": {
        "gazole": 1.854,
        "sp95": 1.939
      }
    },
    {
      "id": "93133",
      "cp": "3060-302",
      "ville": "Cantanhede",
      "adresse": "En 335, Km 225, 115 Campanas",
      "brand": "Prio",
      "lat": 40.421738,
      "lng": -8.586275,
      "fuels": {
        "sp95": 1.919
      }
    },
    {
      "id": "68892",
      "cp": "3060-780",
      "ville": "Cantanhede",
      "adresse": "Rua dr. João De matos, nº 36",
      "brand": "Genérico",
      "lat": 40.41613,
      "lng": -8.65837,
      "fuels": {
        "gazole": 1.824,
        "sp95": 1.898
      }
    },
    {
      "id": "68493",
      "cp": "3064-908",
      "ville": "Cantanhede",
      "adresse": "Rua Manuel Rodrigues Batata",
      "brand": "Genérico",
      "lat": 40.31897,
      "lng": -8.75116,
      "fuels": {
        "gazole": 1.794,
        "sp95": 1.879
      }
    },
    {
      "id": "69104",
      "cp": "3030-327",
      "ville": "Coimbra",
      "adresse": "av. General Humberto Delgado",
      "brand": "Moeve",
      "lat": 40.205124,
      "lng": -8.401936,
      "fuels": {
        "gazole": 1.806,
        "sp95": 1.893
      }
    },
    {
      "id": "69105",
      "cp": "3040-193",
      "ville": "Coimbra",
      "adresse": "av. Guarda Inglesa",
      "brand": "Moeve",
      "lat": 40.21039,
      "lng": -8.439548,
      "fuels": {
        "gazole": 1.806,
        "sp95": 1.893
      }
    },
    {
      "id": "65889",
      "cp": "3040-255",
      "ville": "Coimbra",
      "adresse": "av. Inês De Castro",
      "brand": "Bp",
      "lat": 40.200815,
      "lng": -8.43085,
      "fuels": {
        "gazole": 1.889,
        "sp95": 1.979
      }
    },
    {
      "id": "93486",
      "cp": "3040-193",
      "ville": "Coimbra",
      "adresse": "av. José Bonifácio De Andrade E Silva",
      "brand": "Galp",
      "lat": 40.209553,
      "lng": -8.444831,
      "fuels": {
        "gazole": 1.824,
        "sp95": 1.914
      }
    },
    {
      "id": "65243",
      "cp": "3000-000",
      "ville": "Coimbra",
      "adresse": "av. Vale Das Flores",
      "brand": "Galp",
      "lat": 40.194987,
      "lng": -8.408669,
      "fuels": {
        "gazole": 1.864,
        "sp95": 1.954
      }
    },
    {
      "id": "93364",
      "cp": "3030-486",
      "ville": "Coimbra",
      "adresse": "av.ª Vale Das Flores",
      "brand": "Galp",
      "lat": 40.19554,
      "lng": -8.40888,
      "fuels": {
        "gazole": 1.864,
        "sp95": 1.954
      }
    },
    {
      "id": "94838",
      "cp": "3040-255",
      "ville": "Coimbra",
      "adresse": "Avenida Inês De castro, Santa Clara",
      "brand": "Moeve",
      "lat": 40.202553,
      "lng": -8.431588,
      "fuels": {
        "gazole": 1.756,
        "sp95": 1.843
      }
    },
    {
      "id": "65242",
      "cp": "3000-214",
      "ville": "Coimbra",
      "adresse": "Avenida Lousã 98",
      "brand": "Prio",
      "lat": 40.203365,
      "lng": -8.425216,
      "fuels": {
        "sp95": 1.919
      }
    },
    {
      "id": "69410",
      "cp": "3000-125",
      "ville": "Coimbra",
      "adresse": "Circular Externa De Coimbra",
      "brand": "Galp",
      "lat": 40.22189,
      "lng": -8.43117,
      "fuels": {
        "gazole": 1.864,
        "sp95": 1.954
      }
    },
    {
      "id": "66522",
      "cp": "3000-477",
      "ville": "Coimbra",
      "adresse": "E N 111,1 - stª Cruz (junto À Academia Do choupal)",
      "brand": "Repsol",
      "lat": 40.227688,
      "lng": -8.446369,
      "fuels": {
        "gazole": 1.854,
        "sp95": 1.939
      }
    },
    {
      "id": "66519",
      "cp": "3150-000",
      "ville": "Coimbra",
      "adresse": "En 1",
      "brand": "Repsol",
      "lat": 40.1259,
      "lng": -8.48953,
      "fuels": {
        "gazole": 1.834,
        "sp95": 1.919
      }
    },
    {
      "id": "66520",
      "cp": "3150-000",
      "ville": "Coimbra",
      "adresse": "En 1",
      "brand": "Repsol",
      "lat": 40.12586,
      "lng": -8.48868,
      "fuels": {
        "gazole": 1.834,
        "sp95": 1.919
      }
    },
    {
      "id": "65251",
      "cp": "3020-324",
      "ville": "Coimbra",
      "adresse": "En 1 Ic 2 (ponte Das Eiras adémia)",
      "brand": "Galp",
      "lat": 40.250965,
      "lng": -8.442072,
      "fuels": {
        "gazole": 1.864,
        "sp95": 1.954
      }
    },
    {
      "id": "65431",
      "cp": "3050-106",
      "ville": "Coimbra",
      "adresse": "En 1-Km 201,1 - S",
      "brand": "Galp",
      "lat": 40.30734,
      "lng": -8.44874,
      "fuels": {
        "gazole": 1.864,
        "sp95": 1.954
      }
    },
    {
      "id": "74727",
      "cp": "3045-315",
      "ville": "Coimbra",
      "adresse": "En 341 Km 41,5",
      "brand": "Repsol",
      "lat": 40.193051,
      "lng": -8.521859,
      "fuels": {
        "gazole": 1.824,
        "sp95": 1.909
      }
    },
    {
      "id": "81745",
      "cp": "3025-300",
      "ville": "Coimbra",
      "adresse": "en.111-Km 35,100 - Cidreira",
      "brand": "Cepsa",
      "lat": 40.24117,
      "lng": -8.48303,
      "fuels": {
        "gazole": 1.811,
        "sp95": 1.918
      }
    },
    {
      "id": "65247",
      "cp": "3000-032",
      "ville": "Coimbra",
      "adresse": "Ic 2 Km 183,4",
      "brand": "Galp",
      "lat": 40.167801,
      "lng": -8.456432,
      "fuels": {
        "gazole": 1.864,
        "sp95": 1.954
      }
    },
    {
      "id": "65248",
      "cp": "3000-000",
      "ville": "Coimbra",
      "adresse": "Ic 2 Km 183,4",
      "brand": "Galp",
      "lat": 40.16781,
      "lng": -8.45585,
      "fuels": {
        "gazole": 1.864,
        "sp95": 1.954
      }
    },
    {
      "id": "73760",
      "cp": "3040-881",
      "ville": "Coimbra",
      "adresse": "Lugar De Vale Ou Presa E Telhões (ao Lado Do Retail Park De taveiro)",
      "brand": "Prio",
      "lat": 40.19243,
      "lng": -8.508243,
      "fuels": {
        "sp95": 1.919
      }
    },
    {
      "id": "87319",
      "cp": "3040-197",
      "ville": "Coimbra",
      "adresse": "r. Central Da mesura, nº35",
      "brand": "Intermarché",
      "lat": 40.19675,
      "lng": -8.44575,
      "fuels": {
        "gazole": 1.687,
        "sp95": 1.797
      }
    },
    {
      "id": "80016",
      "cp": "3020-322",
      "ville": "Coimbra",
      "adresse": "Ribeira De Eiras",
      "brand": "Auchan",
      "lat": 40.25461,
      "lng": -8.429237,
      "fuels": {
        "gazole": 1.739,
        "sp95": 1.839
      }
    },
    {
      "id": "65887",
      "cp": "3020-000",
      "ville": "Coimbra",
      "adresse": "Rotunda Da Pedrulha",
      "brand": "Bp",
      "lat": 40.238182,
      "lng": -8.43772,
      "fuels": {
        "gazole": 1.889,
        "sp95": 1.979
      }
    },
    {
      "id": "65796",
      "cp": "3045-016",
      "ville": "Coimbra",
      "adresse": "Rua Da Bayer",
      "brand": "Galp",
      "lat": 40.19881,
      "lng": -8.46112,
      "fuels": {
        "gazole": 1.864,
        "sp95": 1.954
      }
    },
    {
      "id": "65245",
      "cp": "3000-000",
      "ville": "Coimbra",
      "adresse": "Rua dr. Manuel Almeida E Sousa",
      "brand": "Galp",
      "lat": 40.228726,
      "lng": -8.438688,
      "fuels": {
        "gazole": 1.864,
        "sp95": 1.954
      }
    },
    {
      "id": "73601",
      "cp": "3030-329",
      "ville": "Coimbra",
      "adresse": "Rua Ferrer Correia (estrada Das beiras)",
      "brand": "Auchan",
      "lat": 40.189957,
      "lng": -8.401005,
      "fuels": {
        "gazole": 1.739,
        "sp95": 1.839
      }
    },
    {
      "id": "70714",
      "cp": "3150-110",
      "ville": "Condeixa-A-Nova",
      "adresse": "Barreira",
      "brand": "Intermarché",
      "lat": 40.12305,
      "lng": -8.50265,
      "fuels": {
        "gazole": 1.687,
        "sp95": 1.797
      }
    },
    {
      "id": "93272",
      "cp": "3150-259",
      "ville": "Condeixa-A-Nova",
      "adresse": "En 342 - Palha Cana",
      "brand": "Bp",
      "lat": 40.107243,
      "lng": -8.51169,
      "fuels": {
        "gazole": 1.879,
        "sp95": 1.969
      }
    },
    {
      "id": "69108",
      "cp": "3041-901",
      "ville": "Condeixa-A-Nova",
      "adresse": "en1 / ic2 Km 185,6",
      "brand": "Cepsa",
      "lat": 40.11471,
      "lng": -8.50334,
      "fuels": {
        "gazole": 1.806,
        "sp95": 1.893
      }
    },
    {
      "id": "69107",
      "cp": "3150-193",
      "ville": "Condeixa-A-Nova",
      "adresse": "ic2 Km 175.5, Travaz",
      "brand": "Cepsa",
      "lat": 40.11466,
      "lng": -8.50294,
      "fuels": {
        "gazole": 1.806,
        "sp95": 1.893
      }
    },
    {
      "id": "71490",
      "cp": "3080-513",
      "ville": "Figueira Da Foz",
      "adresse": "A 17,  Sublanço Quiaios / A 14, Km 62",
      "brand": "Repsol",
      "lat": 40.213478,
      "lng": -8.811096,
      "fuels": {
        "gazole": 1.909,
        "sp95": 1.989
      }
    },
    {
      "id": "71491",
      "cp": "3080-513",
      "ville": "Figueira Da Foz",
      "adresse": "A 17,  Sublanço Quiaios / A 14, Km 62",
      "brand": "Repsol",
      "lat": 40.211784,
      "lng": -8.810508,
      "fuels": {
        "gazole": 1.909,
        "sp95": 1.989
      }
    },
    {
      "id": "92974",
      "cp": "3080-604",
      "ville": "Figueira Da Foz",
      "adresse": "av. Dom João Alves",
      "brand": "Bp",
      "lat": 40.162286,
      "lng": -8.848058,
      "fuels": {
        "gazole": 1.844,
        "sp95": 1.929
      }
    },
    {
      "id": "80467",
      "cp": "3080-853",
      "ville": "Figueira Da Foz",
      "adresse": "av. dr. Francisco De Sá carneiro, Vila Robim",
      "brand": "Auchan",
      "lat": 40.163612,
      "lng": -8.841515,
      "fuels": {
        "gazole": 1.689,
        "sp95": 1.799
      }
    },
    {
      "id": "65918",
      "cp": "3080-050",
      "ville": "Figueira Da Foz",
      "adresse": "av. Saraiva De carvalho, 16",
      "brand": "Bp",
      "lat": 40.14816,
      "lng": -8.85024,
      "fuels": {
        "gazole": 1.844,
        "sp95": 1.929
      }
    },
    {
      "id": "66514",
      "cp": "3080-000",
      "ville": "Figueira Da Foz",
      "adresse": "Bairro Da Estação",
      "brand": "Repsol",
      "lat": 40.14918,
      "lng": -8.84704,
      "fuels": {
        "gazole": 1.844,
        "sp95": 1.929
      }
    },
    {
      "id": "65289",
      "cp": "3080-000",
      "ville": "Figueira Da Foz",
      "adresse": "En 109 - Estrada De Aveiro-Ferrugenta",
      "brand": "Galp",
      "lat": 40.179343,
      "lng": -8.828362,
      "fuels": {
        "gazole": 1.844,
        "sp95": 1.929
      }
    },
    {
      "id": "94523",
      "cp": "3090-485",
      "ville": "Figueira Da Foz",
      "adresse": "En 109 - nº 176",
      "brand": "Galp",
      "lat": 40.018032,
      "lng": -8.813965,
      "fuels": {
        "gazole": 1.884,
        "sp95": 1.969
      }
    },
    {
      "id": "65292",
      "cp": "3080-000",
      "ville": "Figueira Da Foz",
      "adresse": "En 109 Km 114,15",
      "brand": "Galp",
      "lat": 40.179479,
      "lng": -8.828932,
      "fuels": {
        "gazole": 1.844,
        "sp95": 1.929
      }
    },
    {
      "id": "93393",
      "cp": "3080-510",
      "ville": "Figueira Da Foz",
      "adresse": "Lugar Dos Quatro Caminhos",
      "brand": "Leclerc",
      "lat": 40.164868,
      "lng": -8.851725,
      "fuels": {
        "gazole": 1.689,
        "sp95": 1.799
      }
    },
    {
      "id": "72153",
      "cp": "3080-756",
      "ville": "Figueira Da Foz",
      "adresse": "Rua Da Antena nº 32",
      "brand": "Alves Bandeira",
      "lat": 40.26399,
      "lng": -8.77887,
      "fuels": {
        "gazole": 1.884,
        "sp95": 1.984
      }
    },
    {
      "id": "79109",
      "cp": "3090-452",
      "ville": "Figueira Da Foz",
      "adresse": "Rua Das Flores",
      "brand": "Intermarché",
      "lat": 40.084465,
      "lng": -8.825225,
      "fuels": {
        "gazole": 1.688,
        "sp95": 1.798
      }
    },
    {
      "id": "93560",
      "cp": "3090-707",
      "ville": "Figueira Da Foz",
      "adresse": "Rua Major Humberto Cruz - Morraceira",
      "brand": "Chamagás",
      "lat": 40.13671,
      "lng": -8.847939,
      "fuels": {
        "gazole": 1.729,
        "sp95": 1.839
      }
    },
    {
      "id": "94252",
      "cp": "3080-642",
      "ville": "Figueira Da Foz",
      "adresse": "Rua Várzea S/N",
      "brand": "Prio",
      "lat": 40.15732,
      "lng": -8.849168,
      "fuels": {
        "sp95": 1.919
      }
    },
    {
      "id": "66512",
      "cp": "3080-000",
      "ville": "Figueira Da Foz",
      "adresse": "Variante Da En 109",
      "brand": "Repsol",
      "lat": 40.03005,
      "lng": -8.8342,
      "fuels": {
        "gazole": 1.884,
        "sp95": 1.969
      }
    },
    {
      "id": "66513",
      "cp": "3080-000",
      "ville": "Figueira Da Foz",
      "adresse": "Variante Da En 109",
      "brand": "Repsol",
      "lat": 40.02982,
      "lng": -8.83434,
      "fuels": {
        "gazole": 1.884,
        "sp95": 1.969
      }
    },
    {
      "id": "87136",
      "cp": "3330-460",
      "ville": "Góis",
      "adresse": "Largo Do Adro Da igreja, nº 22",
      "brand": "Galp",
      "lat": 40.181637,
      "lng": -8.152372,
      "fuels": {
        "gazole": 1.848,
        "sp95": 1.945
      }
    },
    {
      "id": "95144",
      "cp": "3200-222",
      "ville": "Lousã",
      "adresse": "av. dr. João Maria Cardoso",
      "brand": "Repsol",
      "lat": 40.11385,
      "lng": -8.24455,
      "fuels": {
        "gazole": 1.869,
        "sp95": 1.954
      }
    },
    {
      "id": "68371",
      "cp": "3200-133",
      "ville": "Lousã",
      "adresse": "En 342 Ao Km 8,75 (variante Lousã-Miranda Do corvo)",
      "brand": "Galp",
      "lat": 40.11746,
      "lng": -8.28732,
      "fuels": {
        "gazole": 1.864,
        "sp95": 1.954
      }
    },
    {
      "id": "93262",
      "cp": "3200-261",
      "ville": "Lousã",
      "adresse": "Rua Cidade De Coimbra  (casa velha)",
      "brand": "Intermarché",
      "lat": 40.12998,
      "lng": -8.25017,
      "fuels": {
        "gazole": 1.687,
        "sp95": 1.797
      }
    },
    {
      "id": "65391",
      "cp": "3200-000",
      "ville": "Lousã",
      "adresse": "Rua De Coimbra",
      "brand": "Galp",
      "lat": 40.11942,
      "lng": -8.24877,
      "fuels": {
        "gazole": 1.864,
        "sp95": 1.954
      }
    },
    {
      "id": "65440",
      "cp": "3070-000",
      "ville": "Mira",
      "adresse": "En 109 (rua Afonso costa)",
      "brand": "Galp",
      "lat": 40.42645,
      "lng": -8.73657,
      "fuels": {
        "gazole": 1.824,
        "sp95": 1.914
      }
    },
    {
      "id": "65437",
      "cp": "3070-000",
      "ville": "Mira",
      "adresse": "En 109 Km 86,74",
      "brand": "Galp",
      "lat": 40.406527,
      "lng": -8.73477,
      "fuels": {
        "gazole": 1.824,
        "sp95": 1.914
      }
    },
    {
      "id": "65438",
      "cp": "3070-000",
      "ville": "Mira",
      "adresse": "En 109 Km 86,74",
      "brand": "Galp",
      "lat": 40.40658,
      "lng": -8.73517,
      "fuels": {
        "gazole": 1.824,
        "sp95": 1.914
      }
    },
    {
      "id": "65439",
      "cp": "3070-000",
      "ville": "Mira",
      "adresse": "En 334 Km 0,25",
      "brand": "Galp",
      "lat": 40.45561,
      "lng": -8.80012,
      "fuels": {
        "gazole": 1.824,
        "sp95": 1.914
      }
    },
    {
      "id": "93423",
      "cp": "3070-533",
      "ville": "Mira",
      "adresse": "Rua Do cemitério, 207",
      "brand": "Genérico",
      "lat": 40.45344,
      "lng": -8.715679,
      "fuels": {
        "gazole": 1.779,
        "sp95": 1.839
      }
    },
    {
      "id": "78770",
      "cp": "3070-323",
      "ville": "Mira",
      "adresse": "Rua Fernandes Costa",
      "brand": "Intermarché",
      "lat": 40.42665,
      "lng": -8.73057,
      "fuels": {
        "gazole": 1.688,
        "sp95": 1.798
      }
    },
    {
      "id": "66523",
      "cp": "3220-186",
      "ville": "Miranda Do Corvo",
      "adresse": "av. Arménio Da Costa simões, 78",
      "brand": "Repsol",
      "lat": 40.09558,
      "lng": -8.3315,
      "fuels": {
        "gazole": 1.844,
        "sp95": 1.939
      }
    },
    {
      "id": "93261",
      "cp": "3220-115",
      "ville": "Miranda Do Corvo",
      "adresse": "Quinta De s. Pedro - Meâs",
      "brand": "Intermarché",
      "lat": 40.08,
      "lng": -8.32,
      "fuels": {
        "gazole": 1.687,
        "sp95": 1.797
      }
    },
    {
      "id": "70674",
      "cp": "3220-186",
      "ville": "Miranda Do Corvo",
      "adresse": "Rua Casa Do Gaiatoen 342 - Km 54,8",
      "brand": "Repsol",
      "lat": 40.09596,
      "lng": -8.33002,
      "fuels": {
        "gazole": 1.844,
        "sp95": 1.939
      }
    },
    {
      "id": "69908",
      "cp": "3220-115",
      "ville": "Miranda Do Corvo",
      "adresse": "Rua Trás Das Casas 29",
      "brand": "Genérico",
      "lat": 40.083,
      "lng": -8.318,
      "fuels": {
        "gazole": 1.744,
        "sp95": 1.839
      }
    },
    {
      "id": "65459",
      "cp": "3140-000",
      "ville": "Montemor-O-Velho",
      "adresse": "Largo Do Alhastro",
      "brand": "Galp",
      "lat": 40.20385,
      "lng": -8.64871,
      "fuels": {
        "gazole": 1.864,
        "sp95": 1.954
      }
    },
    {
      "id": "89569",
      "cp": "3140-217",
      "ville": "Montemor-O-Velho",
      "adresse": "r. São sebastião, 63",
      "brand": "Galp",
      "lat": 40.17213,
      "lng": -8.67857,
      "fuels": {
        "gazole": 1.679,
        "sp95": 1.779
      }
    },
    {
      "id": "71777",
      "cp": "3140-021",
      "ville": "Montemor-O-Velho",
      "adresse": "Rua Da Cooperativa",
      "brand": "Galp",
      "lat": 40.25608,
      "lng": -8.66461,
      "fuels": {
        "gazole": 1.818,
        "sp95": 1.915
      }
    },
    {
      "id": "94540",
      "cp": "3140-166",
      "ville": "Montemor-O-Velho",
      "adresse": "Rua Principal Da coutada, nº484",
      "brand": "Prio",
      "lat": 40.20639,
      "lng": -8.630816,
      "fuels": {
        "sp95": 1.819
      }
    },
    {
      "id": "70667",
      "cp": "3405-032",
      "ville": "Oliveira Do Hospital",
      "adresse": "av. d. Manuel I nº 75",
      "brand": "Galp",
      "lat": 40.41958,
      "lng": -7.88247,
      "fuels": {
        "gazole": 1.874,
        "sp95": 1.964
      }
    },
    {
      "id": "68609",
      "cp": "3400-058",
      "ville": "Oliveira Do Hospital",
      "adresse": "av. dr. Carlos campos, n.º 3",
      "brand": "Prio",
      "lat": 40.3619,
      "lng": -7.86059,
      "fuels": {
        "sp95": 1.859
      }
    },
    {
      "id": "65509",
      "cp": "3405-033",
      "ville": "Oliveira Do Hospital",
      "adresse": "av. Nova nº 24",
      "brand": "Galp",
      "lat": 40.42341,
      "lng": -7.88569,
      "fuels": {
        "gazole": 1.874,
        "sp95": 1.964
      }
    },
    {
      "id": "65510",
      "cp": "3400-454",
      "ville": "Oliveira Do Hospital",
      "adresse": "En 17",
      "brand": "Galp",
      "lat": 40.31536,
      "lng": -7.89973,
      "fuels": {
        "gazole": 1.884,
        "sp95": 1.969
      }
    },
    {
      "id": "66511",
      "cp": "3400-909",
      "ville": "Oliveira Do Hospital",
      "adresse": "Lugar De Catraia De São Paio",
      "brand": "Repsol",
      "lat": 40.3451,
      "lng": -7.84552,
      "fuels": {
        "gazole": 1.884,
        "sp95": 1.969
      }
    },
    {
      "id": "91279",
      "cp": "3360-256",
      "ville": "Penacova",
      "adresse": "Em 530 - Lugar Do Relvão",
      "brand": "Beq",
      "lat": 40.307453,
      "lng": -8.153984,
      "fuels": {
        "gazole": 1.84,
        "sp95": 1.92
      }
    },
    {
      "id": "70485",
      "cp": "3360-259",
      "ville": "Penacova",
      "adresse": "En 2-3, Km 3,400 - Silveirinho",
      "brand": "Genérico",
      "lat": 40.30859,
      "lng": -8.192012,
      "fuels": {
        "gazole": 1.84,
        "sp95": 1.92
      }
    },
    {
      "id": "93298",
      "cp": "3360-172",
      "ville": "Penacova",
      "adresse": "Estrada Nacional nº 2",
      "brand": "Freitas",
      "lat": 40.269733,
      "lng": -8.272324,
      "fuels": {
        "gazole": 1.868,
        "sp95": 1.965
      }
    },
    {
      "id": "65538",
      "cp": "3230-000",
      "ville": "Penela",
      "adresse": "En 110 / Ic 3",
      "brand": "Galp",
      "lat": 40.027922,
      "lng": -8.394101,
      "fuels": {
        "gazole": 1.864,
        "sp95": 1.954
      }
    },
    {
      "id": "72844",
      "cp": "3130-200",
      "ville": "Soure",
      "adresse": "Rua dr. João Esteves Simões",
      "brand": "Intermarché",
      "lat": 40.06335,
      "lng": -8.61887,
      "fuels": {
        "gazole": 1.687,
        "sp95": 1.797
      }
    },
    {
      "id": "94255",
      "cp": "3420-427",
      "ville": "Tábua",
      "adresse": "Cova Do Barro",
      "brand": "Intermarché",
      "lat": 40.364235,
      "lng": -8.024461,
      "fuels": {
        "gazole": 1.759,
        "sp95": 1.829
      }
    },
    {
      "id": "65672",
      "cp": "3420-164",
      "ville": "Tábua",
      "adresse": "En 17 Km 54,75",
      "brand": "Galp",
      "lat": 40.28895,
      "lng": -8.05773,
      "fuels": {
        "gazole": 1.834,
        "sp95": 1.919
      }
    },
    {
      "id": "93319",
      "cp": "3420-136",
      "ville": "Tábua",
      "adresse": "Estrada De s. Miguel n.º 28",
      "brand": "Freitas",
      "lat": 40.38647,
      "lng": -7.945226,
      "fuels": {
        "gazole": 1.858,
        "sp95": 1.955
      }
    },
    {
      "id": "65756",
      "cp": "3350-000",
      "ville": "Vila Nova De Poiares",
      "adresse": "av. Manuel Carvalho Coelho",
      "brand": "Galp",
      "lat": 40.205629,
      "lng": -8.248116,
      "fuels": {
        "gazole": 1.864,
        "sp95": 1.954
      }
    }
  ]
}