{
  "code": "FARO",
  "name": "Faro",
  "regionCode": "AG",
  "regionName": "Algarve",
  "asOf": "2026-07-22T14:28:20.098Z",
  "source": "https://precoscombustiveis.dgeg.gov.pt/",
  "stationCount": 179,
  "fuels": {
    "gazole": {
      "count": 171,
      "mean": 2.0381,
      "median": 2.044,
      "min": 1.829,
      "max": 2.124
    },
    "sp95": {
      "count": 178,
      "mean": 2.0231,
      "median": 2.028,
      "min": 1.868,
      "max": 2.109
    }
  },
  "stations": [
    {
      "id": "76540",
      "cp": "8200-559",
      "ville": "Albufeira",
      "adresse": "av. 12 De Julho",
      "brand": "Intermarché",
      "lat": 37.12628,
      "lng": -8.23745,
      "fuels": {
        "gazole": 1.909,
        "sp95": 1.879
      }
    },
    {
      "id": "65825",
      "cp": "8200-260",
      "ville": "Albufeira",
      "adresse": "av. Dos Descobrimentos (via rápida)",
      "brand": "Bp",
      "lat": 37.0927,
      "lng": -8.23728,
      "fuels": {
        "gazole": 2.114,
        "sp95": 2.099
      }
    },
    {
      "id": "93536",
      "cp": "8200-559",
      "ville": "Albufeira",
      "adresse": "Avenida 12 De julho, Vale Serves",
      "brand": "Bp",
      "lat": 37.1255,
      "lng": -8.23372,
      "fuels": {
        "gazole": 2.114,
        "sp95": 2.099
      }
    },
    {
      "id": "94668",
      "cp": "8200-372",
      "ville": "Albufeira",
      "adresse": "Avenida d. Manuel 1, Quinta Da orada, Lote 57",
      "brand": "Shell",
      "lat": 37.08675,
      "lng": -8.270351,
      "fuels": {
        "gazole": 2.094,
        "sp95": 2.079
      }
    },
    {
      "id": "70629",
      "cp": "8200-427",
      "ville": "Albufeira",
      "adresse": "Em 526",
      "brand": "Carrasquinho & Filhos",
      "lat": 37.09468,
      "lng": -8.30422,
      "fuels": {
        "gazole": 2.051,
        "sp95": 2.028
      }
    },
    {
      "id": "70630",
      "cp": "8200-427",
      "ville": "Albufeira",
      "adresse": "Em 526",
      "brand": "Carrasquinho & Filhos",
      "lat": 37.09515,
      "lng": -8.30434,
      "fuels": {
        "gazole": 2.051,
        "sp95": 2.028
      }
    },
    {
      "id": "94474",
      "cp": "8200-557",
      "ville": "Albufeira",
      "adresse": "En 125 km3,2 Cortesões",
      "brand": "Moeve",
      "lat": 37.123388,
      "lng": -8.232072,
      "fuels": {
        "gazole": 2.021,
        "sp95": 1.998
      }
    },
    {
      "id": "94475",
      "cp": "8200-557",
      "ville": "Albufeira",
      "adresse": "En 125 km3,2 Cortesões",
      "brand": "Moeve",
      "lat": 37.122841,
      "lng": -8.231653,
      "fuels": {
        "gazole": 2.021,
        "sp95": 1.998
      }
    },
    {
      "id": "88734",
      "cp": "8200-413",
      "ville": "Albufeira",
      "adresse": "En 125, Km 66,6",
      "brand": "Ecobrent",
      "lat": 37.12776,
      "lng": -8.29955,
      "fuels": {
        "gazole": 1.939,
        "sp95": 1.929
      }
    },
    {
      "id": "65005",
      "cp": "8200-498",
      "ville": "Albufeira",
      "adresse": "En 270 Km 8,6",
      "brand": "Galp",
      "lat": 37.17709,
      "lng": -8.21037,
      "fuels": {
        "gazole": 2.079,
        "sp95": 2.058
      }
    },
    {
      "id": "65004",
      "cp": "8200-315",
      "ville": "Albufeira",
      "adresse": "En 526",
      "brand": "Galp",
      "lat": 37.10413,
      "lng": -8.192463,
      "fuels": {
        "gazole": 2.094,
        "sp95": 2.069
      }
    },
    {
      "id": "94400",
      "cp": "8200-387",
      "ville": "Albufeira",
      "adresse": "estr. Montechoro - Torre Da Mosqueira",
      "brand": "Galp",
      "lat": 37.118633,
      "lng": -8.227034,
      "fuels": {
        "gazole": 2.094,
        "sp95": 2.069
      }
    },
    {
      "id": "66551",
      "cp": "8200-317",
      "ville": "Albufeira",
      "adresse": "Estrada Brejos",
      "brand": "Repsol",
      "lat": 37.10601,
      "lng": -8.230361,
      "fuels": {
        "gazole": 2.059,
        "sp95": 2.049
      }
    },
    {
      "id": "92976",
      "cp": "8200-100",
      "ville": "Albufeira",
      "adresse": "Estrada De albufeira, Cm 1287",
      "brand": "Auto Julio",
      "lat": 37.09262,
      "lng": -8.204557,
      "fuels": {
        "gazole": 2.013,
        "sp95": 1.999
      }
    },
    {
      "id": "93167",
      "cp": "8200-047",
      "ville": "Albufeira",
      "adresse": "Estrada De Vale pedras, Edifício Intermarché",
      "brand": "Intermarché",
      "lat": 37.103773,
      "lng": -8.234181,
      "fuels": {
        "gazole": 1.908,
        "sp95": 1.879
      }
    },
    {
      "id": "94324",
      "cp": "8200-592",
      "ville": "Albufeira",
      "adresse": "p.galp - e.mun.256 - Vale Da Azinheira",
      "brand": "Galp",
      "lat": 37.10381,
      "lng": -8.193544,
      "fuels": {
        "gazole": 2.094,
        "sp95": 2.069
      }
    },
    {
      "id": "66545",
      "cp": "8200-319",
      "ville": "Albufeira",
      "adresse": "Sítio Bolota",
      "brand": "Repsol",
      "lat": 37.09599,
      "lng": -8.255089,
      "fuels": {
        "gazole": 2.059,
        "sp95": 2.049
      }
    },
    {
      "id": "93080",
      "cp": "8200-567",
      "ville": "Albufeira",
      "adresse": "Urbanização Serva en395 - Vale Paraíso 9011",
      "brand": "Prio",
      "lat": 37.11709,
      "lng": -8.246953,
      "fuels": {
        "gazole": 1.934,
        "sp95": 1.919
      }
    },
    {
      "id": "66546",
      "cp": "8200-856",
      "ville": "Albufeira",
      "adresse": "Vale Verdeguia",
      "brand": "Repsol",
      "lat": 37.12915,
      "lng": -8.28268,
      "fuels": {
        "gazole": 2.049,
        "sp95": 2.029
      }
    },
    {
      "id": "72279",
      "cp": "8970-255",
      "ville": "Alcoutim",
      "adresse": "Estrada Nacional 124",
      "brand": "Repsol",
      "lat": 37.44116,
      "lng": -7.76236,
      "fuels": {
        "gazole": 2.104,
        "sp95": 2.089
      }
    },
    {
      "id": "93142",
      "cp": "8970-051",
      "ville": "Alcoutim",
      "adresse": "Si Cruzamento Alcoutim Lt 20",
      "brand": "Auto Julio",
      "lat": 37.437267,
      "lng": -7.508588,
      "fuels": {
        "gazole": 2.033,
        "sp95": 2.021
      }
    },
    {
      "id": "66547",
      "cp": "8670-352",
      "ville": "Aljezur",
      "adresse": "av. 16 De Junho nº 81",
      "brand": "Repsol",
      "lat": 37.3717,
      "lng": -8.79994,
      "fuels": {
        "gazole": 2.074,
        "sp95": 2.069
      }
    },
    {
      "id": "65064",
      "cp": "8670-084",
      "ville": "Aljezur",
      "adresse": "En 120",
      "brand": "Galp",
      "lat": 37.318689,
      "lng": -8.798431,
      "fuels": {
        "gazole": 2.074,
        "sp95": 2.055
      }
    },
    {
      "id": "93474",
      "cp": "8670-320",
      "ville": "Aljezur",
      "adresse": "En 120 - Km 130+340",
      "brand": "Oz Energia",
      "lat": 37.418903,
      "lng": -8.766456,
      "fuels": {
        "gazole": 1.999,
        "sp95": 1.979
      }
    },
    {
      "id": "92975",
      "cp": "8670-158",
      "ville": "Aljezur",
      "adresse": "Sitio Da Feiteira - en267",
      "brand": "Auto Julio",
      "lat": 37.312984,
      "lng": -8.791851,
      "fuels": {
        "gazole": 2.013,
        "sp95": 1.999
      }
    },
    {
      "id": "66898",
      "cp": "8950-046",
      "ville": "Castro Marim",
      "adresse": "En 512",
      "brand": "Avia",
      "lat": 37.28237,
      "lng": -7.47099,
      "fuels": {
        "gazole": 2.039,
        "sp95": 2.045
      }
    },
    {
      "id": "68274",
      "cp": "8950-414",
      "ville": "Castro Marim",
      "adresse": "urb. Laranjeiras Lote 6",
      "brand": "Prio",
      "lat": 37.180724,
      "lng": -7.504723,
      "fuels": {
        "sp95": 2.009
      }
    },
    {
      "id": "78468",
      "cp": "8000-074",
      "ville": "Faro",
      "adresse": "av. Cidade Hayward",
      "brand": "Auchan",
      "lat": 37.02634,
      "lng": -7.916969,
      "fuels": {
        "gazole": 1.939,
        "sp95": 1.909
      }
    },
    {
      "id": "66543",
      "cp": "8000-000",
      "ville": "Faro",
      "adresse": "av. dr. Almeida Carrapato",
      "brand": "Repsol",
      "lat": 37.02038,
      "lng": -7.92333,
      "fuels": {
        "gazole": 2.029,
        "sp95": 2.019
      }
    },
    {
      "id": "66544",
      "cp": "8000-000",
      "ville": "Faro",
      "adresse": "av. dr. Almeida Carrapato",
      "brand": "Repsol",
      "lat": 37.02005,
      "lng": -7.92353,
      "fuels": {
        "gazole": 2.029,
        "sp95": 2.019
      }
    },
    {
      "id": "68084",
      "cp": "8000-074",
      "ville": "Faro",
      "adresse": "av.cidade Hayward",
      "brand": "Bp",
      "lat": 37.025383,
      "lng": -7.917921,
      "fuels": {
        "gazole": 2.094,
        "sp95": 2.079
      }
    },
    {
      "id": "66154",
      "cp": "8000-000",
      "ville": "Faro",
      "adresse": "Doca De Faro",
      "brand": "Cepsa",
      "lat": 37.014996,
      "lng": -7.936694,
      "fuels": {
        "sp95": 2.048
      }
    },
    {
      "id": "93433",
      "cp": "8000-000",
      "ville": "Faro",
      "adresse": "e. n. 125 - Pontes De Marchil",
      "brand": "Bp",
      "lat": 37.029915,
      "lng": -7.947817,
      "fuels": {
        "gazole": 2.094,
        "sp95": 2.079
      }
    },
    {
      "id": "93434",
      "cp": "8005-518",
      "ville": "Faro",
      "adresse": "e. n. 125 - Pontes De Marchil",
      "brand": "Bp",
      "lat": 37.03025,
      "lng": -7.947455,
      "fuels": {
        "gazole": 2.094,
        "sp95": 2.079
      }
    },
    {
      "id": "66316",
      "cp": "8005-442",
      "ville": "Faro",
      "adresse": "e.n. 2 Ao Km 735,050",
      "brand": "Cepsa",
      "lat": 37.051697,
      "lng": -7.926947,
      "fuels": {
        "gazole": 1.931,
        "sp95": 1.908
      }
    },
    {
      "id": "65281",
      "cp": "8005-528",
      "ville": "Faro",
      "adresse": "En 125 Km 107,6",
      "brand": "Galp",
      "lat": 37.02859,
      "lng": -7.90614,
      "fuels": {
        "gazole": 2.034,
        "sp95": 2.015
      }
    },
    {
      "id": "65282",
      "cp": "8005-528",
      "ville": "Faro",
      "adresse": "En 125 Km 107,6",
      "brand": "Galp",
      "lat": 37.02821,
      "lng": -7.90612,
      "fuels": {
        "gazole": 2.034,
        "sp95": 2.015
      }
    },
    {
      "id": "65280",
      "cp": "8005-511",
      "ville": "Faro",
      "adresse": "En 125 Km 98,4",
      "brand": "Galp",
      "lat": 37.05161,
      "lng": -7.95328,
      "fuels": {
        "gazole": 2.034,
        "sp95": 2.015
      }
    },
    {
      "id": "78596",
      "cp": "8005-146",
      "ville": "Faro",
      "adresse": "En 125-10 (estrada Do aeroporto)",
      "brand": "Prio",
      "lat": 37.03714,
      "lng": -7.957144,
      "fuels": {
        "sp95": 2.009
      }
    },
    {
      "id": "65283",
      "cp": "8000-670",
      "ville": "Faro",
      "adresse": "En 2 Km 729,7",
      "brand": "Galp",
      "lat": 37.09745,
      "lng": -7.90605,
      "fuels": {
        "gazole": 2.044,
        "sp95": 2.025
      }
    },
    {
      "id": "66548",
      "cp": "8000-606",
      "ville": "Faro",
      "adresse": "En 2 Km 735,8",
      "brand": "Repsol",
      "lat": 37.04511,
      "lng": -7.92845,
      "fuels": {
        "gazole": 2.029,
        "sp95": 2.019
      }
    },
    {
      "id": "66549",
      "cp": "8000-606",
      "ville": "Faro",
      "adresse": "En 2 Km 735,8",
      "brand": "Repsol",
      "lat": 37.04408,
      "lng": -7.92912,
      "fuels": {
        "gazole": 2.029,
        "sp95": 2.019
      }
    },
    {
      "id": "93082",
      "cp": "8005-491",
      "ville": "Faro",
      "adresse": "Estrada De São Brás",
      "brand": "Prio",
      "lat": 37.104103,
      "lng": -7.961994,
      "fuels": {
        "gazole": 2.094,
        "sp95": 2.079
      }
    },
    {
      "id": "69115",
      "cp": "8001-701",
      "ville": "Faro",
      "adresse": "Faro Aeroporto",
      "brand": "Moeve",
      "lat": 37.022793,
      "lng": -7.971152,
      "fuels": {
        "gazole": 2.021,
        "sp95": 1.998
      }
    },
    {
      "id": "93108",
      "cp": "8009-021",
      "ville": "Faro",
      "adresse": "Marf- Guilhim - Estrada Municipal 520 - 2",
      "brand": "Repsol",
      "lat": 37.089719,
      "lng": -7.927981,
      "fuels": {
        "gazole": 2.029,
        "sp95": 2.019
      }
    },
    {
      "id": "93535",
      "cp": "8005-508",
      "ville": "Faro",
      "adresse": "Paço Branco - Conceição",
      "brand": "Prio",
      "lat": 37.063602,
      "lng": -7.920634,
      "fuels": {
        "sp95": 1.929
      }
    },
    {
      "id": "84759",
      "cp": "8005-436",
      "ville": "Faro",
      "adresse": "Sitio Da falfosa, Santa Bárbara De Nexe",
      "brand": "Bp",
      "lat": 37.08302,
      "lng": -7.95838,
      "fuels": {
        "gazole": 2.094,
        "sp95": 2.079
      }
    },
    {
      "id": "69053",
      "cp": "8400-000",
      "ville": "Lagoa",
      "adresse": "A 22, Via Do Infante sagres, Apartado 328",
      "brand": "Moeve",
      "lat": 37.15181,
      "lng": -8.425895,
      "fuels": {
        "gazole": 2.119,
        "sp95": 2.104
      }
    },
    {
      "id": "92208",
      "cp": "8501-909",
      "ville": "Lagoa",
      "adresse": "Acesso Porto De Pesca Do Rio Arade",
      "brand": "Bp",
      "lat": 37.135825,
      "lng": -8.523515,
      "fuels": {
        "gazole": 2.084,
        "sp95": 2.069
      }
    },
    {
      "id": "66009",
      "cp": "8400-489",
      "ville": "Lagoa",
      "adresse": "e. n. 125 - Km 55,9",
      "brand": "Bp",
      "lat": 37.12659,
      "lng": -8.404223,
      "fuels": {
        "gazole": 2.074,
        "sp95": 2.079
      }
    },
    {
      "id": "66010",
      "cp": "8400-489",
      "ville": "Lagoa",
      "adresse": "e. n. 125 - Km 55,9",
      "brand": "Bp",
      "lat": 37.12628,
      "lng": -8.404112,
      "fuels": {
        "gazole": 2.074,
        "sp95": 2.079
      }
    },
    {
      "id": "94190",
      "cp": "8400-391",
      "ville": "Lagoa",
      "adresse": "e.n. 125 - Largo Marques De Pombal",
      "brand": "Galp",
      "lat": 37.13285,
      "lng": -8.453011,
      "fuels": {
        "gazole": 2.029,
        "sp95": 2.009
      }
    },
    {
      "id": "76913",
      "cp": "8400-701",
      "ville": "Lagoa",
      "adresse": "En 125 - Sitio Da Bemposta",
      "brand": "Auchan",
      "lat": 37.136505,
      "lng": -8.463485,
      "fuels": {
        "gazole": 1.979,
        "sp95": 1.959
      }
    },
    {
      "id": "67546",
      "cp": "8400-123",
      "ville": "Lagoa",
      "adresse": "En 125 Km 50,600",
      "brand": "Prio",
      "lat": 37.13616,
      "lng": -8.46658,
      "fuels": {
        "sp95": 1.979
      }
    },
    {
      "id": "66171",
      "cp": "8400-524",
      "ville": "Lagoa",
      "adresse": "Estrada Nacional 124-1 Km 10,7",
      "brand": "Moeve",
      "lat": 37.10568,
      "lng": -8.462996,
      "fuels": {
        "gazole": 2.021,
        "sp95": 1.998
      }
    },
    {
      "id": "70953",
      "cp": "8400-430",
      "ville": "Lagoa",
      "adresse": "Estrada Nacional 125, Urbanização Covas De areia, Lote 1",
      "brand": "Moeve",
      "lat": 37.13231,
      "lng": -8.45248,
      "fuels": {
        "gazole": 2.001,
        "sp95": 1.978
      }
    },
    {
      "id": "67521",
      "cp": "8400-301",
      "ville": "Lagoa",
      "adresse": "Recta Vale De deus, (e.n. 125, Km 50,600)",
      "brand": "Prio",
      "lat": 37.13641,
      "lng": -8.466227,
      "fuels": {
        "sp95": 1.979
      }
    },
    {
      "id": "93017",
      "cp": "8400-651",
      "ville": "Lagoa",
      "adresse": "Zona Industrial Do Pateiro Lote 1",
      "brand": "Repsol",
      "lat": 37.140944,
      "lng": -8.5065,
      "fuels": {
        "gazole": 2.049,
        "sp95": 2.029
      }
    },
    {
      "id": "65335",
      "cp": "8600-000",
      "ville": "Lagos",
      "adresse": "a22 - Km 4,350 - Via Do Infante",
      "brand": "Galp",
      "lat": 37.148962,
      "lng": -8.7038,
      "fuels": {
        "gazole": 2.119,
        "sp95": 2.104
      }
    },
    {
      "id": "65336",
      "cp": "8600-000",
      "ville": "Lagos",
      "adresse": "a22 - Km 4,350 - Via Do Infante",
      "brand": "Galp",
      "lat": 37.148207,
      "lng": -8.702837,
      "fuels": {
        "gazole": 2.119,
        "sp95": 2.104
      }
    },
    {
      "id": "80997",
      "cp": "8600-546",
      "ville": "Lagos",
      "adresse": "Ameijeira Verde- Pedra Alçada",
      "brand": "Intermarché",
      "lat": 37.099957,
      "lng": -8.682131,
      "fuels": {
        "gazole": 1.858,
        "sp95": 1.868
      }
    },
    {
      "id": "66323",
      "cp": "8600-645",
      "ville": "Lagos",
      "adresse": "av. Dos Descobrimentos",
      "brand": "Cepsa",
      "lat": 37.109971,
      "lng": -8.676679,
      "fuels": {
        "gazole": 2.021,
        "sp95": 1.998
      }
    },
    {
      "id": "66536",
      "cp": "8600-000",
      "ville": "Lagos",
      "adresse": "av. Dos Descobrimentos",
      "brand": "Repsol",
      "lat": 37.105,
      "lng": -8.67349,
      "fuels": {
        "gazole": 2.054,
        "sp95": 2.009
      }
    },
    {
      "id": "67942",
      "cp": "8600-315",
      "ville": "Lagos",
      "adresse": "av. Dos Descobrimentos",
      "brand": "Bp",
      "lat": 37.10054,
      "lng": -8.66948,
      "fuels": {
        "gazole": 2.084,
        "sp95": 2.089
      }
    },
    {
      "id": "65337",
      "cp": "8600-324",
      "ville": "Lagos",
      "adresse": "En 120 Km 174",
      "brand": "Galp",
      "lat": 37.111216,
      "lng": -8.679557,
      "fuels": {
        "gazole": 2.039,
        "sp95": 2.015
      }
    },
    {
      "id": "65338",
      "cp": "8600-773",
      "ville": "Lagos",
      "adresse": "En 120 Km 174",
      "brand": "Galp",
      "lat": 37.11079,
      "lng": -8.67965,
      "fuels": {
        "gazole": 2.039,
        "sp95": 2.015
      }
    },
    {
      "id": "67869",
      "cp": "8600-327",
      "ville": "Lagos",
      "adresse": "En 125",
      "brand": "Bp",
      "lat": 37.11993,
      "lng": -8.67299,
      "fuels": {
        "gazole": 2.084,
        "sp95": 2.089
      }
    },
    {
      "id": "67880",
      "cp": "8600-327",
      "ville": "Lagos",
      "adresse": "en125  Telheiro",
      "brand": "Bp",
      "lat": 37.119785,
      "lng": -8.67342,
      "fuels": {
        "gazole": 2.084,
        "sp95": 2.089
      }
    },
    {
      "id": "94513",
      "cp": "8600-315",
      "ville": "Lagos",
      "adresse": "estr. Da Meia Praia - Lote 54",
      "brand": "Shell",
      "lat": 37.111027,
      "lng": -8.662686,
      "fuels": {
        "gazole": 2.039,
        "sp95": 2.014
      }
    },
    {
      "id": "93405",
      "cp": "8600-657",
      "ville": "Lagos",
      "adresse": "Urb Cerro De Mos Lote 316",
      "brand": "Prio",
      "lat": 37.109303,
      "lng": -8.689247,
      "fuels": {
        "sp95": 1.949
      }
    },
    {
      "id": "94917",
      "cp": "8600-546",
      "ville": "Lagos",
      "adresse": "Urbanização Pedra alçada, Lote 17",
      "brand": "Cepsa",
      "lat": 37.10181,
      "lng": -8.69289,
      "fuels": {
        "gazole": 2.021,
        "sp95": 1.998
      }
    },
    {
      "id": "65380",
      "cp": "8100-000",
      "ville": "Loulé",
      "adresse": "a. e. 22 Km 62.5 Sublanço Guia / loulé_aparta",
      "brand": "Galp",
      "lat": 37.136974,
      "lng": -8.110044,
      "fuels": {
        "gazole": 2.119,
        "sp95": 2.104
      }
    },
    {
      "id": "65379",
      "cp": "8100-000",
      "ville": "Loulé",
      "adresse": "a22 – Km 62,500 - Sublanço Guia-Loulé 1 (loulé/faro)",
      "brand": "Galp",
      "lat": 37.13618,
      "lng": -8.110881,
      "fuels": {
        "gazole": 2.119,
        "sp95": 2.104
      }
    },
    {
      "id": "66030",
      "cp": "8100-116",
      "ville": "Loulé",
      "adresse": "av. Ceuta",
      "brand": "Bp",
      "lat": 37.076306,
      "lng": -8.09537,
      "fuels": {
        "gazole": 2.114,
        "sp95": 2.099
      }
    },
    {
      "id": "65378",
      "cp": "8125-000",
      "ville": "Loulé",
      "adresse": "av. João Pires Meireles",
      "brand": "Galp",
      "lat": 37.08225,
      "lng": -8.117939,
      "fuels": {
        "gazole": 2.099,
        "sp95": 2.079
      }
    },
    {
      "id": "65376",
      "cp": "8100-504",
      "ville": "Loulé",
      "adresse": "av. Marçal Pacheco",
      "brand": "Galp",
      "lat": 37.134238,
      "lng": -8.020952,
      "fuels": {
        "gazole": 2.084,
        "sp95": 2.065
      }
    },
    {
      "id": "65377",
      "cp": "8100-505",
      "ville": "Loulé",
      "adresse": "av. Marçal Pacheco nº 157",
      "brand": "Galp",
      "lat": 37.13507,
      "lng": -8.02117,
      "fuels": {
        "gazole": 2.084,
        "sp95": 2.065
      }
    },
    {
      "id": "65954",
      "cp": "8100-714",
      "ville": "Loulé",
      "adresse": "av.andrade Sousa",
      "brand": "Bp",
      "lat": 37.138224,
      "lng": -8.028659,
      "fuels": {
        "gazole": 2.114,
        "sp95": 2.099
      }
    },
    {
      "id": "93115",
      "cp": "8125-406",
      "ville": "Loulé",
      "adresse": "Avenida Vilamoura Xxi",
      "brand": "Bp",
      "lat": 37.11425,
      "lng": -8.118029,
      "fuels": {
        "gazole": 2.114,
        "sp95": 2.099
      }
    },
    {
      "id": "93737",
      "cp": "8100-170",
      "ville": "Loulé",
      "adresse": "Cortelha-Salir",
      "brand": "Repsol",
      "lat": 37.254406,
      "lng": -7.955207,
      "fuels": {
        "gazole": 2.039,
        "sp95": 2.049
      }
    },
    {
      "id": "66079",
      "cp": "8125-302",
      "ville": "Loulé",
      "adresse": "Em 526",
      "brand": "Bp",
      "lat": 37.115239,
      "lng": -8.150029,
      "fuels": {
        "gazole": 2.124,
        "sp95": 2.109
      }
    },
    {
      "id": "92966",
      "cp": "8100-012",
      "ville": "Loulé",
      "adresse": "En 124, r. 25 abril, Sítio Da Calçadinha",
      "brand": "Tfuel",
      "lat": 37.230386,
      "lng": -8.169265,
      "fuels": {
        "gazole": 2.089,
        "sp95": 2.079
      }
    },
    {
      "id": "93442",
      "cp": "8100-000",
      "ville": "Loulé",
      "adresse": "En 125 Km 87,800",
      "brand": "Bp",
      "lat": 37.128751,
      "lng": -8.153507,
      "fuels": {
        "gazole": 2.084,
        "sp95": 2.069
      }
    },
    {
      "id": "66538",
      "cp": "8125-013",
      "ville": "Loulé",
      "adresse": "En 125-Cercado",
      "brand": "Repsol",
      "lat": 37.10369,
      "lng": -8.0733,
      "fuels": {
        "gazole": 2.054,
        "sp95": 2.049
      }
    },
    {
      "id": "66539",
      "cp": "8100-287",
      "ville": "Loulé",
      "adresse": "En 125-Cercado",
      "brand": "Repsol",
      "lat": 37.10323,
      "lng": -8.07321,
      "fuels": {
        "gazole": 2.054,
        "sp95": 2.049
      }
    },
    {
      "id": "66925",
      "cp": "8135-107",
      "ville": "Loulé",
      "adresse": "Estrada Da Fonte Santa",
      "brand": "Galp",
      "lat": 37.08517,
      "lng": -8.04257,
      "fuels": {
        "gazole": 2.089,
        "sp95": 2.065
      }
    },
    {
      "id": "88200",
      "cp": "8135-016",
      "ville": "Loulé",
      "adresse": "Estrada Das Escanxinas",
      "brand": "Bp",
      "lat": 37.09143,
      "lng": -8.04466,
      "fuels": {
        "gazole": 2.124,
        "sp95": 2.109
      }
    },
    {
      "id": "93444",
      "cp": "8100-070",
      "ville": "Loulé",
      "adresse": "Estrada Nacional 125, Km 79 - Fonte De Boliqueime",
      "brand": "Repsol",
      "lat": 37.128482,
      "lng": -8.155026,
      "fuels": {
        "gazole": 2.074,
        "sp95": 2.054
      }
    },
    {
      "id": "69169",
      "cp": "8125-306",
      "ville": "Loulé",
      "adresse": "Fonte Santa",
      "brand": "Moeve",
      "lat": 37.07307,
      "lng": -8.0722,
      "fuels": {
        "gazole": 2.021,
        "sp95": 1.998
      }
    },
    {
      "id": "70915",
      "cp": "8100-307",
      "ville": "Loulé",
      "adresse": "Posto Bp Boliqueime Sitio Matos Da Picota n270",
      "brand": "Bp",
      "lat": 37.1499,
      "lng": -8.12591,
      "fuels": {
        "gazole": 2.114,
        "sp95": 2.099
      }
    },
    {
      "id": "66554",
      "cp": "8100-351",
      "ville": "Loulé",
      "adresse": "Rua António Provisório nº 9\r\nBairro Novo",
      "brand": "Repsol",
      "lat": 37.23298,
      "lng": -8.12158,
      "fuels": {
        "gazole": 2.079,
        "sp95": 2.089
      }
    },
    {
      "id": "66552",
      "cp": "8135-106",
      "ville": "Loulé",
      "adresse": "Rua Cristovão Pires Norte",
      "brand": "Repsol",
      "lat": 37.06772,
      "lng": -8.03969,
      "fuels": {
        "gazole": 2.044,
        "sp95": 2.049
      }
    },
    {
      "id": "93141",
      "cp": "8100-202",
      "ville": "Loulé",
      "adresse": "Rua Manuel Dourado Eusebio",
      "brand": "Auto Julio",
      "lat": 37.23991,
      "lng": -8.044887,
      "fuels": {
        "gazole": 2.013,
        "sp95": 1.999
      }
    },
    {
      "id": "84185",
      "cp": "8135-148",
      "ville": "Loulé",
      "adresse": "Vale Formoso",
      "brand": "Bp",
      "lat": 37.09222,
      "lng": -8.0267,
      "fuels": {
        "gazole": 2.124,
        "sp95": 2.109
      }
    },
    {
      "id": "66175",
      "cp": "8100-272",
      "ville": "Loulé",
      "adresse": "Zona Industrial Lt-1",
      "brand": "Moeve",
      "lat": 37.129475,
      "lng": -8.039609,
      "fuels": {
        "gazole": 1.921,
        "sp95": 1.958
      }
    },
    {
      "id": "89113",
      "cp": "8550-000",
      "ville": "Monchique",
      "adresse": "En 267",
      "brand": "Bp",
      "lat": 37.31154,
      "lng": -8.66628,
      "fuels": {
        "gazole": 2.074,
        "sp95": 1.989
      }
    },
    {
      "id": "88401",
      "cp": "8550-328",
      "ville": "Monchique",
      "adresse": "Largo Pé Da Cruz - Ceiceira",
      "brand": "Intermarché",
      "lat": 37.31261,
      "lng": -8.55633,
      "fuels": {
        "gazole": 1.939,
        "sp95": 1.919
      }
    },
    {
      "id": "67770",
      "cp": "8550-328",
      "ville": "Monchique",
      "adresse": "Pé Da Cruz",
      "brand": "Bp",
      "lat": 37.311115,
      "lng": -8.556418,
      "fuels": {
        "gazole": 2.074,
        "sp95": 1.989
      }
    },
    {
      "id": "93016",
      "cp": "8550-328",
      "ville": "Monchique",
      "adresse": "Rua Pé Da Cruz",
      "brand": "Repsol",
      "lat": 37.310833,
      "lng": -8.556167,
      "fuels": {
        "gazole": 2.014,
        "sp95": 2.004
      }
    },
    {
      "id": "69051",
      "cp": "8700-152",
      "ville": "Olhão",
      "adresse": "a22, Via Do Infante De sagres, Sub-Lanço Olhão-tavira, Km 97,",
      "brand": "Moeve",
      "lat": 37.124535,
      "lng": -7.771115,
      "fuels": {
        "gazole": 1.999,
        "sp95": 2.044
      }
    },
    {
      "id": "69052",
      "cp": "8700-152",
      "ville": "Olhão",
      "adresse": "a22, Via Do Infante De sagres, Sub-Lanço Olhão-tavira, Km 97,",
      "brand": "Moeve",
      "lat": 37.126137,
      "lng": -7.770603,
      "fuels": {
        "gazole": 1.999,
        "sp95": 2.044
      }
    },
    {
      "id": "94686",
      "cp": "8700-037",
      "ville": "Olhão",
      "adresse": "av. Marginal - Largo 1º De Maio",
      "brand": "Galp",
      "lat": 37.05516,
      "lng": -7.744237,
      "fuels": {
        "gazole": 1.953,
        "sp95": 1.997
      }
    },
    {
      "id": "65491",
      "cp": "8700-103",
      "ville": "Olhão",
      "adresse": "av. Maria Purificação Palermo",
      "brand": "Galp",
      "lat": 37.08316,
      "lng": -7.7904,
      "fuels": {
        "gazole": 2.044,
        "sp95": 2.025
      }
    },
    {
      "id": "66556",
      "cp": "8700-207",
      "ville": "Olhão",
      "adresse": "En 125",
      "brand": "Repsol",
      "lat": 37.030327,
      "lng": -7.850788,
      "fuels": {
        "gazole": 2.019,
        "sp95": 2.009
      }
    },
    {
      "id": "66537",
      "cp": "8700-000",
      "ville": "Olhão",
      "adresse": "En 125",
      "brand": "Repsol",
      "lat": 37.063474,
      "lng": -7.759924,
      "fuels": {
        "gazole": 2.029,
        "sp95": 2.019
      }
    },
    {
      "id": "65986",
      "cp": "8700-000",
      "ville": "Olhão",
      "adresse": "En 125 Km 113",
      "brand": "Bp",
      "lat": 37.031,
      "lng": -7.84986,
      "fuels": {
        "gazole": 1.829,
        "sp95": 1.899
      }
    },
    {
      "id": "65493",
      "cp": "8700-146",
      "ville": "Olhão",
      "adresse": "En 125 Km 113,1",
      "brand": "Galp",
      "lat": 37.03155,
      "lng": -7.84713,
      "fuels": {
        "gazole": 2.044,
        "sp95": 2.025
      }
    },
    {
      "id": "71880",
      "cp": "8700-225",
      "ville": "Olhão",
      "adresse": "Estrada Nacional 125 - Pinheiros De Marim",
      "brand": "Moeve",
      "lat": 37.040318,
      "lng": -7.823334,
      "fuels": {
        "gazole": 2.021,
        "sp95": 1.998
      }
    },
    {
      "id": "93437",
      "cp": "8700-068",
      "ville": "Olhão",
      "adresse": "Estrada Nacional 125 Em Bias Do Norte",
      "brand": "Transforpel",
      "lat": 37.0505,
      "lng": -7.78135,
      "fuels": {
        "gazole": 1.919,
        "sp95": 1.889
      }
    },
    {
      "id": "93407",
      "cp": "8700-221",
      "ville": "Olhão",
      "adresse": "Rua Calouste Gulbenkian",
      "brand": "Intermarché",
      "lat": 37.03164,
      "lng": -7.83338,
      "fuels": {
        "gazole": 1.939,
        "sp95": 1.909
      }
    },
    {
      "id": "66540",
      "cp": "8500-000",
      "ville": "Portimão",
      "adresse": "av. Um E Dois Da Zona Do Dique",
      "brand": "Repsol",
      "lat": 37.13555,
      "lng": -8.53549,
      "fuels": {
        "gazole": 2.049,
        "sp95": 2.029
      }
    },
    {
      "id": "66013",
      "cp": "8500-510",
      "ville": "Portimão",
      "adresse": "av. v6 Alto Quintao Bloco A",
      "brand": "Bp",
      "lat": 37.128666,
      "lng": -8.546687,
      "fuels": {
        "gazole": 2.084,
        "sp95": 2.069
      }
    },
    {
      "id": "68039",
      "cp": "8500-510",
      "ville": "Portimão",
      "adresse": "Avenida São Lourenço Da barrosa, Lote 18 Alto Da Raminha",
      "brand": "Bp",
      "lat": 37.14381,
      "lng": -8.54823,
      "fuels": {
        "gazole": 2.084,
        "sp95": 2.069
      }
    },
    {
      "id": "66356",
      "cp": "8500-338",
      "ville": "Portimão",
      "adresse": "En 124",
      "brand": "Cepsa",
      "lat": 37.150304,
      "lng": -8.539973,
      "fuels": {
        "gazole": 2.001,
        "sp95": 1.978
      }
    },
    {
      "id": "65561",
      "cp": "8500-000",
      "ville": "Portimão",
      "adresse": "En 124-1 (v6)",
      "brand": "Galp",
      "lat": 37.130362,
      "lng": -8.54542,
      "fuels": {
        "gazole": 2.074,
        "sp95": 2.055
      }
    },
    {
      "id": "76976",
      "cp": "8500-524",
      "ville": "Portimão",
      "adresse": "En 125 - Rua s. Pedro",
      "brand": "Auchan",
      "lat": 37.14776,
      "lng": -8.545965,
      "fuels": {
        "gazole": 1.919,
        "sp95": 1.899
      }
    },
    {
      "id": "66003",
      "cp": "8500-082",
      "ville": "Portimão",
      "adresse": "En 125 Km 109",
      "brand": "Bp",
      "lat": 37.161818,
      "lng": -8.574504,
      "fuels": {
        "gazole": 2.084,
        "sp95": 2.089
      }
    },
    {
      "id": "66004",
      "cp": "8500-082",
      "ville": "Portimão",
      "adresse": "En 125 Km 109",
      "brand": "Bp",
      "lat": 37.161486,
      "lng": -8.574579,
      "fuels": {
        "gazole": 2.084,
        "sp95": 2.089
      }
    },
    {
      "id": "66215",
      "cp": "8500-835",
      "ville": "Portimão",
      "adresse": "En 266",
      "brand": "Cepsa",
      "lat": 37.213941,
      "lng": -8.543474,
      "fuels": {
        "gazole": 1.901,
        "sp95": 1.938
      }
    },
    {
      "id": "93037",
      "cp": "8500-071",
      "ville": "Portimão",
      "adresse": "Estrada De Alvor ed. Intermarche Alvor",
      "brand": "Intermarché",
      "lat": 37.13041,
      "lng": -8.57552,
      "fuels": {
        "gazole": 1.858,
        "sp95": 1.898
      }
    },
    {
      "id": "66553",
      "cp": "8500-045",
      "ville": "Portimão",
      "adresse": "Estrada municipal, 531 - 1 Alvor",
      "brand": "Repsol",
      "lat": 37.12897,
      "lng": -8.57951,
      "fuels": {
        "gazole": 2.049,
        "sp95": 2.029
      }
    },
    {
      "id": "66557",
      "cp": "8500-315",
      "ville": "Portimão",
      "adresse": "Poço Seco - Cardosas",
      "brand": "Repsol",
      "lat": 37.150074,
      "lng": -8.539489,
      "fuels": {
        "gazole": 2.049,
        "sp95": 2.029
      }
    },
    {
      "id": "94768",
      "cp": "8500-510",
      "ville": "Portimão",
      "adresse": "Quinta Da Malata-v6",
      "brand": "Bp",
      "lat": 37.13374,
      "lng": -8.545472,
      "fuels": {
        "gazole": 2.084,
        "sp95": 2.069
      }
    },
    {
      "id": "93497",
      "cp": "8500-313",
      "ville": "Portimão",
      "adresse": "r. Das Papoilas- cab. Mocho",
      "brand": "Galp",
      "lat": 37.1513,
      "lng": -8.55209,
      "fuels": {
        "gazole": 2.034,
        "sp95": 2.015
      }
    },
    {
      "id": "80797",
      "cp": "8500-998",
      "ville": "Portimão",
      "adresse": "Sítio Do Poço Fojo",
      "brand": "Recheio",
      "lat": 37.144984251,
      "lng": -8.54396224,
      "fuels": {
        "gazole": 1.919,
        "sp95": 1.899
      }
    },
    {
      "id": "66550",
      "cp": "8500-000",
      "ville": "Portimão",
      "adresse": "v6",
      "brand": "Repsol",
      "lat": 37.13755,
      "lng": -8.54631,
      "fuels": {
        "gazole": 2.049,
        "sp95": 2.029
      }
    },
    {
      "id": "93446",
      "cp": "8150-025",
      "ville": "São Brás De Alportel",
      "adresse": "campina, Estrada nac. 270",
      "brand": "Intermarché",
      "lat": 37.15241,
      "lng": -7.877694,
      "fuels": {
        "gazole": 1.939,
        "sp95": 1.919
      }
    },
    {
      "id": "65611",
      "cp": "8150-139",
      "ville": "São Brás De Alportel",
      "adresse": "En 2 (rua Evaristo São gago) Km 722,2",
      "brand": "Galp",
      "lat": 37.15663,
      "lng": -7.89234,
      "fuels": {
        "gazole": 2.044,
        "sp95": 2.025
      }
    },
    {
      "id": "78481",
      "cp": "8150-021",
      "ville": "São Brás De Alportel",
      "adresse": "En 2 Km 722.9",
      "brand": "Repsol",
      "lat": 37.14604,
      "lng": -7.8929,
      "fuels": {
        "gazole": 2.049,
        "sp95": 2.039
      }
    },
    {
      "id": "66903",
      "cp": "8150-058",
      "ville": "São Brás De Alportel",
      "adresse": "En 270 Km 38,5",
      "brand": "Galp",
      "lat": 37.1507999938,
      "lng": -7.9400000076,
      "fuels": {
        "gazole": 2.044,
        "sp95": 2.025
      }
    },
    {
      "id": "69054",
      "cp": "8300-025",
      "ville": "Silves",
      "adresse": "A 22, Via Do Infante sagres, Apartado 328",
      "brand": "Moeve",
      "lat": 37.151337,
      "lng": -8.428372,
      "fuels": {
        "gazole": 2.119,
        "sp95": 2.104
      }
    },
    {
      "id": "67537",
      "cp": "8365-011",
      "ville": "Silves",
      "adresse": "e.n. 125 Km 59,635",
      "brand": "Prio",
      "lat": 37.128765,
      "lng": -8.346641,
      "fuels": {
        "sp95": 2.009
      }
    },
    {
      "id": "66541",
      "cp": "8375-010",
      "ville": "Silves",
      "adresse": "En 12 Km 33,6",
      "brand": "Repsol",
      "lat": 37.25742,
      "lng": -8.30701,
      "fuels": {
        "gazole": 2.099,
        "sp95": 2.054
      }
    },
    {
      "id": "65645",
      "cp": "8300-025",
      "ville": "Silves",
      "adresse": "En 124",
      "brand": "Galp",
      "lat": 37.19666,
      "lng": -8.43019,
      "fuels": {
        "gazole": 2.069,
        "sp95": 2.049
      }
    },
    {
      "id": "66534",
      "cp": "8375-066",
      "ville": "Silves",
      "adresse": "En 124",
      "brand": "Repsol",
      "lat": 37.247244,
      "lng": -8.254897,
      "fuels": {
        "gazole": 2.084,
        "sp95": 2.069
      }
    },
    {
      "id": "65651",
      "cp": "8375-000",
      "ville": "Silves",
      "adresse": "En 124 Km 35,7",
      "brand": "Galp",
      "lat": 37.2558,
      "lng": -8.28226,
      "fuels": {
        "gazole": 2.089,
        "sp95": 2.069
      }
    },
    {
      "id": "65647",
      "cp": "8365-204",
      "ville": "Silves",
      "adresse": "En 125 Km 63,1",
      "brand": "Galp",
      "lat": 37.123916,
      "lng": -8.334876,
      "fuels": {
        "gazole": 2.029,
        "sp95": 2.009
      }
    },
    {
      "id": "65646",
      "cp": "8365-204",
      "ville": "Silves",
      "adresse": "En 125 Km 63,123",
      "brand": "Galp",
      "lat": 37.12429,
      "lng": -8.33504,
      "fuels": {
        "gazole": 2.029,
        "sp95": 2.009
      }
    },
    {
      "id": "65644",
      "cp": "8375-223",
      "ville": "Silves",
      "adresse": "En 264 Km 78,6",
      "brand": "Galp",
      "lat": 37.346064,
      "lng": -8.358329,
      "fuels": {
        "gazole": 2.089,
        "sp95": 2.069
      }
    },
    {
      "id": "66233",
      "cp": "8300-027",
      "ville": "Silves",
      "adresse": "En 269",
      "brand": "Cepsa",
      "lat": 37.17244,
      "lng": -8.41137,
      "fuels": {
        "gazole": 2.001,
        "sp95": 1.978
      }
    },
    {
      "id": "94649",
      "cp": "8300-111",
      "ville": "Silves",
      "adresse": "en124 Ao km.17,900",
      "brand": "Galp",
      "lat": 37.185993,
      "lng": -8.443821,
      "fuels": {
        "gazole": 2.069,
        "sp95": 2.05
      }
    },
    {
      "id": "66234",
      "cp": "8365-000",
      "ville": "Silves",
      "adresse": "Estrada 269-1",
      "brand": "Bp",
      "lat": 37.1196,
      "lng": -8.35022,
      "fuels": {
        "gazole": 2.124,
        "sp95": 2.109
      }
    },
    {
      "id": "85892",
      "cp": "8375-140",
      "ville": "Silves",
      "adresse": "ic1 i.p.1c Lanço Guia-Messines",
      "brand": "Bp",
      "lat": 37.22903,
      "lng": -8.264661,
      "fuels": {
        "gazole": 2.114,
        "sp95": 2.099
      }
    },
    {
      "id": "67084",
      "cp": "8375-014",
      "ville": "Silves",
      "adresse": "ic1 i.p.1c Lanço Messines-Guia km4",
      "brand": "Bp",
      "lat": 37.2299,
      "lng": -8.264495,
      "fuels": {
        "gazole": 2.114,
        "sp95": 2.099
      }
    },
    {
      "id": "93574",
      "cp": "8365-307",
      "ville": "Silves",
      "adresse": "Quintas Do rogel, Sudoeste Retail Park",
      "brand": "Alves Bandeira",
      "lat": 37.131233,
      "lng": -8.359711,
      "fuels": {
        "gazole": 1.964,
        "sp95": 1.954
      }
    },
    {
      "id": "86395",
      "cp": "8375-127",
      "ville": "Silves",
      "adresse": "r. João De Deus",
      "brand": "Intermarché",
      "lat": 37.26026,
      "lng": -8.29281,
      "fuels": {
        "gazole": 1.904,
        "sp95": 1.878
      }
    },
    {
      "id": "92662",
      "cp": "8300-149",
      "ville": "Silves",
      "adresse": "Rua Cruz Da palmeira, e.n.124 Km 17.936",
      "brand": "Cepsa",
      "lat": 37.185936,
      "lng": -8.443151,
      "fuels": {
        "gazole": 2.021,
        "sp95": 1.998
      }
    },
    {
      "id": "93089",
      "cp": "8400-450",
      "ville": "Silves",
      "adresse": "Senhora Da Rocha",
      "brand": "Moeve",
      "lat": 37.1062,
      "lng": -8.38296,
      "fuels": {
        "gazole": 2.021,
        "sp95": 1.998
      }
    },
    {
      "id": "92973",
      "cp": "8365-084",
      "ville": "Silves",
      "adresse": "Sitio Das Ferrarias",
      "brand": "Auto Julio",
      "lat": 37.17233,
      "lng": -8.299277,
      "fuels": {
        "gazole": 1.968,
        "sp95": 1.956
      }
    },
    {
      "id": "93302",
      "cp": "8375-030",
      "ville": "Silves",
      "adresse": "Sitio De Corte pereiro, ic1 Km 713",
      "brand": "Alves Bandeira",
      "lat": 37.3149,
      "lng": -8.32185,
      "fuels": {
        "gazole": 2.024,
        "sp95": 2.014
      }
    },
    {
      "id": "70712",
      "cp": "8365-231",
      "ville": "Silves",
      "adresse": "Travessa Poeta António Aleixo",
      "brand": "Carrasquinho & Filhos",
      "lat": 37.16909,
      "lng": -8.26132,
      "fuels": {
        "gazole": 2.051,
        "sp95": 2.028
      }
    },
    {
      "id": "91015",
      "cp": "8365-087",
      "ville": "Silves",
      "adresse": "Vales Do Algoz",
      "brand": "Bp",
      "lat": 37.15446,
      "lng": -8.30151,
      "fuels": {
        "gazole": 2.124
      }
    },
    {
      "id": "66052",
      "cp": "8800-301",
      "ville": "Tavira",
      "adresse": "av. dr. Eduardo Mansinho",
      "brand": "Bp",
      "lat": 37.129156,
      "lng": -7.642847,
      "fuels": {
        "gazole": 2.094,
        "sp95": 2.079
      }
    },
    {
      "id": "93825",
      "cp": "8800-354",
      "ville": "Tavira",
      "adresse": "Cais Do Gilão - Porto De Tavira",
      "brand": "Galp",
      "lat": 37.124504,
      "lng": -7.644018,
      "fuels": {
        "gazole": 2.038,
        "sp95": 2.026
      }
    },
    {
      "id": "65676",
      "cp": "8800-000",
      "ville": "Tavira",
      "adresse": "En 125 Km 127",
      "brand": "Galp",
      "lat": 37.089846,
      "lng": -7.70834,
      "fuels": {
        "gazole": 2.044,
        "sp95": 2.025
      }
    },
    {
      "id": "65675",
      "cp": "8800-255",
      "ville": "Tavira",
      "adresse": "En 125 Km 132,8",
      "brand": "Galp",
      "lat": 37.11787,
      "lng": -7.66306,
      "fuels": {
        "gazole": 2.044,
        "sp95": 2.025
      }
    },
    {
      "id": "65677",
      "cp": "8800-255",
      "ville": "Tavira",
      "adresse": "En 125 Km 132,8",
      "brand": "Galp",
      "lat": 37.11808,
      "lng": -7.66325,
      "fuels": {
        "gazole": 2.044,
        "sp95": 2.025
      }
    },
    {
      "id": "93453",
      "cp": "8800-166",
      "ville": "Tavira",
      "adresse": "En 270 - Km 52,4",
      "brand": "Oz Energia",
      "lat": 37.153225,
      "lng": -7.791646,
      "fuels": {
        "gazole": 1.934,
        "sp95": 1.914
      }
    },
    {
      "id": "73709",
      "cp": "8800-014",
      "ville": "Tavira",
      "adresse": "En 397",
      "brand": "Cepsa",
      "lat": 37.33115,
      "lng": -7.81261,
      "fuels": {
        "gazole": 1.921,
        "sp95": 1.948
      }
    },
    {
      "id": "79717",
      "cp": "8800-202",
      "ville": "Tavira",
      "adresse": "Parque Comercial E De Exposições De Tavira\r\nSítio Do Vale formoso, Lote 16/23",
      "brand": "Recheio",
      "lat": 37.13913,
      "lng": -7.64306,
      "fuels": {
        "gazole": 1.929,
        "sp95": 1.914
      }
    },
    {
      "id": "65678",
      "cp": "8800-326",
      "ville": "Tavira",
      "adresse": "R Borda De Agua De Aguar S/N",
      "brand": "Galp",
      "lat": 37.126526,
      "lng": -7.647005,
      "fuels": {
        "gazole": 2.044,
        "sp95": 2.025
      }
    },
    {
      "id": "93230",
      "cp": "8800-319",
      "ville": "Tavira",
      "adresse": "Rua Almirante Candido Dos Reis n° 245 - Tavira",
      "brand": "Shell",
      "lat": 37.12997,
      "lng": -7.638901,
      "fuels": {
        "gazole": 2.044,
        "sp95": 2.024
      }
    },
    {
      "id": "66558",
      "cp": "8800-201",
      "ville": "Tavira",
      "adresse": "Rua Das Salinas",
      "brand": "Repsol",
      "lat": 37.12401,
      "lng": -7.6454,
      "fuels": {
        "gazole": 2.034,
        "sp95": 2.029
      }
    },
    {
      "id": "70183",
      "cp": "8800-225",
      "ville": "Tavira",
      "adresse": "Vale Caranguejo",
      "brand": "Alves Bandeira",
      "lat": 37.1296,
      "lng": -7.63844,
      "fuels": {
        "gazole": 2.044,
        "sp95": 2.034
      }
    },
    {
      "id": "67450",
      "cp": "8650-070",
      "ville": "Vila Do Bispo",
      "adresse": "Areias De Cima",
      "brand": "Intermarché",
      "lat": 37.08632,
      "lng": -8.827874,
      "fuels": {
        "gazole": 1.898,
        "sp95": 1.918
      }
    },
    {
      "id": "81066",
      "cp": "8650-366",
      "ville": "Vila Do Bispo",
      "adresse": "Cercas Velhas",
      "brand": "Intermarché",
      "lat": 37.015327,
      "lng": -8.940969,
      "fuels": {
        "gazole": 1.898,
        "sp95": 1.918
      }
    },
    {
      "id": "67821",
      "cp": "8650-425",
      "ville": "Vila Do Bispo",
      "adresse": "En 268 (rua Senhora Do amparo, Junto Aos Bombeiros Vila Do bispo)",
      "brand": "Alves Bandeira",
      "lat": 37.081463,
      "lng": -8.910547,
      "fuels": {
        "gazole": 2.084,
        "sp95": 2.074
      }
    },
    {
      "id": "67525",
      "cp": "8650-355",
      "ville": "Vila Do Bispo",
      "adresse": "En 268 Km 36,100",
      "brand": "Repsol",
      "lat": 37.01334,
      "lng": -8.94237,
      "fuels": {
        "gazole": 2.104,
        "sp95": 2.044
      }
    },
    {
      "id": "65720",
      "cp": "8650-355",
      "ville": "Vila Do Bispo",
      "adresse": "En 268 Km 36,65sítio Do Tonel",
      "brand": "Repsol",
      "lat": 37.00872,
      "lng": -8.94419,
      "fuels": {
        "gazole": 2.104,
        "sp95": 2.044
      }
    },
    {
      "id": "72995",
      "cp": "8650-368",
      "ville": "Vila Do Bispo",
      "adresse": "Porto Da Baleeira - Sagres",
      "brand": "Cepsa",
      "lat": 37.0095,
      "lng": -8.927291,
      "fuels": {
        "gazole": 1.985,
        "sp95": 1.915
      }
    },
    {
      "id": "66542",
      "cp": "8900-000",
      "ville": "Vila Real De Santo António",
      "adresse": "av. Da República nº 110",
      "brand": "Repsol",
      "lat": 37.19667,
      "lng": -7.41454,
      "fuels": {
        "gazole": 2.044,
        "sp95": 2.059
      }
    },
    {
      "id": "65764",
      "cp": "8900-209",
      "ville": "Vila Real De Santo António",
      "adresse": "En 125 (av. Dos Bombeiros portugueses)",
      "brand": "Galp",
      "lat": 37.19355,
      "lng": -7.42093,
      "fuels": {
        "gazole": 2.039,
        "sp95": 2.045
      }
    },
    {
      "id": "68236",
      "cp": "8900-441",
      "ville": "Vila Real De Santo António",
      "adresse": "En 125 Aldeia Nova Monte Gordo",
      "brand": "Bp",
      "lat": 37.18386,
      "lng": -7.46997,
      "fuels": {
        "gazole": 2.084,
        "sp95": 2.079
      }
    },
    {
      "id": "65762",
      "cp": "8900-401",
      "ville": "Vila Real De Santo António",
      "adresse": "En 125 Km 154,4",
      "brand": "Repsol",
      "lat": 37.186397,
      "lng": -7.453348,
      "fuels": {
        "gazole": 2.044,
        "sp95": 2.059
      }
    },
    {
      "id": "93126",
      "cp": "8900-000",
      "ville": "Vila Real De Santo António",
      "adresse": "Estrada Da Mata",
      "brand": "Genérico",
      "lat": 37.18667,
      "lng": -7.41901,
      "fuels": {
        "gazole": 2.034,
        "sp95": 2.059
      }
    },
    {
      "id": "65978",
      "cp": "8900-401",
      "ville": "Vila Real De Santo António",
      "adresse": "Estrada Naçional nº 125 Aldeia Nova Monte Gordo",
      "brand": "Bp",
      "lat": 37.183621,
      "lng": -7.470475,
      "fuels": {
        "gazole": 2.084,
        "sp95": 2.079
      }
    },
    {
      "id": "66912",
      "cp": "8900-118",
      "ville": "Vila Real De Santo António",
      "adresse": "Fonte Santa",
      "brand": "Genérico",
      "lat": 37.170383,
      "lng": -7.54051,
      "fuels": {
        "gazole": 1.969,
        "sp95": 1.999
      }
    },
    {
      "id": "70586",
      "cp": "8900-216",
      "ville": "Vila Real De Santo António",
      "adresse": "Largo Da Estação",
      "brand": "Intermarché",
      "lat": 37.19962,
      "lng": -7.4196,
      "fuels": {
        "gazole": 1.899,
        "sp95": 1.889
      }
    },
    {
      "id": "72342",
      "cp": "8900-054",
      "ville": "Vila Real De Santo António",
      "adresse": "Rua José Colaço Fernandes",
      "brand": "Repsol",
      "lat": 37.17642,
      "lng": -7.53419,
      "fuels": {
        "gazole": 2.054,
        "sp95": 2.109
      }
    }
  ]
}