{
  "code": "LEIRIA",
  "name": "Leiria",
  "regionCode": "C",
  "regionName": "Centro",
  "asOf": "2026-07-15T18:44:56.483Z",
  "source": "https://precoscombustiveis.dgeg.gov.pt/",
  "stationCount": 227,
  "fuels": {
    "gazole": {
      "count": 214,
      "mean": 1.9031,
      "median": 1.919,
      "min": 1.719,
      "max": 2.024
    },
    "sp95": {
      "count": 226,
      "mean": 1.9488,
      "median": 1.959,
      "min": 1.759,
      "max": 2.064
    }
  },
  "stations": [
    {
      "id": "65818",
      "cp": "2445-252",
      "ville": "Alcobaça",
      "adresse": "a8-Km 5,2 Sub-Lanço Pataias",
      "brand": "Bp",
      "lat": 39.621147,
      "lng": -8.991193,
      "fuels": {
        "gazole": 1.999,
        "sp95": 2.029
      }
    },
    {
      "id": "65817",
      "cp": "2445-252",
      "ville": "Alcobaça",
      "adresse": "a8-Km 5,2 Sub-Lanço Valado",
      "brand": "Bp",
      "lat": 39.619507,
      "lng": -8.991134,
      "fuels": {
        "gazole": 1.999,
        "sp95": 2.029
      }
    },
    {
      "id": "65014",
      "cp": "2460-052",
      "ville": "Alcobaça",
      "adresse": "av. General Humberto Delgado",
      "brand": "Galp",
      "lat": 39.55952,
      "lng": -8.97807,
      "fuels": {
        "gazole": 1.969,
        "sp95": 2.009
      }
    },
    {
      "id": "79063",
      "cp": "2445-701",
      "ville": "Alcobaça",
      "adresse": "av. Nossa srª. Da nazaré, En 242, Km 21",
      "brand": "Transforpel",
      "lat": 39.68448,
      "lng": -8.96818,
      "fuels": {
        "gazole": 1.719,
        "sp95": 1.759
      }
    },
    {
      "id": "67325",
      "cp": "2475-102",
      "ville": "Alcobaça",
      "adresse": "av. Padre Inácio antunes, 46",
      "brand": "Repsol",
      "lat": 39.42446,
      "lng": -8.97619,
      "fuels": {
        "gazole": 1.854
      }
    },
    {
      "id": "94312",
      "cp": "2445-205",
      "ville": "Alcobaça",
      "adresse": "av. Rainha Santa Isabel",
      "brand": "Galp",
      "lat": 39.670876,
      "lng": -8.993961,
      "fuels": {
        "gazole": 1.919,
        "sp95": 1.951
      }
    },
    {
      "id": "67256",
      "cp": "2475-022",
      "ville": "Alcobaça",
      "adresse": "e.n 8-6 Km 15,7 \r\nBenedita",
      "brand": "Intermarché",
      "lat": 39.43317,
      "lng": -8.9799,
      "fuels": {
        "gazole": 1.789,
        "sp95": 1.899
      }
    },
    {
      "id": "69637",
      "cp": "2445-206",
      "ville": "Alcobaça",
      "adresse": "e.n. 242 - Km 24,650 - av. Rainha Santa Isabel n.º 255",
      "brand": "Repsol",
      "lat": 39.66632,
      "lng": -9.00369,
      "fuels": {
        "gazole": 1.919,
        "sp95": 1.959
      }
    },
    {
      "id": "67314",
      "cp": "2460-347",
      "ville": "Alcobaça",
      "adresse": "e.n. 8 Casal Jorge Dias",
      "brand": "Repsol",
      "lat": 39.508614,
      "lng": -9.065107,
      "fuels": {
        "gazole": 1.919,
        "sp95": 1.959
      }
    },
    {
      "id": "66597",
      "cp": "2460-615",
      "ville": "Alcobaça",
      "adresse": "En 1 Km 95",
      "brand": "Bp",
      "lat": 39.52482,
      "lng": -8.91063,
      "fuels": {
        "gazole": 1.999,
        "sp95": 2.039
      }
    },
    {
      "id": "70960",
      "cp": "2442-012",
      "ville": "Alcobaça",
      "adresse": "En 242",
      "brand": "Intermarché",
      "lat": 39.66021,
      "lng": -9.01536,
      "fuels": {
        "gazole": 1.799,
        "sp95": 1.839
      }
    },
    {
      "id": "65016",
      "cp": "2460-138",
      "ville": "Alcobaça",
      "adresse": "En 8 (largo Do Pão De ló) Km 102,1",
      "brand": "Galp",
      "lat": 39.49833,
      "lng": -9.09538,
      "fuels": {
        "gazole": 1.919,
        "sp95": 1.956
      }
    },
    {
      "id": "66600",
      "cp": "2640-000",
      "ville": "Alcobaça",
      "adresse": "En 8 Km 100",
      "brand": "Repsol",
      "lat": 39.4808,
      "lng": -9.10433,
      "fuels": {
        "gazole": 1.919,
        "sp95": 1.959
      }
    },
    {
      "id": "65017",
      "cp": "2460-601",
      "ville": "Alcobaça",
      "adresse": "En 8 Km 121,9",
      "brand": "Galp",
      "lat": 39.562209,
      "lng": -8.935867,
      "fuels": {
        "gazole": 1.949,
        "sp95": 1.986
      }
    },
    {
      "id": "67507",
      "cp": "2460-204",
      "ville": "Alcobaça",
      "adresse": "En 8 Km 97,450 - Quinta Da Mota",
      "brand": "Prio",
      "lat": 39.46238,
      "lng": -9.119145,
      "fuels": {
        "sp95": 1.954
      }
    },
    {
      "id": "65018",
      "cp": "2475-149",
      "ville": "Alcobaça",
      "adresse": "En 8-6 (rua Rei Da memória) Km 15,37",
      "brand": "Galp",
      "lat": 39.428158,
      "lng": -8.97995,
      "fuels": {
        "gazole": 1.909,
        "sp95": 1.946
      }
    },
    {
      "id": "95230",
      "cp": "2460-059",
      "ville": "Alcobaça",
      "adresse": "En 8, Km 117,600 - Quinta Da Cova Da Onça",
      "brand": "Repsol",
      "lat": 39.54948,
      "lng": -8.97085,
      "fuels": {
        "gazole": 1.969,
        "sp95": 2.009
      }
    },
    {
      "id": "91694",
      "cp": "2460-000",
      "ville": "Alcobaça",
      "adresse": "en8, Urbanização nova, Lote 1, Fracção 1",
      "brand": "Bp",
      "lat": 39.546066,
      "lng": -8.969452,
      "fuels": {
        "gazole": 1.999,
        "sp95": 2.039
      }
    },
    {
      "id": "67578",
      "cp": "2460-000",
      "ville": "Alcobaça",
      "adresse": "Estrada Da Boavista\r\nPataeira - Palmeira",
      "brand": "Intermarché",
      "lat": 39.553386,
      "lng": -8.969276,
      "fuels": {
        "gazole": 1.799,
        "sp95": 1.839
      }
    },
    {
      "id": "67928",
      "cp": "2445-252",
      "ville": "Alcobaça",
      "adresse": "Estrada Nacional nº242 Km 29",
      "brand": "Bp",
      "lat": 39.638374,
      "lng": -9.042381,
      "fuels": {
        "gazole": 1.919,
        "sp95": 1.951
      }
    },
    {
      "id": "71905",
      "cp": "2475-041",
      "ville": "Alcobaça",
      "adresse": "Estrada nacional, 8/6 - Taveiro",
      "brand": "Genérico",
      "lat": 39.41527,
      "lng": -8.97106,
      "fuels": {
        "gazole": 1.739,
        "sp95": 1.801
      }
    },
    {
      "id": "65020",
      "cp": "2460-715",
      "ville": "Alcobaça",
      "adresse": "ic2(en1) Km 101+100 - Sentido Lisboa/Leiria",
      "brand": "Galp",
      "lat": 39.57029,
      "lng": -8.878141,
      "fuels": {
        "gazole": 1.899,
        "sp95": 1.936
      }
    },
    {
      "id": "65019",
      "cp": "2460-715",
      "ville": "Alcobaça",
      "adresse": "ic2(en1), Km 101+100 - Sentido Leiria/Lisboa",
      "brand": "Galp",
      "lat": 39.570324,
      "lng": -8.878646,
      "fuels": {
        "gazole": 1.899,
        "sp95": 1.936
      }
    },
    {
      "id": "93440",
      "cp": "2460-667",
      "ville": "Alcobaça",
      "adresse": "Lugar De Relvinhas - Edificio Intermarché",
      "brand": "Intermarché",
      "lat": 39.515384,
      "lng": -9.125873,
      "fuels": {
        "gazole": 1.849,
        "sp95": 1.859
      }
    },
    {
      "id": "72057",
      "cp": "2460-302",
      "ville": "Alcobaça",
      "adresse": "Pinhal Fanheiro",
      "brand": "Genérico",
      "lat": 39.54997,
      "lng": -9.0175,
      "fuels": {
        "gazole": 1.739,
        "sp95": 1.801
      }
    },
    {
      "id": "86760",
      "cp": "2460-815",
      "ville": "Alcobaça",
      "adresse": "r. José Diogo ribeiro, En 8/6",
      "brand": "Alves Bandeira",
      "lat": 39.46772,
      "lng": -8.98081,
      "fuels": {
        "gazole": 1.914,
        "sp95": 1.961
      }
    },
    {
      "id": "74777",
      "cp": "2460-028",
      "ville": "Alcobaça",
      "adresse": "Rua Costa Veiga",
      "brand": "Galp",
      "lat": 39.5456,
      "lng": -8.97427,
      "fuels": {
        "gazole": 1.969,
        "sp95": 2.009
      }
    },
    {
      "id": "72687",
      "cp": "2460-484",
      "ville": "Alcobaça",
      "adresse": "Rua Da Capela nº 65/67",
      "brand": "Bp",
      "lat": 39.51568,
      "lng": -8.99833,
      "fuels": {
        "gazole": 1.899,
        "sp95": 1.959
      }
    },
    {
      "id": "69819",
      "cp": "2460-480",
      "ville": "Alcobaça",
      "adresse": "Rua Da igreja, nº55 - Carris",
      "brand": "Galp",
      "lat": 39.49978,
      "lng": -8.95319,
      "fuels": {
        "gazole": 1.9,
        "sp95": 1.99
      }
    },
    {
      "id": "70750",
      "cp": "2460-059",
      "ville": "Alcobaça",
      "adresse": "Rua De leiria, nº5",
      "brand": "Repsol",
      "lat": 39.550086,
      "lng": -8.971485,
      "fuels": {
        "gazole": 1.859,
        "sp95": 1.939
      }
    },
    {
      "id": "93579",
      "cp": "2475-130",
      "ville": "Alcobaça",
      "adresse": "Rua Monges De Cister S/N",
      "brand": "Genérico",
      "lat": 39.422565,
      "lng": -8.978751,
      "fuels": {
        "gazole": 1.749,
        "sp95": 1.799
      }
    },
    {
      "id": "80739",
      "cp": "2460-525",
      "ville": "Alcobaça",
      "adresse": "Rua Professor Adelino Rodrigues nº 24 - Fervença",
      "brand": "Genérico",
      "lat": 39.57158,
      "lng": -8.98599,
      "fuels": {
        "gazole": 1.739,
        "sp95": 1.801
      }
    },
    {
      "id": "91936",
      "cp": "3250-275",
      "ville": "Alvaiázere",
      "adresse": "a13 - Avelar Sul / Lanço Tomar (autoestrada Do Pinhal interior)km 26",
      "brand": "Prio",
      "lat": 39.8795,
      "lng": -8.34328,
      "fuels": {
        "sp95": 1.954
      }
    },
    {
      "id": "91656",
      "cp": "3250-275",
      "ville": "Alvaiázere",
      "adresse": "a13 - Lanço Tomar / Avelar Sul - Km 26",
      "brand": "Prio",
      "lat": 39.879639,
      "lng": -8.342139,
      "fuels": {
        "sp95": 1.954
      }
    },
    {
      "id": "66119",
      "cp": "3250-373",
      "ville": "Alvaiázere",
      "adresse": "En 110 (variante cabaços)",
      "brand": "Cepsa",
      "lat": 39.80634,
      "lng": -8.34995,
      "fuels": {
        "gazole": 1.901,
        "sp95": 1.938
      }
    },
    {
      "id": "65106",
      "cp": "3250-000",
      "ville": "Alvaiázere",
      "adresse": "En 110 Km 63,8",
      "brand": "Galp",
      "lat": 39.87452,
      "lng": -8.35159,
      "fuels": {
        "gazole": 1.919,
        "sp95": 1.951
      }
    },
    {
      "id": "85756",
      "cp": "3250-324",
      "ville": "Alvaiázere",
      "adresse": "Estrada São João batista, 386\nLameirão",
      "brand": "Genérico",
      "lat": 39.76298,
      "lng": -8.45193,
      "fuels": {
        "gazole": 1.899,
        "sp95": 1.939
      }
    },
    {
      "id": "92986",
      "cp": "3250-111",
      "ville": "Alvaiázere",
      "adresse": "Parque Industrial De saganga, Lote 3 E 4",
      "brand": "Cepsa",
      "lat": 39.816294,
      "lng": -8.378092,
      "fuels": {
        "gazole": 1.901,
        "sp95": 1.938
      }
    },
    {
      "id": "72681",
      "cp": "3250-359",
      "ville": "Alvaiázere",
      "adresse": "r. Conselheiro José Eduardo Simões",
      "brand": "Bp",
      "lat": 39.80565,
      "lng": -8.34787,
      "fuels": {
        "gazole": 1.889,
        "sp95": 1.969
      }
    },
    {
      "id": "93260",
      "cp": "3240-235",
      "ville": "Ansião",
      "adresse": "av. Sá Carneiro",
      "brand": "Intermarché",
      "lat": 39.91202,
      "lng": -8.44018,
      "fuels": {
        "gazole": 1.754,
        "sp95": 1.793
      }
    },
    {
      "id": "93145",
      "cp": "3240-407",
      "ville": "Ansião",
      "adresse": "Charneca Do Alvorge",
      "brand": "Genérico",
      "lat": 39.97835,
      "lng": -8.46728,
      "fuels": {
        "gazole": 1.899,
        "sp95": 1.979
      }
    },
    {
      "id": "66571",
      "cp": "3240-228",
      "ville": "Ansião",
      "adresse": "Em 348 Km 42 - Pinhal",
      "brand": "Repsol",
      "lat": 39.8989,
      "lng": -8.442306,
      "fuels": {
        "gazole": 1.919,
        "sp95": 1.959
      }
    },
    {
      "id": "93281",
      "cp": "3240-226",
      "ville": "Ansião",
      "adresse": "Ic 8 Km 17,5",
      "brand": "Bp",
      "lat": 39.917,
      "lng": -8.45714,
      "fuels": {
        "gazole": 1.999,
        "sp95": 2.039
      }
    },
    {
      "id": "93333",
      "cp": "3240-226",
      "ville": "Ansião",
      "adresse": "Ic 8 Km 17,5",
      "brand": "Bp",
      "lat": 39.91557,
      "lng": -8.45845,
      "fuels": {
        "gazole": 1.999,
        "sp95": 2.039
      }
    },
    {
      "id": "79964",
      "cp": "3240-302",
      "ville": "Ansião",
      "adresse": "Largo 12 De novembro, Cabeça Gorda",
      "brand": "Alves Bandeira",
      "lat": 39.91759,
      "lng": -8.36151,
      "fuels": {
        "gazole": 1.929,
        "sp95": 1.976
      }
    },
    {
      "id": "68586",
      "cp": "3240-306",
      "ville": "Ansião",
      "adresse": "Rua Das Cinco Vilas",
      "brand": "Repsol",
      "lat": 39.92142,
      "lng": -8.36953,
      "fuels": {
        "gazole": 1.929,
        "sp95": 1.969
      }
    },
    {
      "id": "69753",
      "cp": "3240-689",
      "ville": "Ansião",
      "adresse": "Rua Principal",
      "brand": "Genérico",
      "lat": 39.95273,
      "lng": -8.52822,
      "fuels": {
        "gazole": 1.914,
        "sp95": 1.959
      }
    },
    {
      "id": "93594",
      "cp": "3240-690",
      "ville": "Ansião",
      "adresse": "Venda Do Brasil",
      "brand": "Genérico",
      "lat": 39.953037,
      "lng": -8.453944,
      "fuels": {
        "gazole": 1.919,
        "sp95": 1.969
      }
    },
    {
      "id": "93259",
      "cp": "3240-235",
      "ville": "Ansião",
      "adresse": "Zona Industrial De Camporêslote nº 6chão De Couce",
      "brand": "Intermarché",
      "lat": 39.91945,
      "lng": -8.39422,
      "fuels": {
        "gazole": 1.754,
        "sp95": 1.793
      }
    },
    {
      "id": "67842",
      "cp": "2495-036",
      "ville": "Batalha",
      "adresse": "e.n. 356 - Estrada Da Batalha",
      "brand": "Alves Bandeira",
      "lat": 39.63865,
      "lng": -8.71554,
      "fuels": {
        "gazole": 1.968,
        "sp95": 2.005
      }
    },
    {
      "id": "65170",
      "cp": "2440-100",
      "ville": "Batalha",
      "adresse": "En 356 (estrada De fátima) Km 13,7",
      "brand": "Galp",
      "lat": 39.65679,
      "lng": -8.82218,
      "fuels": {
        "gazole": 1.969,
        "sp95": 2.009
      }
    },
    {
      "id": "77647",
      "cp": "2495-032",
      "ville": "Batalha",
      "adresse": "Estrada De Mira De Aire - São Mamede",
      "brand": "Genérico",
      "lat": 39.61768,
      "lng": -8.71922,
      "fuels": {
        "gazole": 1.832,
        "sp95": 1.898
      }
    },
    {
      "id": "93348",
      "cp": "2440-208",
      "ville": "Batalha",
      "adresse": "Estrada Nacional 356, Km 19,6",
      "brand": "Tfuel",
      "lat": 39.641502,
      "lng": -8.766647,
      "fuels": {
        "gazole": 1.889,
        "sp95": 1.909
      }
    },
    {
      "id": "94634",
      "cp": "2440-019",
      "ville": "Batalha",
      "adresse": "Estrada Nacional 356, nº9",
      "brand": "Galp",
      "lat": 39.669327,
      "lng": -8.865885,
      "fuels": {
        "gazole": 1.953,
        "sp95": 1.997
      }
    },
    {
      "id": "66572",
      "cp": "2440-477",
      "ville": "Batalha",
      "adresse": "ic2, nº10, Casal Da Amieira",
      "brand": "Repsol",
      "lat": 39.64325,
      "lng": -8.843011,
      "fuels": {
        "gazole": 1.969,
        "sp95": 2.009
      }
    },
    {
      "id": "66573",
      "cp": "2440-477",
      "ville": "Batalha",
      "adresse": "ic2, nº17, Casal Da Amieira",
      "brand": "Repsol",
      "lat": 39.64344,
      "lng": -8.84351,
      "fuels": {
        "gazole": 1.969,
        "sp95": 2.009
      }
    },
    {
      "id": "67584",
      "cp": "2440-105",
      "ville": "Batalha",
      "adresse": "Largo 14 De Agosto De 1385",
      "brand": "Genérico",
      "lat": 39.65845,
      "lng": -8.82221,
      "fuels": {
        "gazole": 1.91,
        "sp95": 1.94
      }
    },
    {
      "id": "67233",
      "cp": "2540-041",
      "ville": "Bombarral",
      "adresse": "Arroteias - Praça Da Republica - Bombarral",
      "brand": "Intermarché",
      "lat": 39.267727,
      "lng": -9.164026,
      "fuels": {
        "gazole": 1.809,
        "sp95": 1.859
      }
    },
    {
      "id": "65177",
      "cp": "2540-000",
      "ville": "Bombarral",
      "adresse": "En 361 (rotunda De Acesso Ao Ic 1)",
      "brand": "Galp",
      "lat": 39.2616,
      "lng": -9.15848,
      "fuels": {
        "gazole": 1.969,
        "sp95": 2.009
      }
    },
    {
      "id": "67340",
      "cp": "2540-172",
      "ville": "Bombarral",
      "adresse": "Estrada Nacional nº 8 - Km 70,07",
      "brand": "Repsol",
      "lat": 39.25388,
      "lng": -9.15868,
      "fuels": {
        "gazole": 1.819,
        "sp95": 1.889
      }
    },
    {
      "id": "73938",
      "cp": "2540-659",
      "ville": "Bombarral",
      "adresse": "Rua Coronel Nicolau trante, nº 1",
      "brand": "Genérico",
      "lat": 39.31142,
      "lng": -9.18555,
      "fuels": {
        "gazole": 1.863,
        "sp95": 1.927
      }
    },
    {
      "id": "94481",
      "cp": "2540-127",
      "ville": "Bombarral",
      "adresse": "Rua Mouzinho De albuquerque, nº 6",
      "brand": "Repsol",
      "lat": 39.262657,
      "lng": -9.156108,
      "fuels": {
        "gazole": 1.969,
        "sp95": 2.009
      }
    },
    {
      "id": "66592",
      "cp": "2500-918",
      "ville": "Caldas Da Rainha",
      "adresse": "av. Infante d. Henrique nº 30\r\n\r\nNossa Senhora Do Pópulo",
      "brand": "Repsol",
      "lat": 39.416164,
      "lng": -9.149008,
      "fuels": {
        "gazole": 1.929,
        "sp95": 1.969
      }
    },
    {
      "id": "75004",
      "cp": "2500-171",
      "ville": "Caldas Da Rainha",
      "adresse": "e. N . 360, 54 - Caldas Da Rainha",
      "brand": "Alves Bandeira",
      "lat": 39.44194,
      "lng": -9.01365,
      "fuels": {
        "gazole": 1.909,
        "sp95": 1.956
      }
    },
    {
      "id": "93425",
      "cp": "2500-379",
      "ville": "Caldas Da Rainha",
      "adresse": "Em 567",
      "brand": "Genérico",
      "lat": 39.404756,
      "lng": -9.056216,
      "fuels": {
        "gazole": 1.772,
        "sp95": 1.818
      }
    },
    {
      "id": "93426",
      "cp": "2500-749",
      "ville": "Caldas Da Rainha",
      "adresse": "En 114",
      "brand": "G-Energy",
      "lat": 39.36692,
      "lng": -9.04252,
      "fuels": {
        "gazole": 1.772,
        "sp95": 1.818
      }
    },
    {
      "id": "66591",
      "cp": "2500-256",
      "ville": "Caldas Da Rainha",
      "adresse": "En 360 ( Nó De lig. Ao ic1)águas Santas",
      "brand": "Repsol",
      "lat": 39.40614,
      "lng": -9.15249,
      "fuels": {
        "gazole": 1.929,
        "sp95": 1.969
      }
    },
    {
      "id": "65191",
      "cp": "2500-271",
      "ville": "Caldas Da Rainha",
      "adresse": "En 360 Km 7, Lugar Da Charneca",
      "brand": "Prio",
      "lat": 39.41426,
      "lng": -9.16625,
      "fuels": {
        "sp95": 1.954
      }
    },
    {
      "id": "66574",
      "cp": "2500-186",
      "ville": "Caldas Da Rainha",
      "adresse": "En 8  - Lavradio",
      "brand": "Repsol",
      "lat": 39.419611,
      "lng": -9.132369,
      "fuels": {
        "gazole": 1.929,
        "sp95": 1.969
      }
    },
    {
      "id": "65194",
      "cp": "2500-000",
      "ville": "Caldas Da Rainha",
      "adresse": "En 8 Km 92,03",
      "brand": "Galp",
      "lat": 39.41623,
      "lng": -9.13342,
      "fuels": {
        "gazole": 1.929,
        "sp95": 1.966
      }
    },
    {
      "id": "67895",
      "cp": "2500-294",
      "ville": "Caldas Da Rainha",
      "adresse": "En 8 Km 93,94",
      "brand": "Bp",
      "lat": 39.42547,
      "lng": -9.13129,
      "fuels": {
        "gazole": 1.949,
        "sp95": 1.989
      }
    },
    {
      "id": "66995",
      "cp": "2500-294",
      "ville": "Caldas Da Rainha",
      "adresse": "Estrada Nacional 8 - Lavradio",
      "brand": "Pingo Doce",
      "lat": 39.42633,
      "lng": -9.13059,
      "fuels": {
        "gazole": 1.831,
        "sp95": 1.863
      }
    },
    {
      "id": "93386",
      "cp": "2504-915",
      "ville": "Caldas Da Rainha",
      "adresse": "Quinta Do Salgado",
      "brand": "Leclerc",
      "lat": 39.403405,
      "lng": -9.148029,
      "fuels": {
        "gazole": 1.839,
        "sp95": 1.862
      }
    },
    {
      "id": "93187",
      "cp": "2500-290",
      "ville": "Caldas Da Rainha",
      "adresse": "Rua  Infante d. henrique, Casal Do Barreiros",
      "brand": "Bp",
      "lat": 39.417243,
      "lng": -9.151295,
      "fuels": {
        "gazole": 1.949,
        "sp95": 1.989
      }
    },
    {
      "id": "92972",
      "cp": "2500-138",
      "ville": "Caldas Da Rainha",
      "adresse": "Rua Bernardino simões, nº 3",
      "brand": "Auto Julio",
      "lat": 39.390328,
      "lng": -9.131393,
      "fuels": {
        "gazole": 1.983,
        "sp95": 2.017
      }
    },
    {
      "id": "70310",
      "cp": "2500-795",
      "ville": "Caldas Da Rainha",
      "adresse": "Rua Da Escola nº 16",
      "brand": "Auto Julio",
      "lat": 39.4627,
      "lng": -9.025885,
      "fuels": {
        "gazole": 1.929,
        "sp95": 1.979
      }
    },
    {
      "id": "65864",
      "cp": "2500-209",
      "ville": "Caldas Da Rainha",
      "adresse": "Rua General Amilcar Mota nº 43",
      "brand": "Bp",
      "lat": 39.392149,
      "lng": -9.131293,
      "fuels": {
        "gazole": 1.949,
        "sp95": 1.989
      }
    },
    {
      "id": "94759",
      "cp": "2500-209",
      "ville": "Caldas Da Rainha",
      "adresse": "Rua General Amílcar mota, 58",
      "brand": "Galp",
      "lat": 39.39062,
      "lng": -9.13069,
      "fuels": {
        "gazole": 1.929,
        "sp95": 1.966
      }
    },
    {
      "id": "65193",
      "cp": "2500-218",
      "ville": "Caldas Da Rainha",
      "adresse": "Rua Infante d. Henrique nº 1",
      "brand": "Galp",
      "lat": 39.41097,
      "lng": -9.14347,
      "fuels": {
        "gazole": 1.929,
        "sp95": 1.966
      }
    },
    {
      "id": "73290",
      "cp": "2500-637",
      "ville": "Caldas Da Rainha",
      "adresse": "Rua Principal 39",
      "brand": "Genérico",
      "lat": 39.429882,
      "lng": -9.089381,
      "fuels": {
        "gazole": 1.969,
        "sp95": 2.009
      }
    },
    {
      "id": "94650",
      "cp": "2500-038",
      "ville": "Caldas Da Rainha",
      "adresse": "Rua Professora Custódia nogueira, 75",
      "brand": "Galp",
      "lat": 39.319412,
      "lng": -9.042718,
      "fuels": {
        "gazole": 1.93,
        "sp95": 1.96
      }
    },
    {
      "id": "65216",
      "cp": "3280-017",
      "ville": "Castanheira De Pêra",
      "adresse": "Praça Visconde",
      "brand": "Galp",
      "lat": 40.00612,
      "lng": -8.21153,
      "fuels": {
        "gazole": 1.954,
        "sp95": 1.991
      }
    },
    {
      "id": "93123",
      "cp": "3280-041",
      "ville": "Castanheira De Pêra",
      "adresse": "Rua João bebiano, n.º 44",
      "brand": "Alves Bandeira",
      "lat": 40.002608,
      "lng": -8.209339,
      "fuels": {
        "gazole": 1.953,
        "sp95": 1.99
      }
    },
    {
      "id": "66299",
      "cp": "3260-027",
      "ville": "Figueiró Dos Vinhos",
      "adresse": "Bairro Industrial Da Aguda (en110)",
      "brand": "Moeve",
      "lat": 39.892439,
      "lng": -8.359081,
      "fuels": {
        "gazole": 1.901,
        "sp95": 1.938
      }
    },
    {
      "id": "86453",
      "cp": "3260-427",
      "ville": "Figueiró Dos Vinhos",
      "adresse": "r. Major Neutel De Abreu 111",
      "brand": "Prio",
      "lat": 39.90058,
      "lng": -8.28258,
      "fuels": {
        "gazole": 1.809,
        "sp95": 1.879
      }
    },
    {
      "id": "70108",
      "cp": "3260-417",
      "ville": "Figueiró Dos Vinhos",
      "adresse": "Rua Major Neutel De abreu, 48-50",
      "brand": "Cepsa",
      "lat": 39.901524,
      "lng": -8.279949,
      "fuels": {
        "gazole": 1.911,
        "sp95": 1.948
      }
    },
    {
      "id": "71150",
      "cp": "3260-000",
      "ville": "Figueiró Dos Vinhos",
      "adresse": "Senhora Dos remédios, Lote 1",
      "brand": "Intermarché",
      "lat": 39.90614,
      "lng": -8.2806,
      "fuels": {
        "gazole": 1.759,
        "sp95": 1.809
      }
    },
    {
      "id": "71498",
      "cp": "2425-623",
      "ville": "Leiria",
      "adresse": "A 17  km21,5 _ribeira Da Bajouca",
      "brand": "Repsol",
      "lat": 39.90781,
      "lng": -8.801473,
      "fuels": {
        "gazole": 1.994,
        "sp95": 2.029
      }
    },
    {
      "id": "71501",
      "cp": "2425-623",
      "ville": "Leiria",
      "adresse": "A 17  km21,5 _ribeira Da Bajouca",
      "brand": "Repsol",
      "lat": 39.908794,
      "lng": -8.80011,
      "fuels": {
        "gazole": 1.994,
        "sp95": 2.029
      }
    },
    {
      "id": "66577",
      "cp": "2495-106",
      "ville": "Leiria",
      "adresse": "a.e.1 Sub Lanco Fat/Leiria Km 126, Cardosos",
      "brand": "Moeve",
      "lat": 39.712437,
      "lng": -8.709518,
      "fuels": {
        "gazole": 2.024,
        "sp95": 2.064
      }
    },
    {
      "id": "66578",
      "cp": "2495-106",
      "ville": "Leiria",
      "adresse": "a.e.1 Sub Lanco Fat/Leiria Km 126, Cardosos",
      "brand": "Moeve",
      "lat": 39.71322,
      "lng": -8.711631,
      "fuels": {
        "gazole": 2.024,
        "sp95": 2.064
      }
    },
    {
      "id": "65343",
      "cp": "2400-823",
      "ville": "Leiria",
      "adresse": "Alto Vieiro - Azoia",
      "brand": "Galp",
      "lat": 39.730976,
      "lng": -8.824129,
      "fuels": {
        "gazole": 1.969,
        "sp95": 2.009
      }
    },
    {
      "id": "65341",
      "cp": "2410-140",
      "ville": "Leiria",
      "adresse": "av. Nossa Senhora De Fátima",
      "brand": "Galp",
      "lat": 39.735751,
      "lng": -8.798944,
      "fuels": {
        "gazole": 1.969,
        "sp95": 2.009
      }
    },
    {
      "id": "66580",
      "cp": "2415-318",
      "ville": "Leiria",
      "adresse": "av.urbanização Da Almoinha Grande",
      "brand": "Repsol",
      "lat": 39.752968,
      "lng": -8.813231,
      "fuels": {
        "gazole": 1.969,
        "sp95": 2.009
      }
    },
    {
      "id": "68776",
      "cp": "2410-211",
      "ville": "Leiria",
      "adresse": "Charneca - Pousos",
      "brand": "Genérico",
      "lat": 39.735157,
      "lng": -8.764882,
      "fuels": {
        "gazole": 1.86,
        "sp95": 1.9
      }
    },
    {
      "id": "66575",
      "cp": "2420-354",
      "ville": "Leiria",
      "adresse": "En 1 (ic2)",
      "brand": "Repsol",
      "lat": 39.767183,
      "lng": -8.775044,
      "fuels": {
        "gazole": 1.909,
        "sp95": 1.949
      }
    },
    {
      "id": "66576",
      "cp": "2420-354",
      "ville": "Leiria",
      "adresse": "En 1 (ic2)",
      "brand": "Repsol",
      "lat": 39.767417,
      "lng": -8.775519,
      "fuels": {
        "gazole": 1.909,
        "sp95": 1.949
      }
    },
    {
      "id": "65348",
      "cp": "2400-827",
      "ville": "Leiria",
      "adresse": "En 1 Km 117,1",
      "brand": "Galp",
      "lat": 39.699924,
      "lng": -8.828961,
      "fuels": {
        "gazole": 1.969,
        "sp95": 2.009
      }
    },
    {
      "id": "65349",
      "cp": "2400-827",
      "ville": "Leiria",
      "adresse": "En 1 Km 117,1",
      "brand": "Galp",
      "lat": 39.6999,
      "lng": -8.82857,
      "fuels": {
        "gazole": 1.969,
        "sp95": 2.009
      }
    },
    {
      "id": "93070",
      "cp": "2425-617",
      "ville": "Leiria",
      "adresse": "En 109 Km 150,5",
      "brand": "Bp",
      "lat": 39.89887,
      "lng": -8.82703,
      "fuels": {
        "gazole": 1.959,
        "sp95": 1.999
      }
    },
    {
      "id": "93286",
      "cp": "2425-617",
      "ville": "Leiria",
      "adresse": "En 109 Km 150.5",
      "brand": "Shell",
      "lat": 39.89891,
      "lng": -8.82827,
      "fuels": {
        "gazole": 1.954,
        "sp95": 2.004
      }
    },
    {
      "id": "66594",
      "cp": "2400-180",
      "ville": "Leiria",
      "adresse": "En 109 Km 163",
      "brand": "Repsol",
      "lat": 39.78856,
      "lng": -8.82775,
      "fuels": {
        "gazole": 1.969,
        "sp95": 2.009
      }
    },
    {
      "id": "66595",
      "cp": "2400-180",
      "ville": "Leiria",
      "adresse": "En 109 Km 163",
      "brand": "Repsol",
      "lat": 39.79057,
      "lng": -8.8305,
      "fuels": {
        "gazole": 1.969,
        "sp95": 2.009
      }
    },
    {
      "id": "71069",
      "cp": "2425-452",
      "ville": "Leiria",
      "adresse": "En 109-9 Km 3,4",
      "brand": "Prio",
      "lat": 39.894387,
      "lng": -8.871528,
      "fuels": {
        "sp95": 1.954
      }
    },
    {
      "id": "65342",
      "cp": "2425-039",
      "ville": "Leiria",
      "adresse": "En 349 (rua De leiria)",
      "brand": "Galp",
      "lat": 39.8521,
      "lng": -8.85455,
      "fuels": {
        "gazole": 1.949,
        "sp95": 1.986
      }
    },
    {
      "id": "69412",
      "cp": "2400-763",
      "ville": "Leiria",
      "adresse": "En 349-1 km8 (rua Padre margalhau)",
      "brand": "Rede Energia",
      "lat": 39.79323,
      "lng": -8.85284,
      "fuels": {
        "gazole": 1.823,
        "sp95": 1.857
      }
    },
    {
      "id": "72897",
      "cp": "2405-026",
      "ville": "Leiria",
      "adresse": "En 356 Km 5,625",
      "brand": "Repsol",
      "lat": 39.67874,
      "lng": -8.90934,
      "fuels": {
        "gazole": 1.919,
        "sp95": 1.959
      }
    },
    {
      "id": "65085",
      "cp": "2400-000",
      "ville": "Leiria",
      "adresse": "En 356/1",
      "brand": "Intermarché",
      "lat": 39.68455,
      "lng": -8.89524,
      "fuels": {
        "gazole": 1.809,
        "sp95": 1.859
      }
    },
    {
      "id": "92197",
      "cp": "2400-823",
      "ville": "Leiria",
      "adresse": "est. Da Maceira Cruz De São Tomé",
      "brand": "Bp",
      "lat": 39.71452,
      "lng": -8.831504,
      "fuels": {
        "gazole": 1.979,
        "sp95": 2.019
      }
    },
    {
      "id": "74942",
      "cp": "2415-023",
      "ville": "Leiria",
      "adresse": "Estrada Da Guia - Casais Da Bidoeira",
      "brand": "Repsol",
      "lat": 39.86831,
      "lng": -8.75239,
      "fuels": {
        "gazole": 1.919,
        "sp95": 1.959
      }
    },
    {
      "id": "70769",
      "cp": "2410-854",
      "ville": "Leiria",
      "adresse": "Estrada De Cortes nº169 (en 356)",
      "brand": "Alves Bandeira",
      "lat": 39.714536,
      "lng": -8.789052,
      "fuels": {
        "gazole": 1.929,
        "sp95": 1.976
      }
    },
    {
      "id": "70596",
      "cp": "2415-566",
      "ville": "Leiria",
      "adresse": "Estrada Dos pinheiros, 550",
      "brand": "Bp",
      "lat": 39.76685,
      "lng": -8.79344,
      "fuels": {
        "gazole": 1.839,
        "sp95": 1.939
      }
    },
    {
      "id": "68918",
      "cp": "2425-618",
      "ville": "Leiria",
      "adresse": "Estrada Nacional 109 Edificio 63 Montijos",
      "brand": "Galp",
      "lat": 39.880405,
      "lng": -8.837959,
      "fuels": {
        "gazole": 1.953,
        "sp95": 1.997
      }
    },
    {
      "id": "94536",
      "cp": "2405-004",
      "ville": "Leiria",
      "adresse": "Estrada Principal S/N",
      "brand": "Galp",
      "lat": 39.684483,
      "lng": -8.899872,
      "fuels": {
        "gazole": 1.919,
        "sp95": 1.956
      }
    },
    {
      "id": "89981",
      "cp": "2420-193",
      "ville": "Leiria",
      "adresse": "ic2, Km 136",
      "brand": "Bp",
      "lat": 39.82908,
      "lng": -8.72143,
      "fuels": {
        "gazole": 1.899,
        "sp95": 1.959
      }
    },
    {
      "id": "89987",
      "cp": "2420-193",
      "ville": "Leiria",
      "adresse": "ic2, Km 136",
      "brand": "Bp",
      "lat": 39.82904,
      "lng": -8.72216,
      "fuels": {
        "gazole": 1.899,
        "sp95": 1.959
      }
    },
    {
      "id": "91178",
      "cp": "2400-448",
      "ville": "Leiria",
      "adresse": "r. dr. João soares, Fração Aporto Moniz",
      "brand": "Prio",
      "lat": 39.73963,
      "lng": -8.816806,
      "fuels": {
        "sp95": 1.954
      }
    },
    {
      "id": "90149",
      "cp": "2425-345",
      "ville": "Leiria",
      "adresse": "r. Principal 1251",
      "brand": "Rede Energia",
      "lat": 39.85741,
      "lng": -8.88404,
      "fuels": {
        "gazole": 1.823,
        "sp95": 1.857
      }
    },
    {
      "id": "66593",
      "cp": "2400-140",
      "ville": "Leiria",
      "adresse": "rot. Variante Sul",
      "brand": "Repsol",
      "lat": 39.73564,
      "lng": -8.79968,
      "fuels": {
        "gazole": 1.969,
        "sp95": 2.009
      }
    },
    {
      "id": "78233",
      "cp": "2415-598",
      "ville": "Leiria",
      "adresse": "Rua 25 De Abril",
      "brand": "Pingo Doce",
      "lat": 39.76125,
      "lng": -8.82138,
      "fuels": {
        "gazole": 1.831,
        "sp95": 1.863
      }
    },
    {
      "id": "94894",
      "cp": "2400-193",
      "ville": "Leiria",
      "adresse": "Rua Capitão Mouzinho De albuquerque, 70",
      "brand": "Rede Energia",
      "lat": 39.747562,
      "lng": -8.805167,
      "fuels": {
        "gazole": 1.753,
        "sp95": 1.792
      }
    },
    {
      "id": "69128",
      "cp": "2400-095",
      "ville": "Leiria",
      "adresse": "Rua Carolina Ferreira Ribeiro",
      "brand": "Moeve",
      "lat": 39.740635,
      "lng": -8.799069,
      "fuels": {
        "gazole": 1.881,
        "sp95": 1.918
      }
    },
    {
      "id": "66579",
      "cp": "2495-000",
      "ville": "Leiria",
      "adresse": "Rua Central nº 65",
      "brand": "Repsol",
      "lat": 39.664119,
      "lng": -8.686198,
      "fuels": {
        "gazole": 1.969,
        "sp95": 2.009
      }
    },
    {
      "id": "70904",
      "cp": "2420-203",
      "ville": "Leiria",
      "adresse": "Rua Central nº 676",
      "brand": "Bp",
      "lat": 39.82827,
      "lng": -8.682691,
      "fuels": {
        "gazole": 1.899,
        "sp95": 1.959
      }
    },
    {
      "id": "70509",
      "cp": "2420-202",
      "ville": "Leiria",
      "adresse": "Rua Central nº4526",
      "brand": "Repsol",
      "lat": 39.79319,
      "lng": -8.70273,
      "fuels": {
        "gazole": 1.874,
        "sp95": 1.924
      }
    },
    {
      "id": "93148",
      "cp": "2495-183",
      "ville": "Leiria",
      "adresse": "Rua central, n.º 41",
      "brand": "Bp",
      "lat": 39.67482,
      "lng": -8.67575,
      "fuels": {
        "gazole": 1.984,
        "sp95": 2.024
      }
    },
    {
      "id": "65053",
      "cp": "2415-415",
      "ville": "Leiria",
      "adresse": "Rua Da Baquelite - Gândara Dos Olivais",
      "brand": "Intermarché",
      "lat": 39.76503,
      "lng": -8.817692,
      "fuels": {
        "gazole": 1.755,
        "sp95": 1.794
      }
    },
    {
      "id": "73390",
      "cp": "2425-022",
      "ville": "Leiria",
      "adresse": "Rua Da Base Aérea nº 365",
      "brand": "Galp",
      "lat": 39.847942,
      "lng": -8.871957,
      "fuels": {
        "gazole": 1.943,
        "sp95": 1.987
      }
    },
    {
      "id": "93401",
      "cp": "2420-195",
      "ville": "Leiria",
      "adresse": "Rua Da bidoeira, nº 146",
      "brand": "Genérico",
      "lat": 39.82772,
      "lng": -8.7244,
      "fuels": {
        "gazole": 1.829,
        "sp95": 1.939
      }
    },
    {
      "id": "88631",
      "cp": "2415-449",
      "ville": "Leiria",
      "adresse": "Rua Da Escola nº 245 - Aguadinha - marinheiros, Marrazes",
      "brand": "Alves Bandeira",
      "lat": 39.758722,
      "lng": -8.791704,
      "fuels": {
        "gazole": 1.929,
        "sp95": 1.976
      }
    },
    {
      "id": "92968",
      "cp": "2420-026",
      "ville": "Leiria",
      "adresse": "Rua De Tomar nº 51 A",
      "brand": "Rede Energia",
      "lat": 39.718619,
      "lng": -8.714898,
      "fuels": {
        "gazole": 1.819,
        "sp95": 1.854
      }
    },
    {
      "id": "94497",
      "cp": "2420-020",
      "ville": "Leiria",
      "adresse": "Rua De tomar, nº 51",
      "brand": "Repsol",
      "lat": 39.718887,
      "lng": -8.714809,
      "fuels": {
        "gazole": 1.969,
        "sp95": 2.009
      }
    },
    {
      "id": "71085",
      "cp": "2415-520",
      "ville": "Leiria",
      "adresse": "Rua Do  Arrabalde Da Ponte - Estrada Da Estação",
      "brand": "Bp",
      "lat": 39.75423,
      "lng": -8.812861,
      "fuels": {
        "gazole": 1.979,
        "sp95": 2.019
      }
    },
    {
      "id": "69670",
      "cp": "2425-208",
      "ville": "Leiria",
      "adresse": "Rua Do Vale",
      "brand": "Auto Julio",
      "lat": 39.89291,
      "lng": -8.77613,
      "fuels": {
        "gazole": 1.963,
        "sp95": 1.996
      }
    },
    {
      "id": "93065",
      "cp": "2420-003",
      "ville": "Leiria",
      "adresse": "Rua dr. Diogo Almeida Pais Santos",
      "brand": "Galp",
      "lat": 39.796231,
      "lng": -8.727059,
      "fuels": {
        "gazole": 1.893,
        "sp95": 1.937
      }
    },
    {
      "id": "65350",
      "cp": "2400-448",
      "ville": "Leiria",
      "adresse": "Rua dr. João Soares nº 299",
      "brand": "Galp",
      "lat": 39.73892,
      "lng": -8.81533,
      "fuels": {
        "gazole": 1.969,
        "sp95": 2.009
      }
    },
    {
      "id": "94387",
      "cp": "2425-617",
      "ville": "Leiria",
      "adresse": "Rua Estrada Das Lavegadas",
      "brand": "Intermarché",
      "lat": 39.89086,
      "lng": -8.83345,
      "fuels": {
        "gazole": 1.758,
        "sp95": 1.803
      }
    },
    {
      "id": "71407",
      "cp": "2410-251",
      "ville": "Leiria",
      "adresse": "Rua Forno Da Telha nº1385",
      "brand": "G-Energy",
      "lat": 39.69944,
      "lng": -8.80491,
      "fuels": {
        "gazole": 1.756,
        "sp95": 1.802
      }
    },
    {
      "id": "69990",
      "cp": "2400-016",
      "ville": "Leiria",
      "adresse": "Rua Industrialzona Industrial Carreira De Água",
      "brand": "Bxpress",
      "lat": 39.7547,
      "lng": -8.8662,
      "fuels": {
        "gazole": 1.759,
        "sp95": 1.799
      }
    },
    {
      "id": "66347",
      "cp": "2425-737",
      "ville": "Leiria",
      "adresse": "Rua Joaquim De Sousa nrº1400",
      "brand": "Moeve",
      "lat": 39.81953,
      "lng": -8.841242,
      "fuels": {
        "gazole": 1.951,
        "sp95": 1.988
      }
    },
    {
      "id": "65344",
      "cp": "2420-403",
      "ville": "Leiria",
      "adresse": "Rua Nossa Senhora Das dores, nº146",
      "brand": "Galp",
      "lat": 39.78243,
      "lng": -8.751261,
      "fuels": {
        "gazole": 1.969,
        "sp95": 2.009
      }
    },
    {
      "id": "69297",
      "cp": "2495-191",
      "ville": "Leiria",
      "adresse": "Rua Sete Rios nº21",
      "brand": "Alves Bandeira",
      "lat": 39.70908,
      "lng": -8.67432,
      "fuels": {
        "gazole": 1.969,
        "sp95": 2.016
      }
    },
    {
      "id": "76457",
      "cp": "2420-020",
      "ville": "Leiria",
      "adresse": "Variante Da Caranguejeira",
      "brand": "Genérico",
      "lat": 39.721138,
      "lng": -8.713781,
      "fuels": {
        "gazole": 1.819,
        "sp95": 1.854
      }
    },
    {
      "id": "67868",
      "cp": "2430-307",
      "ville": "Marinha Grande",
      "adresse": "av. dr. José Henriques Vareda nº8",
      "brand": "Bp",
      "lat": 39.745975,
      "lng": -8.934596,
      "fuels": {
        "gazole": 1.979,
        "sp95": 2.019
      }
    },
    {
      "id": "67331",
      "cp": "2430-275",
      "ville": "Marinha Grande",
      "adresse": "av. José Gregório",
      "brand": "Intermarché",
      "lat": 39.75694,
      "lng": -8.93315,
      "fuels": {
        "gazole": 1.809,
        "sp95": 1.849
      }
    },
    {
      "id": "93762",
      "cp": "2430-401",
      "ville": "Marinha Grande",
      "adresse": "av. José gregório, Posto De Combustíveis",
      "brand": "Prio",
      "lat": 39.765953,
      "lng": -8.938041,
      "fuels": {
        "sp95": 2.009
      }
    },
    {
      "id": "93075",
      "cp": "2430-091",
      "ville": "Marinha Grande",
      "adresse": "e.n. 242, Km 9, Rua De leiria, Embra",
      "brand": "Bp",
      "lat": 39.74759,
      "lng": -8.904907,
      "fuels": {
        "gazole": 1.979,
        "sp95": 2.019
      }
    },
    {
      "id": "66583",
      "cp": "2430-011",
      "ville": "Marinha Grande",
      "adresse": "En 242  Km 8,5 (av nª srª nazaré)",
      "brand": "Repsol",
      "lat": 39.7454,
      "lng": -8.89058,
      "fuels": {
        "gazole": 1.909,
        "sp95": 1.949
      }
    },
    {
      "id": "65416",
      "cp": "2430-000",
      "ville": "Marinha Grande",
      "adresse": "En 242 (av. Vítor galo) Km 11,5",
      "brand": "Galp",
      "lat": 39.74892,
      "lng": -8.92391,
      "fuels": {
        "gazole": 1.969,
        "sp95": 2.009
      }
    },
    {
      "id": "65415",
      "cp": "2430-091",
      "ville": "Marinha Grande",
      "adresse": "En 242 Km 10,4",
      "brand": "Galp",
      "lat": 39.74782,
      "lng": -8.91122,
      "fuels": {
        "gazole": 1.969,
        "sp95": 2.009
      }
    },
    {
      "id": "66596",
      "cp": "2430-535",
      "ville": "Marinha Grande",
      "adresse": "En 242 Km 13,7",
      "brand": "Repsol",
      "lat": 39.73495,
      "lng": -8.93242,
      "fuels": {
        "gazole": 1.909,
        "sp95": 1.949
      }
    },
    {
      "id": "70428",
      "cp": "2445-630",
      "ville": "Marinha Grande",
      "adresse": "Estrada Nacional nº242, Km 18",
      "brand": "Alves Bandeira",
      "lat": 39.697165,
      "lng": -8.953801,
      "fuels": {
        "gazole": 1.924,
        "sp95": 1.971
      }
    },
    {
      "id": "65417",
      "cp": "2430-795",
      "ville": "Marinha Grande",
      "adresse": "Largo Da República",
      "brand": "Galp",
      "lat": 39.8691,
      "lng": -8.93451,
      "fuels": {
        "gazole": 1.949,
        "sp95": 1.986
      }
    },
    {
      "id": "66582",
      "cp": "2430-000",
      "ville": "Marinha Grande",
      "adresse": "Praceta Do Vidreiro nº 12",
      "brand": "Repsol",
      "lat": 39.74714,
      "lng": -8.93429,
      "fuels": {
        "gazole": 1.909,
        "sp95": 1.949
      }
    },
    {
      "id": "89107",
      "cp": "2430-018",
      "ville": "Marinha Grande",
      "adresse": "r. central, 204",
      "brand": "Genérico",
      "lat": 39.79048,
      "lng": -8.92521,
      "fuels": {
        "gazole": 1.799,
        "sp95": 1.899
      }
    },
    {
      "id": "75757",
      "cp": "2430-773",
      "ville": "Marinha Grande",
      "adresse": "Rua De Leiria n.º50/52 - Barqueiro",
      "brand": "Intermarché",
      "lat": 39.86835,
      "lng": -8.916775,
      "fuels": {
        "gazole": 1.809,
        "sp95": 1.849
      }
    },
    {
      "id": "93219",
      "cp": "2430-773",
      "ville": "Marinha Grande",
      "adresse": "Rua De Leiria nº 37",
      "brand": "Cepsa",
      "lat": 39.86935,
      "lng": -8.92025,
      "fuels": {
        "gazole": 1.851,
        "sp95": 1.888
      }
    },
    {
      "id": "93310",
      "cp": "2430-091",
      "ville": "Marinha Grande",
      "adresse": "Zona Industrial Da Embra",
      "brand": "Transforpel",
      "lat": 39.750379,
      "lng": -8.904627,
      "fuels": {
        "gazole": 1.719,
        "sp95": 1.759
      }
    },
    {
      "id": "93233",
      "cp": "2450-106",
      "ville": "Nazaré",
      "adresse": "av. Manuel remígio, en242porto Da Nazaré",
      "brand": "Shell",
      "lat": 39.58669,
      "lng": -9.07176,
      "fuels": {
        "gazole": 1.919,
        "sp95": 1.959
      }
    },
    {
      "id": "65467",
      "cp": "2450-000",
      "ville": "Nazaré",
      "adresse": "En 24 Km 32,2",
      "brand": "Galp",
      "lat": 39.61505,
      "lng": -9.05957,
      "fuels": {
        "gazole": 1.919,
        "sp95": 1.956
      }
    },
    {
      "id": "66588",
      "cp": "2450-338",
      "ville": "Nazaré",
      "adresse": "en8-5",
      "brand": "Repsol",
      "lat": 39.5835,
      "lng": -9.0126,
      "fuels": {
        "gazole": 1.969,
        "sp95": 2.009
      }
    },
    {
      "id": "93077",
      "cp": "2500-000",
      "ville": "Óbidos",
      "adresse": "a8 Sub-Lanço Gaeiras  - Apartado 93",
      "brand": "Shell",
      "lat": 39.38781,
      "lng": -9.14929,
      "fuels": {
        "gazole": 1.944,
        "sp95": 1.989
      }
    },
    {
      "id": "93078",
      "cp": "2500-000",
      "ville": "Óbidos",
      "adresse": "a8 Sub-Lanço Gaeiras  - Apartado 93",
      "brand": "Shell",
      "lat": 39.38696,
      "lng": -9.15066,
      "fuels": {
        "gazole": 1.944,
        "sp95": 1.989
      }
    },
    {
      "id": "67606",
      "cp": "2510-739",
      "ville": "Óbidos",
      "adresse": "Casal Do Pedrógão",
      "brand": "Intermarché",
      "lat": 39.38938,
      "lng": -9.13109,
      "fuels": {
        "gazole": 1.839,
        "sp95": 1.862
      }
    },
    {
      "id": "77172",
      "cp": "2510-123",
      "ville": "Óbidos",
      "adresse": "e.n. 8, Km 86, Casal Das Caxinas",
      "brand": "Alves Bandeira",
      "lat": 39.37015,
      "lng": -9.14273,
      "fuels": {
        "gazole": 1.929,
        "sp95": 1.976
      }
    },
    {
      "id": "77822",
      "cp": "2510-217",
      "ville": "Óbidos",
      "adresse": "En 8 - Entre Rotunda Da Memória E Rotunda Das Piscinas",
      "brand": "Prio",
      "lat": 39.35487,
      "lng": -9.15908,
      "fuels": {
        "sp95": 1.954
      }
    },
    {
      "id": "70760",
      "cp": "2510-772",
      "ville": "Óbidos",
      "adresse": "Rua Manuel Teotónio nº 85",
      "brand": "Auto Julio",
      "lat": 39.32309,
      "lng": -9.15756,
      "fuels": {
        "gazole": 1.913,
        "sp95": 1.997
      }
    },
    {
      "id": "66585",
      "cp": "3270-000",
      "ville": "Pedrógão Grande",
      "adresse": "Lugar Picha",
      "brand": "Repsol",
      "lat": 39.97154,
      "lng": -8.14697,
      "fuels": {
        "gazole": 1.929,
        "sp95": 1.969
      }
    },
    {
      "id": "91028",
      "cp": "3270-099",
      "ville": "Pedrógão Grande",
      "adresse": "r. Manuel Nunes david, n.º 24",
      "brand": "Galp",
      "lat": 39.91274,
      "lng": -8.14781,
      "fuels": {
        "gazole": 1.949,
        "sp95": 1.986
      }
    },
    {
      "id": "93327",
      "cp": "3270-026",
      "ville": "Pedrógão Grande",
      "adresse": "Rua Do Carregal n52",
      "brand": "Alves Bandeira",
      "lat": 39.917717,
      "lng": -8.218467,
      "fuels": {
        "gazole": 1.949,
        "sp95": 1.996
      }
    },
    {
      "id": "93015",
      "cp": "3270-171",
      "ville": "Pedrógão Grande",
      "adresse": "Rua Dom Joaquim Jacinto",
      "brand": "Repsol",
      "lat": 39.91284,
      "lng": -8.149402,
      "fuels": {
        "gazole": 1.929,
        "sp95": 1.969
      }
    },
    {
      "id": "94824",
      "cp": "3270-171",
      "ville": "Pedrógão Grande",
      "adresse": "Rua dr. Joaquim nº 19",
      "brand": "Repsol",
      "lat": 39.912834,
      "lng": -8.149415,
      "fuels": {
        "gazole": 1.969,
        "sp95": 2.009
      }
    },
    {
      "id": "65540",
      "cp": "2520-000",
      "ville": "Peniche",
      "adresse": "av. Do Porto De Pesca",
      "brand": "Galp",
      "lat": 39.358491,
      "lng": -9.370954,
      "fuels": {
        "gazole": 1.919,
        "sp95": 1.956
      }
    },
    {
      "id": "66002",
      "cp": "2520-000",
      "ville": "Peniche",
      "adresse": "av. Monsenhor Bastos",
      "brand": "Bp",
      "lat": 39.353305,
      "lng": -9.362397,
      "fuels": {
        "gazole": 1.959,
        "sp95": 1.999
      }
    },
    {
      "id": "94313",
      "cp": "2525-005",
      "ville": "Peniche",
      "adresse": "e.n. 247 Km 5,250",
      "brand": "Galp",
      "lat": 39.302586,
      "lng": -9.319131,
      "fuels": {
        "gazole": 1.949,
        "sp95": 1.986
      }
    },
    {
      "id": "94585",
      "cp": "2525-553",
      "ville": "Peniche",
      "adresse": "En 114 Km 7,600",
      "brand": "Intermarché",
      "lat": 39.34556,
      "lng": -9.34062,
      "fuels": {
        "gazole": 1.849,
        "sp95": 1.889
      }
    },
    {
      "id": "65541",
      "cp": "2520-000",
      "ville": "Peniche",
      "adresse": "Largo De São José nº 11",
      "brand": "Galp",
      "lat": 39.3401,
      "lng": -9.32717,
      "fuels": {
        "gazole": 1.949,
        "sp95": 1.986
      }
    },
    {
      "id": "65550",
      "cp": "3100-000",
      "ville": "Pombal",
      "adresse": "A 1 - Km 166,7 - Lisboa/Porto",
      "brand": "Galp",
      "lat": 40.01132,
      "lng": -8.600008,
      "fuels": {
        "gazole": 2.024,
        "sp95": 2.064
      }
    },
    {
      "id": "65551",
      "cp": "3100-000",
      "ville": "Pombal",
      "adresse": "a1 - Km 166,7 - Porto/Lisboa",
      "brand": "Galp",
      "lat": 40.01513,
      "lng": -8.59995,
      "fuels": {
        "gazole": 2.024,
        "sp95": 2.064
      }
    },
    {
      "id": "67882",
      "cp": "3100-532",
      "ville": "Pombal",
      "adresse": "av. Arquitecto Rosado Correia",
      "brand": "Alves Bandeira",
      "lat": 39.916272,
      "lng": -8.632933,
      "fuels": {
        "gazole": 1.929,
        "sp95": 1.976
      }
    },
    {
      "id": "70869",
      "cp": "3105-089",
      "ville": "Pombal",
      "adresse": "av. Nossa Senhora Da guia, 87",
      "brand": "Genérico",
      "lat": 39.94901,
      "lng": -8.783816,
      "fuels": {
        "gazole": 1.76,
        "sp95": 1.961
      }
    },
    {
      "id": "81111",
      "cp": "3100-648",
      "ville": "Pombal",
      "adresse": "e.n. 1-6-Km 8",
      "brand": "Genérico",
      "lat": 39.847218,
      "lng": -8.603571,
      "fuels": {
        "gazole": 1.859,
        "sp95": 1.919
      }
    },
    {
      "id": "66570",
      "cp": "3100-000",
      "ville": "Pombal",
      "adresse": "En 1",
      "brand": "Repsol",
      "lat": 39.922311,
      "lng": -8.629056,
      "fuels": {
        "gazole": 1.969,
        "sp95": 2.009
      }
    },
    {
      "id": "70673",
      "cp": "3105-295",
      "ville": "Pombal",
      "adresse": "En 1 Km 151,8",
      "brand": "Genérico",
      "lat": 39.938364,
      "lng": -8.628303,
      "fuels": {
        "gazole": 1.839,
        "sp95": 1.912
      }
    },
    {
      "id": "70686",
      "cp": "3105-295",
      "ville": "Pombal",
      "adresse": "En 1 Km 159,8",
      "brand": "Genérico",
      "lat": 39.938229,
      "lng": -8.628914,
      "fuels": {
        "gazole": 1.839,
        "sp95": 1.912
      }
    },
    {
      "id": "65547",
      "cp": "3100-000",
      "ville": "Pombal",
      "adresse": "En 1 Km 167",
      "brand": "Galp",
      "lat": 39.99617,
      "lng": -8.60254,
      "fuels": {
        "gazole": 1.969,
        "sp95": 2.009
      }
    },
    {
      "id": "65548",
      "cp": "3100-000",
      "ville": "Pombal",
      "adresse": "En 1 Km 167",
      "brand": "Galp",
      "lat": 39.99581,
      "lng": -8.60249,
      "fuels": {
        "gazole": 1.969,
        "sp95": 2.009
      }
    },
    {
      "id": "66920",
      "cp": "3105-099",
      "ville": "Pombal",
      "adresse": "En 109 Km 145,5",
      "brand": "Prio",
      "lat": 39.9373094559,
      "lng": -8.79688332094,
      "fuels": {
        "sp95": 1.954
      }
    },
    {
      "id": "87647",
      "cp": "3105-099",
      "ville": "Pombal",
      "adresse": "En 109, Km 154,100",
      "brand": "Rede Energia",
      "lat": 39.944891,
      "lng": -8.786891,
      "fuels": {
        "gazole": 1.759,
        "sp95": 1.847
      }
    },
    {
      "id": "90597",
      "cp": "3105-028",
      "ville": "Pombal",
      "adresse": "Estrada Da Guia 13,  Lugar De Martim Godim",
      "brand": "Bp",
      "lat": 39.8881,
      "lng": -8.758389,
      "fuels": {
        "gazole": 1.959,
        "sp95": 1.999
      }
    },
    {
      "id": "94306",
      "cp": "3105-253",
      "ville": "Pombal",
      "adresse": "Estrada Nacional 1 - Ic 2",
      "brand": "Galp",
      "lat": 39.843853,
      "lng": -8.709167,
      "fuels": {
        "gazole": 1.954,
        "sp95": 1.991
      }
    },
    {
      "id": "94309",
      "cp": "3105-253",
      "ville": "Pombal",
      "adresse": "Estrada Nacional 1 ic2",
      "brand": "Galp",
      "lat": 39.843575,
      "lng": -8.709041,
      "fuels": {
        "gazole": 1.954,
        "sp95": 1.991
      }
    },
    {
      "id": "67913",
      "cp": "3105-057",
      "ville": "Pombal",
      "adresse": "Estrada Nacional nº109",
      "brand": "Alves Bandeira",
      "lat": 39.99002,
      "lng": -8.80177,
      "fuels": {
        "gazole": 1.969,
        "sp95": 2.016
      }
    },
    {
      "id": "93074",
      "cp": "3100-545",
      "ville": "Pombal",
      "adresse": "ic2 - km148,35 Pombal",
      "brand": "Bp",
      "lat": 39.908627,
      "lng": -8.632954,
      "fuels": {
        "gazole": 1.999,
        "sp95": 2.039
      }
    },
    {
      "id": "92510",
      "cp": "3100-371",
      "ville": "Pombal",
      "adresse": "Parque Comercial europa, nº9, e. n. 1, Km 145+400, Lado Direito",
      "brand": "Genérico",
      "lat": 39.8933,
      "lng": -8.658104,
      "fuels": {
        "gazole": 1.749,
        "sp95": 1.799
      }
    },
    {
      "id": "66598",
      "cp": "3100-354",
      "ville": "Pombal",
      "adresse": "Parque ind. Manuel Da Mota lt..14",
      "brand": "Repsol",
      "lat": 39.93995,
      "lng": -8.66667,
      "fuels": {
        "gazole": 1.969,
        "sp95": 2.009
      }
    },
    {
      "id": "72408",
      "cp": "3100-081",
      "ville": "Pombal",
      "adresse": "r. Do Castelo",
      "brand": "Genérico",
      "lat": 39.80369,
      "lng": -8.59071,
      "fuels": {
        "gazole": 1.889,
        "sp95": 1.949
      }
    },
    {
      "id": "70091",
      "cp": "3105-245",
      "ville": "Pombal",
      "adresse": "Rua Da igreja, nº47",
      "brand": "Genérico",
      "lat": 39.846783,
      "lng": -8.698533,
      "fuels": {
        "gazole": 1.859,
        "sp95": 1.919
      }
    },
    {
      "id": "93411",
      "cp": "3105-437",
      "ville": "Pombal",
      "adresse": "Rua Dos Combatentes 2",
      "brand": "Repsol",
      "lat": 39.847633,
      "lng": -8.657124,
      "fuels": {
        "gazole": 1.919,
        "sp95": 1.959
      }
    },
    {
      "id": "94730",
      "cp": "3100-516",
      "ville": "Pombal",
      "adresse": "Rua José Portela Fernandes Farinha n. 50 - z. i. Da Formiga",
      "brand": "Auto Julio",
      "lat": 39.91706,
      "lng": -8.6354,
      "fuels": {
        "gazole": 1.758,
        "sp95": 1.822
      }
    },
    {
      "id": "68680",
      "cp": "3100-835",
      "ville": "Pombal",
      "adresse": "Rua Manuel Francisco Freixeira",
      "brand": "Alves Bandeira",
      "lat": 39.861151,
      "lng": -8.565493,
      "fuels": {
        "gazole": 1.949,
        "sp95": 1.996
      }
    },
    {
      "id": "68666",
      "cp": "3100-081",
      "ville": "Pombal",
      "adresse": "Rua Principal",
      "brand": "Alves Bandeira",
      "lat": 39.791541,
      "lng": -8.592756,
      "fuels": {
        "gazole": 1.929,
        "sp95": 1.976
      }
    },
    {
      "id": "95191",
      "cp": "3100-555",
      "ville": "Pombal",
      "adresse": "Rua Principal n. 45 - Covão Dos  Mendes",
      "brand": "Genérico",
      "lat": 39.903164,
      "lng": -8.713031,
      "fuels": {
        "gazole": 1.969,
        "sp95": 1.989
      }
    },
    {
      "id": "68478",
      "cp": "3105-198",
      "ville": "Pombal",
      "adresse": "Rua Principal nº63",
      "brand": "Genérico",
      "lat": 39.95248,
      "lng": -8.74927,
      "fuels": {
        "gazole": 1.811,
        "sp95": 1.966
      }
    },
    {
      "id": "93048",
      "cp": "3100-356",
      "ville": "Pombal",
      "adresse": "Rua principal, nº43 (en 237-1) - (foitos - pombal)",
      "brand": "Shell",
      "lat": 40.009995,
      "lng": -8.763917,
      "fuels": {
        "gazole": 1.969,
        "sp95": 2.009
      }
    },
    {
      "id": "80710",
      "cp": "3105-165",
      "ville": "Pombal",
      "adresse": "Rua Sociedade filarmónica, nº75",
      "brand": "Alves Bandeira",
      "lat": 40.00582,
      "lng": -8.73685,
      "fuels": {
        "gazole": 1.969,
        "sp95": 2.016
      }
    },
    {
      "id": "74989",
      "cp": "3105-063",
      "ville": "Pombal",
      "adresse": "Serrado Da Estrada nº 24",
      "brand": "Intermarché",
      "lat": 39.969017,
      "lng": -8.792913,
      "fuels": {
        "gazole": 1.754,
        "sp95": 1.793
      }
    },
    {
      "id": "67614",
      "cp": "3100-389",
      "ville": "Pombal",
      "adresse": "Várzea",
      "brand": "Intermarché",
      "lat": 39.92038,
      "lng": -8.62985,
      "fuels": {
        "gazole": 1.754,
        "sp95": 1.793
      }
    },
    {
      "id": "67646",
      "cp": "3100-427",
      "ville": "Pombal",
      "adresse": "viad. eng. Guilherme santos, 2",
      "brand": "Repsol",
      "lat": 39.9145,
      "lng": -8.632615,
      "fuels": {
        "gazole": 1.909,
        "sp95": 1.939
      }
    },
    {
      "id": "66022",
      "cp": "2480-300",
      "ville": "Porto De Mós",
      "adresse": "Alameda d.afonso henriques, 8",
      "brand": "Bp",
      "lat": 39.598946,
      "lng": -8.819331,
      "fuels": {
        "gazole": 1.999,
        "sp95": 2.039
      }
    },
    {
      "id": "81566",
      "cp": "2480-303",
      "ville": "Porto De Mós",
      "adresse": "av. De São Pedro",
      "brand": "Intermarché",
      "lat": 39.59912,
      "lng": -8.82408,
      "fuels": {
        "gazole": 1.809,
        "sp95": 1.859
      }
    },
    {
      "id": "67535",
      "cp": "2480-113",
      "ville": "Porto De Mós",
      "adresse": "e.n. 1 - Tremoceira - Pedreiras",
      "brand": "Prio",
      "lat": 39.60272,
      "lng": -8.857256,
      "fuels": {
        "sp95": 1.909
      }
    },
    {
      "id": "87990",
      "cp": "2480-215",
      "ville": "Porto De Mós",
      "adresse": "e.n. 362 - Rua Principal nº 95",
      "brand": "Genérico",
      "lat": 39.49382,
      "lng": -8.85617,
      "fuels": {
        "gazole": 1.731,
        "sp95": 1.835
      }
    },
    {
      "id": "67496",
      "cp": "2480-113",
      "ville": "Porto De Mós",
      "adresse": "En 1 Km 105,200",
      "brand": "Prio",
      "lat": 39.6027,
      "lng": -8.85781,
      "fuels": {
        "sp95": 1.909
      }
    },
    {
      "id": "90866",
      "cp": "2480-062",
      "ville": "Porto De Mós",
      "adresse": "En 1, Km 107,4",
      "brand": "Bp",
      "lat": 39.624098,
      "lng": -8.85721,
      "fuels": {
        "gazole": 1.999,
        "sp95": 2.039
      }
    },
    {
      "id": "66599",
      "cp": "2480-170",
      "ville": "Porto De Mós",
      "adresse": "En 243",
      "brand": "Repsol",
      "lat": 39.59649,
      "lng": -8.81717,
      "fuels": {
        "gazole": 1.969,
        "sp95": 2.009
      }
    },
    {
      "id": "93427",
      "cp": "2485-135",
      "ville": "Porto De Mós",
      "adresse": "En 243 Km 20,850 (rua Generaltrindade nº 549)",
      "brand": "Prio",
      "lat": 39.53574,
      "lng": -8.70325,
      "fuels": {
        "sp95": 1.904
      }
    },
    {
      "id": "91450",
      "cp": "2480-151",
      "ville": "Porto De Mós",
      "adresse": "En 243, nº 21/23 - Rua Dos Leões - Corredoura",
      "brand": "Bp",
      "lat": 39.604263,
      "lng": -8.836599,
      "fuels": {
        "gazole": 1.999,
        "sp95": 2.039
      }
    },
    {
      "id": "75519",
      "cp": "2480-078",
      "ville": "Porto De Mós",
      "adresse": "En 8",
      "brand": "Intermarché",
      "lat": 39.582635,
      "lng": -8.900134,
      "fuels": {
        "gazole": 1.808,
        "sp95": 1.848
      }
    },
    {
      "id": "65574",
      "cp": "2480-071",
      "ville": "Porto De Mós",
      "adresse": "En 8 Km 126",
      "brand": "Repsol",
      "lat": 39.58834,
      "lng": -8.89127,
      "fuels": {
        "gazole": 1.919,
        "sp95": 1.959
      }
    },
    {
      "id": "94729",
      "cp": "2480-011",
      "ville": "Porto De Mós",
      "adresse": "Estrada Da Bica - En 243, Km 10,950",
      "brand": "Genérico",
      "lat": 39.56767,
      "lng": -8.79111,
      "fuels": {
        "gazole": 1.853,
        "sp95": 1.897
      }
    },
    {
      "id": "71023",
      "cp": "2480-184",
      "ville": "Porto De Mós",
      "adresse": "Estrada principal, nº 1",
      "brand": "Prio",
      "lat": 39.601837,
      "lng": -8.842388,
      "fuels": {
        "sp95": 1.954
      }
    },
    {
      "id": "74915",
      "cp": "2480-060",
      "ville": "Porto De Mós",
      "adresse": "ic2 Km 107,4",
      "brand": "Pingo Doce",
      "lat": 39.62395,
      "lng": -8.85685,
      "fuels": {
        "gazole": 1.831,
        "sp95": 1.863
      }
    },
    {
      "id": "67059",
      "cp": "2480-353",
      "ville": "Porto De Mós",
      "adresse": "Rua Comendador j. Coelho Da silva,51",
      "brand": "Galp",
      "lat": 39.599722,
      "lng": -8.895833,
      "fuels": {
        "gazole": 1.963,
        "sp95": 1.997
      }
    },
    {
      "id": "81186",
      "cp": "2480-211",
      "ville": "Porto De Mós",
      "adresse": "Rua Do Lagar novo, n.20",
      "brand": "Repsol",
      "lat": 39.52071423,
      "lng": -8.83872115,
      "fuels": {
        "gazole": 1.765,
        "sp95": 1.831
      }
    },
    {
      "id": "69196",
      "cp": "2485-126",
      "ville": "Porto De Mós",
      "adresse": "Rua General Humberto Delgado (en 243)",
      "brand": "Cepsa",
      "lat": 39.543,
      "lng": -8.71483,
      "fuels": {
        "gazole": 1.831,
        "sp95": 1.868
      }
    },
    {
      "id": "70072",
      "cp": "2480-142",
      "ville": "Porto De Mós",
      "adresse": "Rua Luis De Camões nº 682",
      "brand": "Genérico",
      "lat": 39.52379,
      "lng": -8.7893,
      "fuels": {
        "gazole": 1.919,
        "sp95": 1.929
      }
    }
  ]
}