{
  "code": "VILA-REAL",
  "name": "Vila Real",
  "regionCode": "N",
  "regionName": "Norte",
  "asOf": "2026-06-09T19:13:28.696Z",
  "source": "https://precoscombustiveis.dgeg.gov.pt/",
  "stationCount": 88,
  "fuels": {
    "gazole": {
      "count": 84,
      "mean": 1.9541,
      "median": 1.9535,
      "min": 1.819,
      "max": 2.139
    },
    "sp95": {
      "count": 87,
      "mean": 1.9636,
      "median": 1.955,
      "min": 1.846,
      "max": 2.089
    }
  },
  "stations": [
    {
      "id": "85949",
      "cp": "5070-011",
      "ville": "Alijó",
      "adresse": "Avenida 25 De Abril (en 322, Km 35,805)",
      "brand": "Tuacar",
      "lat": 41.26983,
      "lng": -7.47852,
      "fuels": {
        "gazole": 1.929,
        "sp95": 1.925
      }
    },
    {
      "id": "65062",
      "cp": "5070-000",
      "ville": "Alijó",
      "adresse": "En 212 - av. 25 De Abril",
      "brand": "Galp",
      "lat": 41.27311,
      "lng": -7.476558,
      "fuels": {
        "gazole": 1.939,
        "sp95": 1.946
      }
    },
    {
      "id": "66954",
      "cp": "5070-533",
      "ville": "Alijó",
      "adresse": "En 212 Km 36,900 - Vila Chã",
      "brand": "Genérico",
      "lat": 41.320072,
      "lng": -7.461865,
      "fuels": {
        "gazole": 1.983,
        "sp95": 1.997
      }
    },
    {
      "id": "77095",
      "cp": "5070-351",
      "ville": "Alijó",
      "adresse": "Estrada Nacional 323-1",
      "brand": "Cepsa",
      "lat": 41.29553,
      "lng": -7.51977,
      "fuels": {
        "gazole": 1.936,
        "sp95": 1.938
      }
    },
    {
      "id": "67271",
      "cp": "5070-050",
      "ville": "Alijó",
      "adresse": "Lugar Da Tapada - Apartado 22",
      "brand": "Intermarché",
      "lat": 41.2694,
      "lng": -7.47572,
      "fuels": {
        "gazole": 1.859,
        "sp95": 1.879
      }
    },
    {
      "id": "69402",
      "cp": "5460-301",
      "ville": "Boticas",
      "adresse": "av. De chaves, 30",
      "brand": "Gaspe",
      "lat": 41.69014,
      "lng": -7.66123,
      "fuels": {
        "gazole": 1.963,
        "sp95": 1.977
      }
    },
    {
      "id": "75137",
      "cp": "5460-331",
      "ville": "Boticas",
      "adresse": "Avenida Do noro, nº 4",
      "brand": "Galp",
      "lat": 41.6872,
      "lng": -7.664512,
      "fuels": {
        "gazole": 1.979,
        "sp95": 1.986
      }
    },
    {
      "id": "66822",
      "cp": "5400-000",
      "ville": "Chaves",
      "adresse": "av. 5 De Outubro nº 16",
      "brand": "Repsol",
      "lat": 41.74178,
      "lng": -7.46683,
      "fuels": {
        "gazole": 1.939,
        "sp95": 1.945
      }
    },
    {
      "id": "69548",
      "cp": "5400-672",
      "ville": "Chaves",
      "adresse": "av. Da Cocanha",
      "brand": "Prio",
      "lat": 41.767975,
      "lng": -7.467495,
      "fuels": {
        "sp95": 1.954
      }
    },
    {
      "id": "66818",
      "cp": "5400-000",
      "ville": "Chaves",
      "adresse": "av. Santo amaro, S/N",
      "brand": "Repsol",
      "lat": 41.7395,
      "lng": -7.4761,
      "fuels": {
        "gazole": 1.939,
        "sp95": 1.945
      }
    },
    {
      "id": "69446",
      "cp": "5400-620",
      "ville": "Chaves",
      "adresse": "En 103",
      "brand": "Galp",
      "lat": 41.716297,
      "lng": -7.505522,
      "fuels": {
        "gazole": 1.919,
        "sp95": 1.929
      }
    },
    {
      "id": "65236",
      "cp": "5400-000",
      "ville": "Chaves",
      "adresse": "En 2",
      "brand": "Galp",
      "lat": 41.72866,
      "lng": -7.47115,
      "fuels": {
        "gazole": 1.944,
        "sp95": 1.946
      }
    },
    {
      "id": "65238",
      "cp": "5425-000",
      "ville": "Chaves",
      "adresse": "En 2",
      "brand": "Galp",
      "lat": 41.639015,
      "lng": -7.570125,
      "fuels": {
        "gazole": 1.944,
        "sp95": 1.946
      }
    },
    {
      "id": "87198",
      "cp": "5400-601",
      "ville": "Chaves",
      "adresse": "En 503, Km 182.25",
      "brand": "Ilídio Mota",
      "lat": 41.77574,
      "lng": -7.32943,
      "fuels": {
        "gazole": 1.88,
        "sp95": 1.89
      }
    },
    {
      "id": "81644",
      "cp": "5400-577",
      "ville": "Chaves",
      "adresse": "Recta Da seara, Sanjurge",
      "brand": "Shell",
      "lat": 41.769276,
      "lng": -7.485171,
      "fuels": {
        "gazole": 1.944,
        "sp95": 1.949
      }
    },
    {
      "id": "93381",
      "cp": "5400-011",
      "ville": "Chaves",
      "adresse": "Rotunda Raio X",
      "brand": "Leclerc",
      "lat": 41.7332,
      "lng": -7.46877,
      "fuels": {
        "gazole": 1.874,
        "sp95": 1.876
      }
    },
    {
      "id": "76316",
      "cp": "5400-016",
      "ville": "Chaves",
      "adresse": "Rua 25 De Março De 1809  n.º 4  (lombo)",
      "brand": "Prio",
      "lat": 41.7221,
      "lng": -7.45758,
      "fuels": {
        "gazole": 1.884,
        "sp95": 1.889
      }
    },
    {
      "id": "90891",
      "cp": "5400-574",
      "ville": "Chaves",
      "adresse": "Rua Dom Gualdim pais, Lugar Do Campo Da Roda",
      "brand": "Prio",
      "lat": 41.724545,
      "lng": -7.466804,
      "fuels": {
        "sp95": 1.954
      }
    },
    {
      "id": "65436",
      "cp": "5040-289",
      "ville": "Mesão Frio",
      "adresse": "Rua Dos Abraços",
      "brand": "Galp",
      "lat": 41.159167,
      "lng": -7.890389,
      "fuels": {
        "gazole": 1.999,
        "sp95": 2.004
      }
    },
    {
      "id": "65452",
      "cp": "4880-232",
      "ville": "Mondim De Basto",
      "adresse": "av. dr. Augusto Brito",
      "brand": "Galp",
      "lat": 41.41156,
      "lng": -7.95585,
      "fuels": {
        "gazole": 1.999,
        "sp95": 2.004
      }
    },
    {
      "id": "70732",
      "cp": "4880-183",
      "ville": "Mondim De Basto",
      "adresse": "En 304",
      "brand": "Bp",
      "lat": 41.40387,
      "lng": -7.95699,
      "fuels": {
        "gazole": 2.029,
        "sp95": 2.044
      }
    },
    {
      "id": "93728",
      "cp": "4880-030",
      "ville": "Mondim De Basto",
      "adresse": "En 312 - Lugar Da Praça",
      "brand": "Prio",
      "lat": 41.45755,
      "lng": -7.926569,
      "fuels": {
        "gazole": 1.949,
        "sp95": 1.919
      }
    },
    {
      "id": "94672",
      "cp": "4880-191",
      "ville": "Mondim De Basto",
      "adresse": "En 312 - Vale Do Conde - Pedra Vedra",
      "brand": "Gaspe",
      "lat": 41.421528,
      "lng": -7.937484,
      "fuels": {
        "gazole": 2.139,
        "sp95": 2.089
      }
    },
    {
      "id": "79225",
      "cp": "4880-318",
      "ville": "Mondim De Basto",
      "adresse": "Lugar Do Meirão",
      "brand": "Gaspe",
      "lat": 41.41532,
      "lng": -7.8797,
      "fuels": {
        "gazole": 2.139,
        "sp95": 2.089
      }
    },
    {
      "id": "87726",
      "cp": "4880-258",
      "ville": "Mondim De Basto",
      "adresse": "r. Da Quinta Da Igreja nº 183s. Cristóvão",
      "brand": "Intermarché",
      "lat": 41.40662,
      "lng": -7.95689,
      "fuels": {
        "gazole": 1.829,
        "sp95": 1.895
      }
    },
    {
      "id": "93702",
      "cp": "5470-203",
      "ville": "Montalegre",
      "adresse": "av. Nuno Álvares Pereira",
      "brand": "Prio",
      "lat": 41.8233,
      "lng": -7.790686,
      "fuels": {
        "sp95": 1.909
      }
    },
    {
      "id": "75148",
      "cp": "5470-257",
      "ville": "Montalegre",
      "adresse": "av. Povo De Timor",
      "brand": "Intermarché",
      "lat": 41.82368,
      "lng": -7.79829,
      "fuels": {
        "gazole": 1.869,
        "sp95": 1.879
      }
    },
    {
      "id": "93795",
      "cp": "5470-069",
      "ville": "Montalegre",
      "adresse": "En 103 Penedones - Montalegre",
      "brand": "Genérico",
      "lat": 41.76412,
      "lng": -7.804109,
      "fuels": {
        "gazole": 1.958,
        "sp95": 2.01
      }
    },
    {
      "id": "65454",
      "cp": "5495-000",
      "ville": "Montalegre",
      "adresse": "En 103-Venda Nova",
      "brand": "Galp",
      "lat": 41.67315,
      "lng": -7.96095,
      "fuels": {
        "gazole": 1.989,
        "sp95": 1.996
      }
    },
    {
      "id": "77264",
      "cp": "5470-430",
      "ville": "Montalegre",
      "adresse": "En 11 - Zona Industrial De Salto",
      "brand": "Genérico",
      "lat": 41.65176,
      "lng": -7.9335,
      "fuels": {
        "gazole": 1.988,
        "sp95": 1.995
      }
    },
    {
      "id": "70073",
      "cp": "5470-201",
      "ville": "Montalegre",
      "adresse": "Loteamento Industrial , Lote 14",
      "brand": "Genérico",
      "lat": 41.83501,
      "lng": -7.77362,
      "fuels": {
        "gazole": 1.869,
        "sp95": 1.899
      }
    },
    {
      "id": "69549",
      "cp": "5470-000",
      "ville": "Montalegre",
      "adresse": "Lugar De Fernamouro",
      "brand": "Bp",
      "lat": 41.75012,
      "lng": -7.87209,
      "fuels": {
        "gazole": 2.029,
        "sp95": 2.044
      }
    },
    {
      "id": "67171",
      "cp": "5470-341",
      "ville": "Montalegre",
      "adresse": "Lugar De Poços\r\nPadornelos\r\nApartado 46",
      "brand": "Bp",
      "lat": 41.89314,
      "lng": -7.74708,
      "fuels": {
        "gazole": 1.949,
        "sp95": 2.004
      }
    },
    {
      "id": "65464",
      "cp": "5090-102",
      "ville": "Murça",
      "adresse": "Saída Do ip4",
      "brand": "Galp",
      "lat": 41.401507,
      "lng": -7.446909,
      "fuels": {
        "gazole": 1.999,
        "sp95": 2.005
      }
    },
    {
      "id": "66819",
      "cp": "5090-000",
      "ville": "Murça",
      "adresse": "Variante À En 15",
      "brand": "Repsol",
      "lat": 41.40636,
      "lng": -7.45023,
      "fuels": {
        "gazole": 1.999,
        "sp95": 2.005
      }
    },
    {
      "id": "65542",
      "cp": "5050-059",
      "ville": "Peso Da Régua",
      "adresse": "av. Tondela",
      "brand": "Galp",
      "lat": 41.167633,
      "lng": -7.79733,
      "fuels": {
        "gazole": 1.999,
        "sp95": 2.004
      }
    },
    {
      "id": "66820",
      "cp": "5050-000",
      "ville": "Peso Da Régua",
      "adresse": "Largo Da Estação",
      "brand": "Repsol",
      "lat": 41.16459,
      "lng": -7.79425,
      "fuels": {
        "gazole": 1.999,
        "sp95": 2.005
      }
    },
    {
      "id": "88674",
      "cp": "5050-102",
      "ville": "Peso Da Régua",
      "adresse": "Lugar Da Salgueiral - Godim",
      "brand": "Intermarché",
      "lat": 41.16222,
      "lng": -7.80365,
      "fuels": {
        "gazole": 1.859,
        "sp95": 1.865
      }
    },
    {
      "id": "77515",
      "cp": "5050-063",
      "ville": "Peso Da Régua",
      "adresse": "Quinta Das Forcas",
      "brand": "Pingo Doce",
      "lat": 41.16836,
      "lng": -7.80291,
      "fuels": {
        "gazole": 1.86,
        "sp95": 1.866
      }
    },
    {
      "id": "66816",
      "cp": "5050-000",
      "ville": "Peso Da Régua",
      "adresse": "Rua Da Ferreirinha",
      "brand": "Repsol",
      "lat": 41.15877,
      "lng": -7.78453,
      "fuels": {
        "gazole": 1.999,
        "sp95": 2.005
      }
    },
    {
      "id": "65543",
      "cp": "5050-261",
      "ville": "Peso Da Régua",
      "adresse": "Rua Da Ferreirinha",
      "brand": "Galp",
      "lat": 41.16477,
      "lng": -7.79401,
      "fuels": {
        "gazole": 1.999,
        "sp95": 2.004
      }
    },
    {
      "id": "65585",
      "cp": "4870-000",
      "ville": "Ribeira De Pena",
      "adresse": "En 206",
      "brand": "Galp",
      "lat": 41.51646,
      "lng": -7.80282,
      "fuels": {
        "gazole": 1.979,
        "sp95": 1.986
      }
    },
    {
      "id": "88939",
      "cp": "4870-159",
      "ville": "Ribeira De Pena",
      "adresse": "r. Das figueirinhas, 2",
      "brand": "Genérico",
      "lat": 41.519969,
      "lng": -7.796516,
      "fuels": {
        "gazole": 1.829,
        "sp95": 1.859
      }
    },
    {
      "id": "74835",
      "cp": "4870-042",
      "ville": "Ribeira De Pena",
      "adresse": "Rua Central Da fateca, 18",
      "brand": "Genérico",
      "lat": 41.469032,
      "lng": -7.851048,
      "fuels": {
        "gazole": 1.98,
        "sp95": 1.92
      }
    },
    {
      "id": "65588",
      "cp": "5060-302",
      "ville": "Sabrosa",
      "adresse": "av. Dos Combatentes Da Grande guerra, 17",
      "brand": "Galp",
      "lat": 41.2658,
      "lng": -7.57667,
      "fuels": {
        "gazole": 1.979,
        "sp95": 1.986
      }
    },
    {
      "id": "69557",
      "cp": "5060-432",
      "ville": "Sabrosa",
      "adresse": "Estrada Nacional 322",
      "brand": "Genérico",
      "lat": 41.26789,
      "lng": -7.63188,
      "fuels": {
        "gazole": 2.014,
        "sp95": 2.084
      }
    },
    {
      "id": "67766",
      "cp": "5060-209",
      "ville": "Sabrosa",
      "adresse": "Rua Ermo",
      "brand": "Gaspe",
      "lat": 41.26371,
      "lng": -7.58986,
      "fuels": {
        "gazole": 1.983,
        "sp95": 1.997
      }
    },
    {
      "id": "89848",
      "cp": "5060-193",
      "ville": "Sabrosa",
      "adresse": "Zona Industrial De sabrosa, Lote 20b",
      "brand": "Bp",
      "lat": 41.26472,
      "lng": -7.589908,
      "fuels": {
        "gazole": 2.029,
        "sp95": 2.044
      }
    },
    {
      "id": "65598",
      "cp": "5030-477",
      "ville": "Santa Marta De Penaguião",
      "adresse": "Rua Dos combatentes, 82",
      "brand": "Galp",
      "lat": 41.21288,
      "lng": -7.78446,
      "fuels": {
        "gazole": 1.999,
        "sp95": 2.004
      }
    },
    {
      "id": "69379",
      "cp": "5030-452",
      "ville": "Santa Marta De Penaguião",
      "adresse": "Santa Quitéria - Fontes",
      "brand": "Freitas",
      "lat": 41.22844,
      "lng": -7.82812,
      "fuels": {
        "gazole": 1.985,
        "sp95": 2
      }
    },
    {
      "id": "69740",
      "cp": "5430-472",
      "ville": "Valpaços",
      "adresse": "av. d. Maria Do Carmo carmona, Estrada nº213",
      "brand": "Freitas",
      "lat": 41.61273,
      "lng": -7.31207,
      "fuels": {
        "gazole": 1.929,
        "sp95": 1.949
      }
    },
    {
      "id": "69381",
      "cp": "5445-110",
      "ville": "Valpaços",
      "adresse": "av. Dom dinis, nº1",
      "brand": "Freitas",
      "lat": 41.56014,
      "lng": -7.428046,
      "fuels": {
        "gazole": 1.983,
        "sp95": 1.997
      }
    },
    {
      "id": "93258",
      "cp": "5430-163",
      "ville": "Valpaços",
      "adresse": "Avenida Do estádio,01",
      "brand": "Valcarce",
      "lat": 41.757376,
      "lng": -7.262693,
      "fuels": {
        "gazole": 1.885,
        "sp95": 1.858
      }
    },
    {
      "id": "66821",
      "cp": "5430-000",
      "ville": "Valpaços",
      "adresse": "Bairro Do Barreiro",
      "brand": "Repsol",
      "lat": 41.61162,
      "lng": -7.31303,
      "fuels": {
        "gazole": 1.949,
        "sp95": 1.955
      }
    },
    {
      "id": "65708",
      "cp": "5445-000",
      "ville": "Valpaços",
      "adresse": "En 206",
      "brand": "Galp",
      "lat": 41.56462,
      "lng": -7.42686,
      "fuels": {
        "gazole": 1.979,
        "sp95": 1.986
      }
    },
    {
      "id": "74778",
      "cp": "5430-000",
      "ville": "Valpaços",
      "adresse": "En 213 km13",
      "brand": "Genérico",
      "lat": 41.694223,
      "lng": -7.398284,
      "fuels": {
        "gazole": 2.003,
        "sp95": 2.017
      }
    },
    {
      "id": "66244",
      "cp": "5430-075",
      "ville": "Valpaços",
      "adresse": "En 213, nº2",
      "brand": "Cepsa",
      "lat": 41.668867,
      "lng": -7.336807,
      "fuels": {
        "gazole": 1.936,
        "sp95": 1.938
      }
    },
    {
      "id": "67254",
      "cp": "5430-424",
      "ville": "Valpaços",
      "adresse": "Rua Do freixo, nº 6",
      "brand": "Intermarché",
      "lat": 41.60636,
      "lng": -7.304635,
      "fuels": {
        "gazole": 1.819,
        "sp95": 1.859
      }
    },
    {
      "id": "94289",
      "cp": "5430-487",
      "ville": "Valpaços",
      "adresse": "Rua prof. dr. Amândio tavares, nº 37",
      "brand": "Galp",
      "lat": 41.604973,
      "lng": -7.314413,
      "fuels": {
        "gazole": 1.979,
        "sp95": 1.986
      }
    },
    {
      "id": "67033",
      "cp": "5450-036",
      "ville": "Vila Pouca De Aguiar",
      "adresse": "av. Abílio Ribeiro",
      "brand": "Intermarché",
      "lat": 41.49274,
      "lng": -7.64557,
      "fuels": {
        "gazole": 1.839,
        "sp95": 1.846
      }
    },
    {
      "id": "66823",
      "cp": "5450-000",
      "ville": "Vila Pouca De Aguiar",
      "adresse": "En 2",
      "brand": "Repsol",
      "lat": 41.50276,
      "lng": -7.63833,
      "fuels": {
        "gazole": 1.969,
        "sp95": 1.98
      }
    },
    {
      "id": "66974",
      "cp": "5450-280",
      "ville": "Vila Pouca De Aguiar",
      "adresse": "En 2 Km 44,8",
      "brand": "Bp",
      "lat": 41.43512,
      "lng": -7.67793,
      "fuels": {
        "gazole": 1.999,
        "sp95": 2.009
      }
    },
    {
      "id": "93202",
      "cp": "5450-262",
      "ville": "Vila Pouca De Aguiar",
      "adresse": "En 206 - Km 114.60",
      "brand": "Genérico",
      "lat": 41.498993,
      "lng": -7.71314,
      "fuels": {
        "gazole": 1.949,
        "sp95": 1.959
      }
    },
    {
      "id": "65758",
      "cp": "5450-000",
      "ville": "Vila Pouca De Aguiar",
      "adresse": "En 206 - Rua António José D'Ávila",
      "brand": "Galp",
      "lat": 41.501088,
      "lng": -7.643409,
      "fuels": {
        "gazole": 1.979,
        "sp95": 1.986
      }
    },
    {
      "id": "80260",
      "cp": "5450-005",
      "ville": "Vila Pouca De Aguiar",
      "adresse": "Largo Do Toural",
      "brand": "Gaspe",
      "lat": 41.49443,
      "lng": -7.64438,
      "fuels": {
        "gazole": 1.889,
        "sp95": 1.905
      }
    },
    {
      "id": "65757",
      "cp": "5450-000",
      "ville": "Vila Pouca De Aguiar",
      "adresse": "Rua Henrique Maia",
      "brand": "Galp",
      "lat": 41.53989,
      "lng": -7.60493,
      "fuels": {
        "gazole": 1.979,
        "sp95": 1.986
      }
    },
    {
      "id": "84944",
      "cp": "5000-131",
      "ville": "Vila Real",
      "adresse": "a4, Km 101.45, Lote 2, Lado Sul",
      "brand": "Bp",
      "lat": 41.3236,
      "lng": -7.64111,
      "fuels": {
        "gazole": 2.039,
        "sp95": 2.049
      }
    },
    {
      "id": "84943",
      "cp": "5000-131",
      "ville": "Vila Real",
      "adresse": "a4, Km 101.450, Lote 2, Lado Norte",
      "brand": "Bp",
      "lat": 41.32436,
      "lng": -7.64109,
      "fuels": {
        "gazole": 2.039,
        "sp95": 2.049
      }
    },
    {
      "id": "69186",
      "cp": "5000-651",
      "ville": "Vila Real",
      "adresse": "Av 1º De Maio nº325",
      "brand": "Prio",
      "lat": 41.300082,
      "lng": -7.741077,
      "fuels": {
        "sp95": 1.919
      }
    },
    {
      "id": "66075",
      "cp": "5000-424",
      "ville": "Vila Real",
      "adresse": "av. 25 De Abril",
      "brand": "Bp",
      "lat": 41.308872,
      "lng": -7.734071,
      "fuels": {
        "gazole": 1.999,
        "sp95": 2.044
      }
    },
    {
      "id": "66817",
      "cp": "5000-000",
      "ville": "Vila Real",
      "adresse": "av. Aureliano Barrigas",
      "brand": "Repsol",
      "lat": 41.30255,
      "lng": -7.74116,
      "fuels": {
        "gazole": 1.939,
        "sp95": 1.945
      }
    },
    {
      "id": "80925",
      "cp": "5000-557",
      "ville": "Vila Real",
      "adresse": "av. Da Europa",
      "brand": "Genérico",
      "lat": 41.29635,
      "lng": -7.73154,
      "fuels": {
        "gazole": 1.999,
        "sp95": 2.031
      }
    },
    {
      "id": "93111",
      "cp": "5000-557",
      "ville": "Vila Real",
      "adresse": "av. Da europa, 4",
      "brand": "Bp",
      "lat": 41.300516,
      "lng": -7.731374,
      "fuels": {
        "gazole": 2.029,
        "sp95": 2.039
      }
    },
    {
      "id": "66260",
      "cp": "5000-508",
      "ville": "Vila Real",
      "adresse": "av. Da noruega,",
      "brand": "Moeve",
      "lat": 41.29997,
      "lng": -7.752679,
      "fuels": {
        "gazole": 1.916,
        "sp95": 1.918
      }
    },
    {
      "id": "73351",
      "cp": "5000-471",
      "ville": "Vila Real",
      "adresse": "En 15 Km 107,5/En 2 Km 67,0, Parada De Cunhos",
      "brand": "Tuacar",
      "lat": 41.28516,
      "lng": -7.76024,
      "fuels": {
        "gazole": 1.929,
        "sp95": 1.925
      }
    },
    {
      "id": "80777",
      "cp": "5000-781",
      "ville": "Vila Real",
      "adresse": "En 2, Vilarinho Da Samardã",
      "brand": "Repsol",
      "lat": 41.389,
      "lng": -7.70284,
      "fuels": {
        "gazole": 1.939,
        "sp95": 1.945
      }
    },
    {
      "id": "93303",
      "cp": "5000-742",
      "ville": "Vila Real",
      "adresse": "Estrada Nacional 304 - Lugar Da Sardoeira",
      "brand": "Alves Bandeira",
      "lat": 41.28176,
      "lng": -7.85166,
      "fuels": {
        "gazole": 1.959,
        "sp95": 1.976
      }
    },
    {
      "id": "70303",
      "cp": "5000-071",
      "ville": "Vila Real",
      "adresse": "Largo Da Feira",
      "brand": "Genérico",
      "lat": 41.29141,
      "lng": -7.875211,
      "fuels": {
        "gazole": 1.949,
        "sp95": 1.955
      }
    },
    {
      "id": "90541",
      "cp": "5000-082",
      "ville": "Vila Real",
      "adresse": "Mata Do Ramalhão En 313, Km 40\nZona Industrial Constantim",
      "brand": "Prio",
      "lat": 41.27549,
      "lng": -7.715013,
      "fuels": {
        "gazole": 1.919,
        "sp95": 1.919
      }
    },
    {
      "id": "65759",
      "cp": "5000-560",
      "ville": "Vila Real",
      "adresse": "Praceta Da Carreira",
      "brand": "Galp",
      "lat": 41.30092,
      "lng": -7.74066,
      "fuels": {
        "gazole": 1.944,
        "sp95": 1.946
      }
    },
    {
      "id": "69190",
      "cp": "5000-047",
      "ville": "Vila Real",
      "adresse": "Quinta Do entroncamento, Lote 16",
      "brand": "Moeve",
      "lat": 41.30915,
      "lng": -7.735555,
      "fuels": {
        "gazole": 1.916,
        "sp95": 1.918
      }
    },
    {
      "id": "86711",
      "cp": "5000-046",
      "ville": "Vila Real",
      "adresse": "Quinta Do Lameirão",
      "brand": "Intermarché",
      "lat": 41.3102,
      "lng": -7.72441,
      "fuels": {
        "gazole": 1.879,
        "sp95": 1.879
      }
    },
    {
      "id": "91424",
      "cp": "5000-261",
      "ville": "Vila Real",
      "adresse": "r. Gaspar sameiro,  N 920",
      "brand": "Repsol",
      "lat": 41.30531,
      "lng": -7.72257,
      "fuels": {
        "gazole": 1.939,
        "sp95": 1.945
      }
    },
    {
      "id": "66103",
      "cp": "5000-185",
      "ville": "Vila Real",
      "adresse": "Rua Dos Lagoeiros lt. 10",
      "brand": "Bp",
      "lat": 41.307814,
      "lng": -7.756435,
      "fuels": {
        "gazole": 1.999,
        "sp95": 2.044
      }
    },
    {
      "id": "76106",
      "cp": "5000-587",
      "ville": "Vila Real",
      "adresse": "Rua dr. Otílio Figueiredo",
      "brand": "Auchan",
      "lat": 41.29717,
      "lng": -7.736542,
      "fuels": {
        "gazole": 1.879,
        "sp95": 1.879
      }
    },
    {
      "id": "65760",
      "cp": "5000-556",
      "ville": "Vila Real",
      "adresse": "Rua Visconde Carnaxide nº 26",
      "brand": "Galp",
      "lat": 41.29383,
      "lng": -7.73606,
      "fuels": {
        "gazole": 1.944,
        "sp95": 1.946
      }
    },
    {
      "id": "75011",
      "cp": "5000-081",
      "ville": "Vila Real",
      "adresse": "Zona Industrial Constantim",
      "brand": "Recheio",
      "lat": 41.27658,
      "lng": -7.70339,
      "fuels": {
        "gazole": 1.849
      }
    },
    {
      "id": "66076",
      "cp": "5000-082",
      "ville": "Vila Real",
      "adresse": "Zona Industrial De Constantim - Fte Ao Aeródromo Constantim",
      "brand": "Bp",
      "lat": 41.276123,
      "lng": -7.716888,
      "fuels": {
        "gazole": 1.999,
        "sp95": 2.054
      }
    }
  ]
}